{"businesses": [{"id": "bC3FfFqfaQu7gZznjkmt9Q", "alias": "mona-lisa-restaurant-san-francisco", "name": "Mona Lisa Restaurant", "image_url": "https://s3-media2.fl.yelpcdn.com/bphoto/LLD2tSu-kXgesqnk2DgeEQ/o.jpg", "is_closed": false, "url": "https://www.yelp.com/biz/mona-lisa-restaurant-san-francisco?adjust_creative=Klanz-jboxl2XzqrjP6LLw&utm_campaign=yelp_api_v3&utm_medium=api_v3_business_search&utm_source=Klanz-jboxl2XzqrjP6LLw", "review_count": 1975, "categories": [{"alias": "italian", "title": "Italian"}], "rating": 4.0, "coordinates": {"latitude": 37.7983902, "longitude": -122.4077551}, "transactions": ["delivery", "restaurant_reservation", "pickup"], "price": "$$", "location": {"address1": "353 Columbus Ave", "address2": "", "address3": "", "city": "San Francisco", "zip_code": "94133", "country": "US", "state": "CA", "display_address": ["353 Columbus Ave", "San Francisco, CA 94133"]}, "phone": "+14159894917", "display_phone": "(415) 989-4917", "distance": 4872.090921626337}, {"id": "67EuvzPV_trysYvTYfjJUA", "alias": "fiery-cafe-san-francisco", "name": "Fiery Cafe", "image_url": "https://s3-media3.fl.yelpcdn.com/bphoto/U8S2wjflPJgJbQ01FdOyew/o.jpg", "is_closed": false, "url": "https://www.yelp.com/biz/fiery-cafe-san-francisco?adjust_creative=Klanz-jboxl2XzqrjP6LLw&utm_campaign=yelp_api_v3&utm_medium=api_v3_business_search&utm_source=Klanz-jboxl2XzqrjP6LLw", "review_count": 65, "categories": [{"alias": "sandwiches", "title": "Sandwiches"}, {"alias": "cafes", "title": "Cafes"}, {"alias": "salad", "title": "Salad"}], "rating": 4.5, "coordinates": {"latitude": 37.7543516032916, "longitude": -122.477947957814}, "transactions": ["delivery", "pickup"], "location": {"address1": "1316 Noriega St", "address2": "", "address3": null, "city": "San Francisco", "zip_code": "94122", "country": "US", "state": "CA", "display_address": ["1316 Noriega St", "San Francisco, CA 94122"]}, "phone": "+14157539906", "display_phone": "(415) 753-9906", "distance": 3720.3383264565846}, {"id": "BcW0vRdM8N-rteR2FfV1jg", "alias": "deli-board-san-francisco", "name": "Deli Board", "image_url": "https://s3-media1.fl.yelpcdn.com/bphoto/ZBA5_5xjgfmJMdxcPBkHOw/o.jpg", "is_closed": false, "url": "https://www.yelp.com/biz/deli-board-san-francisco?adjust_creative=Klanz-jboxl2XzqrjP6LLw&utm_campaign=yelp_api_v3&utm_medium=api_v3_business_search&utm_source=Klanz-jboxl2XzqrjP6LLw", "review_count": 1501, "categories": [{"alias": "delis", "title": "Delis"}, {"alias": "sandwiches", "title": "Sandwiches"}], "rating": 4.5, "coordinates": {"latitude": 37.7776247966103, "longitude": -122.407012712007}, "transactions": ["delivery"], "price": "$$", "location": {"address1": "1058 Folsom St", "address2": "", "address3": "", "city": "San Francisco", "zip_code": "94103", "country": "US", "state": "CA", "display_address": ["1058 Folsom St", "San Francisco, CA 94103"]}, "phone": "+14155527687", "display_phone": "(415) 552-7687", "distance": 3186.2946459576806}, {"id": "meKoCMhxFzYQnDlBPerj-g", "alias": "cafe-382-south-san-francisco", "name": "Cafe 382", "image_url": "https://s3-media3.fl.yelpcdn.com/bphoto/iwAWviIF3gBzPk0Ih4ZkIw/o.jpg", "is_closed": false, "url": "https://www.yelp.com/biz/cafe-382-south-san-francisco?adjust_creative=Klanz-jboxl2XzqrjP6LLw&utm_campaign=yelp_api_v3&utm_medium=api_v3_business_search&utm_source=Klanz-jboxl2XzqrjP6LLw", "review_count": 833, "categories": [{"alias": "newamerican", "title": "American (New)"}, {"alias": "cafes", "title": "Cafes"}, {"alias": "breakfast_brunch", "title": "Breakfast & Brunch"}], "rating": 4.5, "coordinates": {"latitude": 37.655673395519, "longitude": -122.411917256493}, "transactions": ["delivery"], "price": "$$", "location": {"address1": "382 Grand Ave", "address2": "", "address3": null, "city": "South San Francisco", "zip_code": "94080", "country": "US", "state": "CA", "display_address": ["382 Grand Ave", "South San Francisco, CA 94080"]}, "phone": "+16507631640", "display_phone": "(650) 763-1640", "distance": 11897.906324055773}, {"id": "cP_wdOcf21fd2VWOXZH0cQ", "alias": "sams-cable-car-lounge-san-francisco", "name": "Sam's Cable Car Lounge", "image_url": "https://s3-media1.fl.yelpcdn.com/bphoto/GCPfcJbgvfLpoS4XvTRPNw/o.jpg", "is_closed": false, "url": "https://www.yelp.com/biz/sams-cable-car-lounge-san-francisco?adjust_creative=Klanz-jboxl2XzqrjP6LLw&utm_campaign=yelp_api_v3&utm_medium=api_v3_business_search&utm_source=Klanz-jboxl2XzqrjP6LLw", "review_count": 499, "categories": [{"alias": "lounges", "title": "Lounges"}, {"alias": "beer_and_wine", "title": "Beer, Wine & Spirits"}, {"alias": "cocktailbars", "title": "Cocktail Bars"}], "rating": 3.5, "coordinates": {"latitude": 37.7867967, "longitude": -122.4079124}, "transactions": ["delivery"], "price": "$$", "location": {"address1": "222 Powell St", "address2": "", "address3": "", "city": "San Francisco", "zip_code": "94102", "country": "US", "state": "CA", "display_address": ["222 Powell St", "San Francisco, CA 94102"]}, "phone": "+14154347222", "display_phone": "(415) 434-7222", "distance": 3818.682677477067}, {"id": "2PRgMkqX2dRrcuaJEi_1Rg", "alias": "a-la-turca-san-francisco-3", "name": "A La Turca", "image_url": "https://s3-media2.fl.yelpcdn.com/bphoto/eaPLiuabAr0l4PTOcW0SrQ/o.jpg", "is_closed": false, "url": "https://www.yelp.com/biz/a-la-turca-san-francisco-3?adjust_creative=Klanz-jboxl2XzqrjP6LLw&utm_campaign=yelp_api_v3&utm_medium=api_v3_business_search&utm_source=Klanz-jboxl2XzqrjP6LLw", "review_count": 839, "categories": [{"alias": "turkish", "title": "Turkish"}, {"alias": "mediterranean", "title": "Mediterranean"}], "rating": 4.0, "coordinates": {"latitude": 37.78597, "longitude": -122.41759}, "transactions": ["delivery", "pickup"], "price": "$$", "location": {"address1": "869 Geary St", "address2": "", "address3": "", "city": "San Francisco", "zip_code": "94109", "country": "US", "state": "CA", "display_address": ["869 Geary St", "San Francisco, CA 94109"]}, "phone": "+14153451011", "display_phone": "(415) 345-1011", "distance": 3249.1311568000788}, {"id": "vx24hB1i2705qTIBqkx0kQ", "alias": "angel-island-cafe-tiburon", "name": "Angel Island Cafe", "image_url": "https://s3-media1.fl.yelpcdn.com/bphoto/PuOwZ6qJywm6iGm2NfHDTA/o.jpg", "is_closed": false, "url": "https://www.yelp.com/biz/angel-island-cafe-tiburon?adjust_creative=Klanz-jboxl2XzqrjP6LLw&utm_campaign=yelp_api_v3&utm_medium=api_v3_business_search&utm_source=Klanz-jboxl2XzqrjP6LLw", "review_count": 97, "categories": [{"alias": "cafes", "title": "Cafes"}], "rating": 3.5, "coordinates": {"latitude": 37.8680293104953, "longitude": -122.434429947264}, "transactions": ["delivery"], "price": "$$", "location": {"address1": "1520 Mar W", "address2": "Ste G", "address3": "", "city": "Tiburon", "zip_code": "94920", "country": "US", "state": "CA", "display_address": ["1520 Mar W", "Ste G", "Tiburon, CA 94920"]}, "phone": "+14154353392", "display_phone": "(415) 435-3392", "distance": 11913.608327868957}, {"id": "WS9QI7amntnRUu-cgewQAw", "alias": "o-keeffes-bar-san-francisco", "name": "O'Keeffe's Bar", "image_url": "https://s3-media3.fl.yelpcdn.com/bphoto/FkB7qUaEuSb58oH85Q8r0w/o.jpg", "is_closed": false, "url": "https://www.yelp.com/biz/o-keeffes-bar-san-francisco?adjust_creative=Klanz-jboxl2XzqrjP6LLw&utm_campaign=yelp_api_v3&utm_medium=api_v3_business_search&utm_source=Klanz-jboxl2XzqrjP6LLw", "review_count": 79, "categories": [{"alias": "bars", "title": "Bars"}], "rating": 4.5, "coordinates": {"latitude": 37.7773991972208, "longitude": -122.462901771069}, "transactions": [], "price": "$", "location": {"address1": "598 5th Ave", "address2": "", "address3": "", "city": "San Francisco", "zip_code": "94118", "country": "US", "state": "CA", "display_address": ["598 5th Ave", "San Francisco, CA 94118"]}, "phone": "+14157511449", "display_phone": "(415) 751-1449", "distance": 2961.9480315020633}, {"id": "tDlYC6T-X7QT9hfc7fupQw", "alias": "peasant-pies-noe-valley-san-francisco", "name": "Peasant Pies Noe Valley", "image_url": "https://s3-media3.fl.yelpcdn.com/bphoto/Dseid0laW8wO9RHJEuPipQ/o.jpg", "is_closed": false, "url": "https://www.yelp.com/biz/peasant-pies-noe-valley-san-francisco?adjust_creative=Klanz-jboxl2XzqrjP6LLw&utm_campaign=yelp_api_v3&utm_medium=api_v3_business_search&utm_source=Klanz-jboxl2XzqrjP6LLw", "review_count": 288, "categories": [{"alias": "desserts", "title": "Desserts"}, {"alias": "breakfast_brunch", "title": "Breakfast & Brunch"}], "rating": 4.0, "coordinates": {"latitude": 37.7513748018903, "longitude": -122.434446959525}, "transactions": ["delivery", "pickup"], "price": "$", "location": {"address1": "4108 24th St", "address2": "", "address3": "", "city": "San Francisco", "zip_code": "94114", "country": "US", "state": "CA", "display_address": ["4108 24th St", "San Francisco, CA 94114"]}, "phone": "+14156421316", "display_phone": "(415) 642-1316", "distance": 1073.5832605800338}, {"id": "Ux_bs6eZ7WqIsLepTw1uBw", "alias": "erics-restaurant-san-francisco", "name": "Eric's Restaurant", "image_url": "https://s3-media3.fl.yelpcdn.com/bphoto/WkRbWm_BJJKAAiHNPKbVjg/o.jpg", "is_closed": false, "url": "https://www.yelp.com/biz/erics-restaurant-san-francisco?adjust_creative=Klanz-jboxl2XzqrjP6LLw&utm_campaign=yelp_api_v3&utm_medium=api_v3_business_search&utm_source=Klanz-jboxl2XzqrjP6LLw", "review_count": 782, "categories": [{"alias": "chinese", "title": "Chinese"}, {"alias": "seafood", "title": "Seafood"}, {"alias": "noodles", "title": "Noodles"}], "rating": 3.5, "coordinates": {"latitude": 37.74675, "longitude": -122.42724}, "transactions": ["pickup"], "price": "$$", "location": {"address1": "1500 Church St", "address2": "", "address3": "", "city": "San Francisco", "zip_code": "94131", "country": "US", "state": "CA", "display_address": ["1500 Church St", "San Francisco, CA 94131"]}, "phone": "+14152820919", "display_phone": "(415) 282-0919", "distance": 1765.9755453494126}, {"id": "CR5_3AHC-CqySDwOrynxWA", "alias": "super-duper-burgers-san-francisco-5", "name": "Super Duper Burgers", "image_url": "https://s3-media4.fl.yelpcdn.com/bphoto/qk9bMwSFSCCGujyF-3J1FA/o.jpg", "is_closed": false, "url": "https://www.yelp.com/biz/super-duper-burgers-san-francisco-5?adjust_creative=Klanz-jboxl2XzqrjP6LLw&utm_campaign=yelp_api_v3&utm_medium=api_v3_business_search&utm_source=Klanz-jboxl2XzqrjP6LLw", "review_count": 952, "categories": [{"alias": "burgers", "title": "Burgers"}, {"alias": "tradamerican", "title": "American (Traditional)"}], "rating": 4.0, "coordinates": {"latitude": 37.800399, "longitude": -122.439659}, "transactions": ["delivery"], "price": "$$", "location": {"address1": "2201 Chestnut St", "address2": "", "address3": "", "city": "San Francisco", "zip_code": "94123", "country": "US", "state": "CA", "display_address": ["2201 Chestnut St", "San Francisco, CA 94123"]}, "phone": "+14159316258", "display_phone": "(415) 931-6258", "distance": 4401.2124348351235}, {"id": "7UjYrhJ6_ggqkfsp-B9iCA", "alias": "grand-lake-kitchen-lake-merritt-oakland", "name": "Grand Lake Kitchen - Lake Merritt", "image_url": "https://s3-media3.fl.yelpcdn.com/bphoto/a5V2t2ZCfIqvRXszyqVCCg/o.jpg", "is_closed": false, "url": "https://www.yelp.com/biz/grand-lake-kitchen-lake-merritt-oakland?adjust_creative=Klanz-jboxl2XzqrjP6LLw&utm_campaign=yelp_api_v3&utm_medium=api_v3_business_search&utm_source=Klanz-jboxl2XzqrjP6LLw", "review_count": 1183, "categories": [{"alias": "newamerican", "title": "American (New)"}, {"alias": "breakfast_brunch", "title": "Breakfast & Brunch"}, {"alias": "delis", "title": "Delis"}], "rating": 4.0, "coordinates": {"latitude": 37.8093287909239, "longitude": -122.25007518683}, "transactions": ["delivery"], "price": "$$", "location": {"address1": "576 Grand Ave", "address2": "", "address3": "", "city": "Oakland", "zip_code": "94610", "country": "US", "state": "CA", "display_address": ["576 Grand Ave", "Oakland, CA 94610"]}, "phone": "+15109229582", "display_phone": "(510) 922-9582", "distance": 17240.735303929054}, {"id": "prl4rkVXnSj2eVUFv-VZqw", "alias": "707-sutter-san-francisco", "name": "707 Sutter", "image_url": "https://s3-media3.fl.yelpcdn.com/bphoto/LMU7EA0RwrM-l_vB4tcLJw/o.jpg", "is_closed": false, "url": "https://www.yelp.com/biz/707-sutter-san-francisco?adjust_creative=Klanz-jboxl2XzqrjP6LLw&utm_campaign=yelp_api_v3&utm_medium=api_v3_business_search&utm_source=Klanz-jboxl2XzqrjP6LLw", "review_count": 771, "categories": [{"alias": "korean", "title": "Korean"}], "rating": 4.0, "coordinates": {"latitude": 37.7886616504901, "longitude": -122.412151023746}, "transactions": ["delivery", "pickup"], "price": "$$", "location": {"address1": "707 Sutter St", "address2": "", "address3": "", "city": "San Francisco", "zip_code": "94109", "country": "US", "state": "CA", "display_address": ["707 Sutter St", "San Francisco, CA 94109"]}, "phone": "+14153467979", "display_phone": "(415) 346-7979", "distance": 3753.6217587875135}, {"id": "d40PbnRah7AWH_dclw1h_Q", "alias": "rintaro-san-francisco-4", "name": "Rintaro", "image_url": "https://s3-media1.fl.yelpcdn.com/bphoto/w-XxiV9K2KGisIo2r-hcdw/o.jpg", "is_closed": false, "url": "https://www.yelp.com/biz/rintaro-san-francisco-4?adjust_creative=Klanz-jboxl2XzqrjP6LLw&utm_campaign=yelp_api_v3&utm_medium=api_v3_business_search&utm_source=Klanz-jboxl2XzqrjP6LLw", "review_count": 737, "categories": [{"alias": "izakaya", "title": "Izakaya"}], "rating": 4.0, "coordinates": {"latitude": 37.76881, "longitude": -122.41511}, "transactions": ["delivery"], "price": "$$$", "location": {"address1": "82 14th St", "address2": "", "address3": "", "city": "San Francisco", "zip_code": "94103", "country": "US", "state": "CA", "display_address": ["82 14th St", "San Francisco, CA 94103"]}, "phone": "+14155897022", "display_phone": "(415) 589-7022", "distance": 2071.4305270365676}, {"id": "UXru0FThfONxJQ95oPnaBw", "alias": "zeitgeist-san-francisco", "name": "Zeitgeist", "image_url": "https://s3-media2.fl.yelpcdn.com/bphoto/XmEQezVOvHdOV25Rs1Mzsg/o.jpg", "is_closed": false, "url": "https://www.yelp.com/biz/zeitgeist-san-francisco?adjust_creative=Klanz-jboxl2XzqrjP6LLw&utm_campaign=yelp_api_v3&utm_medium=api_v3_business_search&utm_source=Klanz-jboxl2XzqrjP6LLw", "review_count": 2677, "categories": [{"alias": "bars", "title": "Bars"}, {"alias": "burgers", "title": "Burgers"}, {"alias": "beergardens", "title": "Beer Gardens"}], "rating": 3.5, "coordinates": {"latitude": 37.77003, "longitude": -122.4221}, "transactions": ["delivery"], "price": "$", "location": {"address1": "199 Valencia St", "address2": "", "address3": "", "city": "San Francisco", "zip_code": "94103", "country": "US", "state": "CA", "display_address": ["199 Valencia St", "San Francisco, CA 94103"]}, "phone": "+14152557505", "display_phone": "(415) 255-7505", "distance": 1619.0323877079472}, {"id": "noJh7eBvKRVdv5cbx4HDiA", "alias": "sequoia-sake-san-francisco", "name": "Sequoia Sake", "image_url": "https://s3-media1.fl.yelpcdn.com/bphoto/gLV_NwLkHmngAQsus7vugA/o.jpg", "is_closed": false, "url": "https://www.yelp.com/biz/sequoia-sake-san-francisco?adjust_creative=Klanz-jboxl2XzqrjP6LLw&utm_campaign=yelp_api_v3&utm_medium=api_v3_business_search&utm_source=Klanz-jboxl2XzqrjP6LLw", "review_count": 59, "categories": [{"alias": "breweries", "title": "Breweries"}, {"alias": "winetastingroom", "title": "Wine Tasting Room"}], "rating": 5.0, "coordinates": {"latitude": 37.7403460911486, "longitude": -122.403122749483}, "transactions": [], "price": "$", "location": {"address1": "50 Apparel Way", "address2": "", "address3": "", "city": "San Francisco", "zip_code": "94124", "country": "US", "state": "CA", "display_address": ["50 Apparel Way", "San Francisco, CA 94124"]}, "phone": "+14152250515", "display_phone": "(415) 225-0515", "distance": 3715.8192137183073}, {"id": "n-ZuXqDouMCbvYsP1kDhqA", "alias": "wok-station-san-francisco-2", "name": "Wok Station", "image_url": "https://s3-media1.fl.yelpcdn.com/bphoto/32Mg3Wizx6fVhyV__qlJSQ/o.jpg", "is_closed": false, "url": "https://www.yelp.com/biz/wok-station-san-francisco-2?adjust_creative=Klanz-jboxl2XzqrjP6LLw&utm_campaign=yelp_api_v3&utm_medium=api_v3_business_search&utm_source=Klanz-jboxl2XzqrjP6LLw", "review_count": 304, "categories": [{"alias": "chinese", "title": "Chinese"}], "rating": 4.0, "coordinates": {"latitude": 37.7635202819256, "longitude": -122.481261156499}, "transactions": ["delivery", "pickup"], "price": "$$", "location": {"address1": "2154 Irving St", "address2": "", "address3": "", "city": "San Francisco", "zip_code": "94122", "country": "US", "state": "CA", "display_address": ["2154 Irving St", "San Francisco, CA 94122"]}, "phone": "+14156389998", "display_phone": "(415) 638-9998", "distance": 3950.188332061807}, {"id": "SWaPo-ndcw3CzxXrnaiKXg", "alias": "round-n-round-pot-brisbane", "name": "Round N Round Pot", "image_url": "https://s3-media2.fl.yelpcdn.com/bphoto/nYHoQWenYvA5j6Zln2sdHA/o.jpg", "is_closed": false, "url": "https://www.yelp.com/biz/round-n-round-pot-brisbane?adjust_creative=Klanz-jboxl2XzqrjP6LLw&utm_campaign=yelp_api_v3&utm_medium=api_v3_business_search&utm_source=Klanz-jboxl2XzqrjP6LLw", "review_count": 224, "categories": [{"alias": "hotpot", "title": "Hot Pot"}, {"alias": "seafood", "title": "Seafood"}], "rating": 4.0, "coordinates": {"latitude": 37.68563, "longitude": -122.40113}, "transactions": ["delivery", "pickup"], "price": "$$", "location": {"address1": "182 Old County Rd", "address2": null, "address3": "", "city": "Brisbane", "zip_code": "94005", "country": "US", "state": "CA", "display_address": ["182 Old County Rd", "Brisbane, CA 94005"]}, "phone": "+14157158419", "display_phone": "(415) 715-8419", "distance": 8974.15620371769}, {"id": "BbeE3FtAlrAfr5wk8vkuyw", "alias": "caf\u00e9-guatemalteco-san-francisco-3", "name": " Caf\u00e9 Guatemalteco", "image_url": "https://s3-media3.fl.yelpcdn.com/bphoto/GITBdZtIFh2viQ1Slw_Wbw/o.jpg", "is_closed": false, "url": "https://www.yelp.com/biz/caf%C3%A9-guatemalteco-san-francisco-3?adjust_creative=Klanz-jboxl2XzqrjP6LLw&utm_campaign=yelp_api_v3&utm_medium=api_v3_business_search&utm_source=Klanz-jboxl2XzqrjP6LLw", "review_count": 130, "categories": [{"alias": "cafes", "title": "Cafes"}], "rating": 4.5, "coordinates": {"latitude": 37.72137274322983, "longitude": -122.43755025767108}, "transactions": ["delivery", "pickup"], "price": "$", "location": {"address1": "4794 Mission St", "address2": "", "address3": "", "city": "San Francisco", "zip_code": "94112", "country": "US", "state": "CA", "display_address": ["4794 Mission St", "San Francisco, CA 94112"]}, "phone": "+14155089735", "display_phone": "(415) 508-9735", "distance": 4396.2278959684545}, {"id": "x2djtavZIsv84ZKnz_vRMA", "alias": "beretta-san-francisco-2", "name": "Beretta", "image_url": "https://s3-media4.fl.yelpcdn.com/bphoto/ZbD1EvYCH0haRdmZ3E_7Ow/o.jpg", "is_closed": false, "url": "https://www.yelp.com/biz/beretta-san-francisco-2?adjust_creative=Klanz-jboxl2XzqrjP6LLw&utm_campaign=yelp_api_v3&utm_medium=api_v3_business_search&utm_source=Klanz-jboxl2XzqrjP6LLw", "review_count": 212, "categories": [{"alias": "italian", "title": "Italian"}, {"alias": "pizza", "title": "Pizza"}, {"alias": "breakfast_brunch", "title": "Breakfast & Brunch"}], "rating": 4.0, "coordinates": {"latitude": 37.775749, "longitude": -122.43825}, "transactions": ["restaurant_reservation"], "price": "$$", "location": {"address1": "661 Divisadero St", "address2": "", "address3": null, "city": "San Francisco", "zip_code": "94117", "country": "US", "state": "CA", "display_address": ["661 Divisadero St", "San Francisco, CA 94117"]}, "phone": "+14156545211", "display_phone": "(415) 654-5211", "distance": 1658.1789778902603}, {"id": "Wdlcoex6glY5IAMCt_tyGA", "alias": "kamei-restaurant-supply-san-francisco", "name": "Kamei Restaurant Supply", "image_url": "https://s3-media2.fl.yelpcdn.com/bphoto/4vSwXHXnNX_99GbLrdBixw/o.jpg", "is_closed": false, "url": "https://www.yelp.com/biz/kamei-restaurant-supply-san-francisco?adjust_creative=Klanz-jboxl2XzqrjP6LLw&utm_campaign=yelp_api_v3&utm_medium=api_v3_business_search&utm_source=Klanz-jboxl2XzqrjP6LLw", "review_count": 420, "categories": [{"alias": "suppliesrestaurant", "title": "Restaurant Supplies"}], "rating": 4.0, "coordinates": {"latitude": 37.78267, "longitude": -122.46493}, "transactions": [], "location": {"address1": "525-547 Clement St", "address2": "", "address3": "", "city": "San Francisco", "zip_code": "94118", "country": "US", "state": "CA", "display_address": ["525-547 Clement St", "San Francisco, CA 94118"]}, "phone": "+14156663699", "display_phone": "(415) 666-3699", "distance": 3501.577630758398}, {"id": "qZFRnzb-VTfkMC2vDoWJVA", "alias": "hot-cookie-san-francisco", "name": "Hot Cookie", "image_url": "https://s3-media3.fl.yelpcdn.com/bphoto/DIBG2Q_ayOf4E1o_8yzcaw/o.jpg", "is_closed": false, "url": "https://www.yelp.com/biz/hot-cookie-san-francisco?adjust_creative=Klanz-jboxl2XzqrjP6LLw&utm_campaign=yelp_api_v3&utm_medium=api_v3_business_search&utm_source=Klanz-jboxl2XzqrjP6LLw", "review_count": 1539, "categories": [{"alias": "bakeries", "title": "Bakeries"}, {"alias": "desserts", "title": "Desserts"}], "rating": 4.0, "coordinates": {"latitude": 37.76227, "longitude": -122.43494}, "transactions": ["delivery", "pickup"], "price": "$$", "location": {"address1": "407 Castro St", "address2": "", "address3": "", "city": "San Francisco", "zip_code": "94114", "country": "US", "state": "CA", "display_address": ["407 Castro St", "San Francisco, CA 94114"]}, "phone": "+14156212350", "display_phone": "(415) 621-2350", "distance": 206.98611176056144}, {"id": "RmR0qyR0tCnGTFwmd5x0pg", "alias": "sunset-cantina-san-francisco", "name": "Sunset Cantina", "image_url": "https://s3-media2.fl.yelpcdn.com/bphoto/K11dwTvyjdvJmT37zP2zaQ/o.jpg", "is_closed": false, "url": "https://www.yelp.com/biz/sunset-cantina-san-francisco?adjust_creative=Klanz-jboxl2XzqrjP6LLw&utm_campaign=yelp_api_v3&utm_medium=api_v3_business_search&utm_source=Klanz-jboxl2XzqrjP6LLw", "review_count": 224, "categories": [{"alias": "cocktailbars", "title": "Cocktail Bars"}, {"alias": "mexican", "title": "Mexican"}], "rating": 4.5, "coordinates": {"latitude": 37.760974, "longitude": -122.4988}, "transactions": ["delivery"], "price": "$$", "location": {"address1": "3414 Judah St", "address2": "", "address3": null, "city": "San Francisco", "zip_code": "94122", "country": "US", "state": "CA", "display_address": ["3414 Judah St", "San Francisco, CA 94122"]}, "phone": "+14155718874", "display_phone": "(415) 571-8874", "distance": 5481.29462617406}, {"id": "lKdg2_B4v0mr3irBzeaHWA", "alias": "raavi-san-francisco-8", "name": "Raavi", "image_url": "https://s3-media2.fl.yelpcdn.com/bphoto/W_9HxerLOpHSrJUiafELWw/o.jpg", "is_closed": false, "url": "https://www.yelp.com/biz/raavi-san-francisco-8?adjust_creative=Klanz-jboxl2XzqrjP6LLw&utm_campaign=yelp_api_v3&utm_medium=api_v3_business_search&utm_source=Klanz-jboxl2XzqrjP6LLw", "review_count": 552, "categories": [{"alias": "indpak", "title": "Indian"}], "rating": 4.0, "coordinates": {"latitude": 37.79612, "longitude": -122.40457}, "transactions": ["delivery", "pickup"], "price": "$", "location": {"address1": "533 Jackson St", "address2": "", "address3": "", "city": "San Francisco", "zip_code": "94133", "country": "US", "state": "CA", "display_address": ["533 Jackson St", "San Francisco, CA 94133"]}, "phone": "+14156930499", "display_phone": "(415) 693-0499", "distance": 4813.682297984221}, {"id": "L2vwqxuki-CiFU9neHxHhQ", "alias": "slice-house-haight-by-tony-gemignani-san-francisco", "name": "Slice House Haight by Tony Gemignani", "image_url": "https://s3-media2.fl.yelpcdn.com/bphoto/Ym9q1llVm5dt60Msvi6ARw/o.jpg", "is_closed": false, "url": "https://www.yelp.com/biz/slice-house-haight-by-tony-gemignani-san-francisco?adjust_creative=Klanz-jboxl2XzqrjP6LLw&utm_campaign=yelp_api_v3&utm_medium=api_v3_business_search&utm_source=Klanz-jboxl2XzqrjP6LLw", "review_count": 335, "categories": [{"alias": "pizza", "title": "Pizza"}], "rating": 4.0, "coordinates": {"latitude": 37.76963, "longitude": -122.44754}, "transactions": ["delivery", "pickup"], "price": "$$", "location": {"address1": "1535 Haight St", "address2": "", "address3": null, "city": "San Francisco", "zip_code": "94117", "country": "US", "state": "CA", "display_address": ["1535 Haight St", "San Francisco, CA 94117"]}, "phone": "+14155522520", "display_phone": "(415) 552-2520", "distance": 1389.3363288151697}, {"id": "ogif-GNQYoVNsc9mqI378w", "alias": "mais-vietnamese-restaurant-san-francisco", "name": "Mai's Vietnamese Restaurant", "image_url": "https://s3-media3.fl.yelpcdn.com/bphoto/vigvF8KMOqyviloc6nJppg/o.jpg", "is_closed": false, "url": "https://www.yelp.com/biz/mais-vietnamese-restaurant-san-francisco?adjust_creative=Klanz-jboxl2XzqrjP6LLw&utm_campaign=yelp_api_v3&utm_medium=api_v3_business_search&utm_source=Klanz-jboxl2XzqrjP6LLw", "review_count": 334, "categories": [{"alias": "vietnamese", "title": "Vietnamese"}], "rating": 4.0, "coordinates": {"latitude": 37.78318, "longitude": -122.46265}, "transactions": ["delivery"], "price": "$", "location": {"address1": "316 Clement St", "address2": "", "address3": "", "city": "San Francisco", "zip_code": "94118", "country": "US", "state": "CA", "display_address": ["316 Clement St", "San Francisco, CA 94118"]}, "phone": "+14152213046", "display_phone": "(415) 221-3046", "distance": 3386.037020070072}, {"id": "30ZNWGlvkrMxXn2fXUDSug", "alias": "ox-and-tiger-san-francisco", "name": "Ox & Tiger", "image_url": "https://s3-media4.fl.yelpcdn.com/bphoto/5rr_Kf-YrujSz1pZdGnS0Q/o.jpg", "is_closed": false, "url": "https://www.yelp.com/biz/ox-and-tiger-san-francisco?adjust_creative=Klanz-jboxl2XzqrjP6LLw&utm_campaign=yelp_api_v3&utm_medium=api_v3_business_search&utm_source=Klanz-jboxl2XzqrjP6LLw", "review_count": 21, "categories": [{"alias": "filipino", "title": "Filipino"}, {"alias": "japanese", "title": "Japanese"}, {"alias": "popuprestaurants", "title": "Pop-Up Restaurants"}], "rating": 5.0, "coordinates": {"latitude": 37.78651285460063, "longitude": -122.41296493237765}, "transactions": [], "location": {"address1": "552 Jones St", "address2": null, "address3": "", "city": "San Francisco", "zip_code": "94102", "country": "US", "state": "CA", "display_address": ["552 Jones St", "San Francisco, CA 94102"]}, "phone": "+14159923827", "display_phone": "(415) 992-3827", "distance": 3517.2857308952894}, {"id": "IzRVZB6EuoizmnwAFy8siQ", "alias": "cafe-du-soleil-san-francisco-4", "name": "Cafe Du Soleil", "image_url": "https://s3-media3.fl.yelpcdn.com/bphoto/30trg9QfA5yrKv9scByrpg/o.jpg", "is_closed": false, "url": "https://www.yelp.com/biz/cafe-du-soleil-san-francisco-4?adjust_creative=Klanz-jboxl2XzqrjP6LLw&utm_campaign=yelp_api_v3&utm_medium=api_v3_business_search&utm_source=Klanz-jboxl2XzqrjP6LLw", "review_count": 409, "categories": [{"alias": "french", "title": "French"}, {"alias": "salad", "title": "Salad"}, {"alias": "sandwiches", "title": "Sandwiches"}], "rating": 4.5, "coordinates": {"latitude": 37.783286429562615, "longitude": -122.39791483183592}, "transactions": ["delivery", "pickup"], "price": "$$", "location": {"address1": "345 3rd St", "address2": "", "address3": "", "city": "San Francisco", "zip_code": "94107", "country": "US", "state": "CA", "display_address": ["345 3rd St", "San Francisco, CA 94107"]}, "phone": "+14156996154", "display_phone": "(415) 699-6154", "distance": 4203.206493164295}, {"id": "xltiRK5TmkDUorsLiVZiuw", "alias": "fort-point-valencia-san-francisco-4", "name": "Fort Point - Valencia", "image_url": "https://s3-media2.fl.yelpcdn.com/bphoto/EqUD0ev1M8CYbBYOlRi3yA/o.jpg", "is_closed": false, "url": "https://www.yelp.com/biz/fort-point-valencia-san-francisco-4?adjust_creative=Klanz-jboxl2XzqrjP6LLw&utm_campaign=yelp_api_v3&utm_medium=api_v3_business_search&utm_source=Klanz-jboxl2XzqrjP6LLw", "review_count": 60, "categories": [{"alias": "breweries", "title": "Breweries"}], "rating": 4.5, "coordinates": {"latitude": 37.76096, "longitude": -122.42182}, "transactions": [], "price": "$$", "location": {"address1": "742 Valencia St", "address2": null, "address3": "", "city": "San Francisco", "zip_code": "94110", "country": "US", "state": "CA", "display_address": ["742 Valencia St", "San Francisco, CA 94110"]}, "phone": "+14153617001", "display_phone": "(415) 361-7001", "distance": 1288.0110798705134}, {"id": "eezje_7Lvt4BymqFA8mAXQ", "alias": "barzotto-san-francisco", "name": "Barzotto", "image_url": "https://s3-media1.fl.yelpcdn.com/bphoto/IB7yoBcPw9lSP-8f01Lyjw/o.jpg", "is_closed": false, "url": "https://www.yelp.com/biz/barzotto-san-francisco?adjust_creative=Klanz-jboxl2XzqrjP6LLw&utm_campaign=yelp_api_v3&utm_medium=api_v3_business_search&utm_source=Klanz-jboxl2XzqrjP6LLw", "review_count": 722, "categories": [{"alias": "italian", "title": "Italian"}, {"alias": "pastashops", "title": "Pasta Shops"}], "rating": 4.0, "coordinates": {"latitude": 37.7525211773737, "longitude": -122.420917153358}, "transactions": ["delivery", "pickup"], "price": "$$", "location": {"address1": "1270 Valencia St", "address2": "", "address3": "", "city": "San Francisco", "zip_code": "94110", "country": "US", "state": "CA", "display_address": ["1270 Valencia St", "San Francisco, CA 94110"]}, "phone": "+14152851200", "display_phone": "(415) 285-1200", "distance": 1652.8455456191607}, {"id": "kK0s7FAovaLmVDM4D_NdSQ", "alias": "good-luck-cafe-and-deli-san-francisco", "name": "Good Luck Cafe and Deli", "image_url": "https://s3-media4.fl.yelpcdn.com/bphoto/DKjTWSqKsK1cULo5vScTfA/o.jpg", "is_closed": false, "url": "https://www.yelp.com/biz/good-luck-cafe-and-deli-san-francisco?adjust_creative=Klanz-jboxl2XzqrjP6LLw&utm_campaign=yelp_api_v3&utm_medium=api_v3_business_search&utm_source=Klanz-jboxl2XzqrjP6LLw", "review_count": 424, "categories": [{"alias": "delis", "title": "Delis"}, {"alias": "cafes", "title": "Cafes"}, {"alias": "sandwiches", "title": "Sandwiches"}], "rating": 4.5, "coordinates": {"latitude": 37.79385, "longitude": -122.40482}, "transactions": ["delivery", "pickup"], "price": "$", "location": {"address1": "621 Kearny St", "address2": null, "address3": "", "city": "San Francisco", "zip_code": "94108", "country": "US", "state": "CA", "display_address": ["621 Kearny St", "San Francisco, CA 94108"]}, "phone": "+14157812328", "display_phone": "(415) 781-2328", "distance": 4601.128808097701}, {"id": "XFUQWh46_gISC4jMHlCNmw", "alias": "dabao-singapore-san-francisco", "name": "Dabao Singapore", "image_url": "https://s3-media2.fl.yelpcdn.com/bphoto/QWHMHGjp_-y1ZjaqLsgaSg/o.jpg", "is_closed": false, "url": "https://www.yelp.com/biz/dabao-singapore-san-francisco?adjust_creative=Klanz-jboxl2XzqrjP6LLw&utm_campaign=yelp_api_v3&utm_medium=api_v3_business_search&utm_source=Klanz-jboxl2XzqrjP6LLw", "review_count": 68, "categories": [{"alias": "singaporean", "title": "Singaporean"}, {"alias": "desserts", "title": "Desserts"}, {"alias": "popuprestaurants", "title": "Pop-Up Restaurants"}], "rating": 5.0, "coordinates": {"latitude": 37.75089491519404, "longitude": -122.38814471183099}, "transactions": [], "location": {"address1": "1661 Tennessee St", "address2": "Ste 2k", "address3": null, "city": "San Francisco", "zip_code": "94107", "country": "US", "state": "CA", "display_address": ["1661 Tennessee St", "Ste 2k", "San Francisco, CA 94107"]}, "phone": "", "display_phone": "", "distance": 4389.73557142009}, {"id": "ZXwnSN4GlEuSTNCRrjjRMg", "alias": "bite-san-francisco", "name": "Bite", "image_url": "https://s3-media4.fl.yelpcdn.com/bphoto/FUvJSEjwQz7L25-6y9Yv4Q/o.jpg", "is_closed": false, "url": "https://www.yelp.com/biz/bite-san-francisco?adjust_creative=Klanz-jboxl2XzqrjP6LLw&utm_campaign=yelp_api_v3&utm_medium=api_v3_business_search&utm_source=Klanz-jboxl2XzqrjP6LLw", "review_count": 829, "categories": [{"alias": "delis", "title": "Delis"}, {"alias": "sandwiches", "title": "Sandwiches"}, {"alias": "salad", "title": "Salad"}], "rating": 4.0, "coordinates": {"latitude": 37.7884239641, "longitude": -122.415666133}, "transactions": ["delivery", "pickup"], "price": "$$", "location": {"address1": "912 Sutter St", "address2": "", "address3": "", "city": "San Francisco", "zip_code": "94104", "country": "US", "state": "CA", "display_address": ["912 Sutter St", "San Francisco, CA 94104"]}, "phone": "+14155632483", "display_phone": "(415) 563-2483", "distance": 3564.1546801190893}, {"id": "qgYKg19InZ_2FK6II9-OKw", "alias": "asian-american-food-company-san-francisco-3", "name": "Asian American Food Company", "image_url": "https://s3-media4.fl.yelpcdn.com/bphoto/5UBOQ31enpAIaGv6rpCu1g/o.jpg", "is_closed": false, "url": "https://www.yelp.com/biz/asian-american-food-company-san-francisco-3?adjust_creative=Klanz-jboxl2XzqrjP6LLw&utm_campaign=yelp_api_v3&utm_medium=api_v3_business_search&utm_source=Klanz-jboxl2XzqrjP6LLw", "review_count": 208, "categories": [{"alias": "grocery", "title": "Grocery"}, {"alias": "chinese", "title": "Chinese"}, {"alias": "fooddeliveryservices", "title": "Food Delivery Services"}], "rating": 4.5, "coordinates": {"latitude": 37.7426348, "longitude": -122.4880172}, "transactions": [], "price": "$", "location": {"address1": "2048 Taraval St", "address2": "", "address3": "", "city": "San Francisco", "zip_code": "94116", "country": "US", "state": "CA", "display_address": ["2048 Taraval St", "San Francisco, CA 94116"]}, "phone": "+14156656617", "display_phone": "(415) 665-6617", "distance": 4989.538879128411}, {"id": "_1OaWo3MedRq-FfJVZmOqQ", "alias": "moonraker-restaurant-pacifica-2", "name": "Moonraker Restaurant", "image_url": "https://s3-media2.fl.yelpcdn.com/bphoto/xsIhY7V_PTmoOuQNQULiWQ/o.jpg", "is_closed": false, "url": "https://www.yelp.com/biz/moonraker-restaurant-pacifica-2?adjust_creative=Klanz-jboxl2XzqrjP6LLw&utm_campaign=yelp_api_v3&utm_medium=api_v3_business_search&utm_source=Klanz-jboxl2XzqrjP6LLw", "review_count": 969, "categories": [{"alias": "newamerican", "title": "American (New)"}, {"alias": "seafood", "title": "Seafood"}, {"alias": "breakfast_brunch", "title": "Breakfast & Brunch"}], "rating": 3.5, "coordinates": {"latitude": 37.6099145099444, "longitude": -122.496627493909}, "transactions": ["delivery", "restaurant_reservation", "pickup"], "price": "$$$", "location": {"address1": "105 Rockaway Beach Ave", "address2": "", "address3": "", "city": "Pacifica", "zip_code": "94044", "country": "US", "state": "CA", "display_address": ["105 Rockaway Beach Ave", "Pacifica, CA 94044"]}, "phone": "+16505577025", "display_phone": "(650) 557-7025", "distance": 17604.14853952471}, {"id": "d4IcZGC-gvms4f45oXor8A", "alias": "ramenwell-san-francisco-5", "name": "Ramenwell", "image_url": "https://s3-media1.fl.yelpcdn.com/bphoto/oNTSkYNL2FHmfXRaAxZ1zA/o.jpg", "is_closed": false, "url": "https://www.yelp.com/biz/ramenwell-san-francisco-5?adjust_creative=Klanz-jboxl2XzqrjP6LLw&utm_campaign=yelp_api_v3&utm_medium=api_v3_business_search&utm_source=Klanz-jboxl2XzqrjP6LLw", "review_count": 247, "categories": [{"alias": "ramen", "title": "Ramen"}, {"alias": "izakaya", "title": "Izakaya"}, {"alias": "hawaiian", "title": "Hawaiian"}], "rating": 4.5, "coordinates": {"latitude": 37.7619720328061, "longitude": -122.418856810102}, "transactions": ["delivery", "pickup"], "price": "$$", "location": {"address1": "3378 18th St", "address2": "", "address3": null, "city": "San Francisco", "zip_code": "94110", "country": "US", "state": "CA", "display_address": ["3378 18th St", "San Francisco, CA 94110"]}, "phone": "+14155897680", "display_phone": "(415) 589-7680", "distance": 1550.9062520020198}, {"id": "V00NCzDBLV9m556XVTvBww", "alias": "the-cove-on-castro-cafe-san-francisco", "name": "The Cove on Castro Cafe", "image_url": "https://s3-media3.fl.yelpcdn.com/bphoto/cA0ZuJiPnKDIjl6_0r9m3Q/o.jpg", "is_closed": false, "url": "https://www.yelp.com/biz/the-cove-on-castro-cafe-san-francisco?adjust_creative=Klanz-jboxl2XzqrjP6LLw&utm_campaign=yelp_api_v3&utm_medium=api_v3_business_search&utm_source=Klanz-jboxl2XzqrjP6LLw", "review_count": 304, "categories": [{"alias": "tradamerican", "title": "American (Traditional)"}, {"alias": "diners", "title": "Diners"}], "rating": 3.5, "coordinates": {"latitude": 37.7618915, "longitude": -122.4353254}, "transactions": ["delivery", "pickup"], "price": "$$", "location": {"address1": "434 Castro St", "address2": "", "address3": "", "city": "San Francisco", "zip_code": "94114", "country": "US", "state": "CA", "display_address": ["434 Castro St", "San Francisco, CA 94114"]}, "phone": "+14156260462", "display_phone": "(415) 626-0462", "distance": 147.96524878273337}, {"id": "o43B4DnnQbvkdDK6AVafQg", "alias": "piccolo-forno-san-francisco", "name": "Piccolo Forno", "image_url": "https://s3-media2.fl.yelpcdn.com/bphoto/f5cIsI_5Q692sjzL9yOl8w/o.jpg", "is_closed": false, "url": "https://www.yelp.com/biz/piccolo-forno-san-francisco?adjust_creative=Klanz-jboxl2XzqrjP6LLw&utm_campaign=yelp_api_v3&utm_medium=api_v3_business_search&utm_source=Klanz-jboxl2XzqrjP6LLw", "review_count": 743, "categories": [{"alias": "pizza", "title": "Pizza"}, {"alias": "italian", "title": "Italian"}], "rating": 4.5, "coordinates": {"latitude": 37.8013699308642, "longitude": -122.411981038749}, "transactions": ["delivery", "pickup"], "price": "$$", "location": {"address1": "725 Columbus Ave", "address2": "", "address3": "", "city": "San Francisco", "zip_code": "94133", "country": "US", "state": "CA", "display_address": ["725 Columbus Ave", "San Francisco, CA 94133"]}, "phone": "+14157570087", "display_phone": "(415) 757-0087", "distance": 4987.4090407568}, {"id": "2XQm-uFcTS7oc8MFP-8olA", "alias": "b-patisserie-san-francisco-2", "name": "B Patisserie", "image_url": "https://s3-media2.fl.yelpcdn.com/bphoto/_wEj1VAMXp4tcO-MvO8e0g/o.jpg", "is_closed": false, "url": "https://www.yelp.com/biz/b-patisserie-san-francisco-2?adjust_creative=Klanz-jboxl2XzqrjP6LLw&utm_campaign=yelp_api_v3&utm_medium=api_v3_business_search&utm_source=Klanz-jboxl2XzqrjP6LLw", "review_count": 2922, "categories": [{"alias": "bakeries", "title": "Bakeries"}, {"alias": "cakeshop", "title": "Patisserie/Cake Shop"}, {"alias": "macarons", "title": "Macarons"}], "rating": 4.5, "coordinates": {"latitude": 37.787873, "longitude": -122.440882}, "transactions": ["delivery"], "price": "$$", "location": {"address1": "2821 California St", "address2": "", "address3": "", "city": "San Francisco", "zip_code": "94115", "country": "US", "state": "CA", "display_address": ["2821 California St", "San Francisco, CA 94115"]}, "phone": "+14154401700", "display_phone": "(415) 440-1700", "distance": 3024.692512860378}, {"id": "WLqqZYTeo6wFXuCFtlweqA", "alias": "patxis-pizza-san-francisco-2", "name": "Patxi's Pizza", "image_url": "https://s3-media1.fl.yelpcdn.com/bphoto/pgbTzTYe0D-keQE58YdNbQ/o.jpg", "is_closed": false, "url": "https://www.yelp.com/biz/patxis-pizza-san-francisco-2?adjust_creative=Klanz-jboxl2XzqrjP6LLw&utm_campaign=yelp_api_v3&utm_medium=api_v3_business_search&utm_source=Klanz-jboxl2XzqrjP6LLw", "review_count": 2379, "categories": [{"alias": "pizza", "title": "Pizza"}, {"alias": "salad", "title": "Salad"}, {"alias": "italian", "title": "Italian"}], "rating": 3.5, "coordinates": {"latitude": 37.77649, "longitude": -122.425}, "transactions": ["delivery", "pickup"], "price": "$$", "location": {"address1": "511 Hayes St", "address2": "", "address3": "", "city": "San Francisco", "zip_code": "94102", "country": "US", "state": "CA", "display_address": ["511 Hayes St", "San Francisco, CA 94102"]}, "phone": "+14155589991", "display_phone": "(415) 558-9991", "distance": 2006.9406857293834}, {"id": "IoGQsIa715XpTA6ThLGkfw", "alias": "the-polynesian-luau-daly-city", "name": "The Polynesian Luau", "image_url": "https://s3-media3.fl.yelpcdn.com/bphoto/eGLA868PdxmqcrCcMZX9ew/o.jpg", "is_closed": false, "url": "https://www.yelp.com/biz/the-polynesian-luau-daly-city?adjust_creative=Klanz-jboxl2XzqrjP6LLw&utm_campaign=yelp_api_v3&utm_medium=api_v3_business_search&utm_source=Klanz-jboxl2XzqrjP6LLw", "review_count": 30, "categories": [{"alias": "polynesian", "title": "Polynesian"}], "rating": 4.0, "coordinates": {"latitude": 37.7068481445312, "longitude": -122.413780212402}, "transactions": [], "price": "$$", "location": {"address1": "2901 Geneva Ave", "address2": "", "address3": "", "city": "Daly City", "zip_code": "94014", "country": "US", "state": "CA", "display_address": ["2901 Geneva Ave", "Daly City, CA 94014"]}, "phone": "+14154670500", "display_phone": "(415) 467-0500", "distance": 6336.085810778338}, {"id": "qWRHHjNsgdOto2BiBgnshw", "alias": "sabrosa-pizza-san-francisco", "name": "Sabrosa Pizza", "image_url": "https://s3-media4.fl.yelpcdn.com/bphoto/aewp7iNXE1fhexNPfo3l2g/o.jpg", "is_closed": false, "url": "https://www.yelp.com/biz/sabrosa-pizza-san-francisco?adjust_creative=Klanz-jboxl2XzqrjP6LLw&utm_campaign=yelp_api_v3&utm_medium=api_v3_business_search&utm_source=Klanz-jboxl2XzqrjP6LLw", "review_count": 39, "categories": [{"alias": "pizza", "title": "Pizza"}], "rating": 4.5, "coordinates": {"latitude": 37.78135, "longitude": -122.46368}, "transactions": ["delivery", "pickup"], "location": {"address1": "4124 Geary Blvd", "address2": null, "address3": "", "city": "San Francisco", "zip_code": "94118", "country": "US", "state": "CA", "display_address": ["4124 Geary Blvd", "San Francisco, CA 94118"]}, "phone": "+14153736333", "display_phone": "(415) 373-6333", "distance": 3298.9156242963018}, {"id": "Se9nvLiXHWI5ltMSo8klCw", "alias": "the-butchers-son-berkeley", "name": "The Butchers Son", "image_url": "https://s3-media2.fl.yelpcdn.com/bphoto/BjmhM0KqCJB_NwyAQxavAw/o.jpg", "is_closed": false, "url": "https://www.yelp.com/biz/the-butchers-son-berkeley?adjust_creative=Klanz-jboxl2XzqrjP6LLw&utm_campaign=yelp_api_v3&utm_medium=api_v3_business_search&utm_source=Klanz-jboxl2XzqrjP6LLw", "review_count": 1446, "categories": [{"alias": "salad", "title": "Salad"}, {"alias": "tradamerican", "title": "American (Traditional)"}, {"alias": "desserts", "title": "Desserts"}], "rating": 4.0, "coordinates": {"latitude": 37.87151, "longitude": -122.2717}, "transactions": ["delivery"], "price": "$$", "location": {"address1": "1954 University Ave", "address2": "", "address3": "", "city": "Berkeley", "zip_code": "94704", "country": "US", "state": "CA", "display_address": ["1954 University Ave", "Berkeley, CA 94704"]}, "phone": "+15109840818", "display_phone": "(510) 984-0818", "distance": 18992.185117350262}, {"id": "Vkz5U3C0WC33pPl7CHfmsQ", "alias": "jims-restaurant-san-francisco", "name": "Jim's Restaurant", "image_url": "https://s3-media4.fl.yelpcdn.com/bphoto/wfdR4I84PYXPf88GT-sERg/o.jpg", "is_closed": false, "url": "https://www.yelp.com/biz/jims-restaurant-san-francisco?adjust_creative=Klanz-jboxl2XzqrjP6LLw&utm_campaign=yelp_api_v3&utm_medium=api_v3_business_search&utm_source=Klanz-jboxl2XzqrjP6LLw", "review_count": 198, "categories": [{"alias": "breakfast_brunch", "title": "Breakfast & Brunch"}], "rating": 4.0, "coordinates": {"latitude": 37.75824, "longitude": -122.41931}, "transactions": ["delivery"], "price": "$", "location": {"address1": "2420 Mission St", "address2": "", "address3": "", "city": "San Francisco", "zip_code": "94110", "country": "US", "state": "CA", "display_address": ["2420 Mission St", "San Francisco, CA 94110"]}, "phone": "+14152856020", "display_phone": "(415) 285-6020", "distance": 1530.7845248684148}, {"id": "lvi8XsOdYTz2K3vhCCwe5Q", "alias": "cellarmaker-brewing-company-san-francisco", "name": "Cellarmaker Brewing Company", "image_url": "https://s3-media3.fl.yelpcdn.com/bphoto/oa630VwOQ9uc5p2ZRqYNRQ/o.jpg", "is_closed": false, "url": "https://www.yelp.com/biz/cellarmaker-brewing-company-san-francisco?adjust_creative=Klanz-jboxl2XzqrjP6LLw&utm_campaign=yelp_api_v3&utm_medium=api_v3_business_search&utm_source=Klanz-jboxl2XzqrjP6LLw", "review_count": 455, "categories": [{"alias": "breweries", "title": "Breweries"}], "rating": 4.5, "coordinates": {"latitude": 37.777217, "longitude": -122.410766}, "transactions": [], "price": "$$", "location": {"address1": "1150 Howard St", "address2": "", "address3": "", "city": "San Francisco", "zip_code": "94103", "country": "US", "state": "CA", "display_address": ["1150 Howard St", "San Francisco, CA 94103"]}, "phone": "+14158633940", "display_phone": "(415) 863-3940", "distance": 2894.0893719005558}, {"id": "LV9GJW3NCHgMRbnWo_5xgw", "alias": "stonemill-matcha-san-francisco", "name": "Stonemill Matcha", "image_url": "https://s3-media1.fl.yelpcdn.com/bphoto/ODZJzJZsW4a43FGP96Sbnw/o.jpg", "is_closed": false, "url": "https://www.yelp.com/biz/stonemill-matcha-san-francisco?adjust_creative=Klanz-jboxl2XzqrjP6LLw&utm_campaign=yelp_api_v3&utm_medium=api_v3_business_search&utm_source=Klanz-jboxl2XzqrjP6LLw", "review_count": 1021, "categories": [{"alias": "cafes", "title": "Cafes"}, {"alias": "coffee", "title": "Coffee & Tea"}, {"alias": "japanese", "title": "Japanese"}], "rating": 4.0, "coordinates": {"latitude": 37.76401, "longitude": -122.4215}, "transactions": ["delivery"], "price": "$$", "location": {"address1": "561 Valencia St", "address2": null, "address3": "", "city": "San Francisco", "zip_code": "94110", "country": "US", "state": "CA", "display_address": ["561 Valencia St", "San Francisco, CA 94110"]}, "phone": "+14157963876", "display_phone": "(415) 796-3876", "distance": 1354.5058020515885}, {"id": "HY55uOz0UPCqIJCcVtoEww", "alias": "ceron-kitchen-alameda", "name": "Ceron Kitchen", "image_url": "https://s3-media2.fl.yelpcdn.com/bphoto/4jusvgFc5J_29Qha-kT-cw/o.jpg", "is_closed": false, "url": "https://www.yelp.com/biz/ceron-kitchen-alameda?adjust_creative=Klanz-jboxl2XzqrjP6LLw&utm_campaign=yelp_api_v3&utm_medium=api_v3_business_search&utm_source=Klanz-jboxl2XzqrjP6LLw", "review_count": 43, "categories": [{"alias": "newamerican", "title": "American (New)"}, {"alias": "bars", "title": "Bars"}, {"alias": "pizza", "title": "Pizza"}], "rating": 4.5, "coordinates": {"latitude": 37.775880018089914, "longitude": -122.27698511196675}, "transactions": [], "location": {"address1": "1619 Webster St", "address2": "", "address3": null, "city": "Alameda", "zip_code": "94501", "country": "US", "state": "CA", "display_address": ["1619 Webster St", "Alameda, CA 94501"]}, "phone": "+15105219090", "display_phone": "(510) 521-9090", "distance": 14115.141908980979}, {"id": "WhTpALYvB4ZBMcT8fFVLvw", "alias": "holy-gelato-san-francisco", "name": "Holy Gelato!", "image_url": "https://s3-media2.fl.yelpcdn.com/bphoto/MiNFmR2UdeU6sQCyoc0raQ/o.jpg", "is_closed": false, "url": "https://www.yelp.com/biz/holy-gelato-san-francisco?adjust_creative=Klanz-jboxl2XzqrjP6LLw&utm_campaign=yelp_api_v3&utm_medium=api_v3_business_search&utm_source=Klanz-jboxl2XzqrjP6LLw", "review_count": 1085, "categories": [{"alias": "gelato", "title": "Gelato"}, {"alias": "acaibowls", "title": "Acai Bowls"}, {"alias": "juicebars", "title": "Juice Bars & Smoothies"}], "rating": 4.5, "coordinates": {"latitude": 37.762392, "longitude": -122.465941}, "transactions": ["delivery", "pickup"], "price": "$$", "location": {"address1": "1392 9th Ave", "address2": "", "address3": "", "city": "San Francisco", "zip_code": "94122", "country": "US", "state": "CA", "display_address": ["1392 9th Ave", "San Francisco, CA 94122"]}, "phone": "+14156813061", "display_phone": "(415) 681-3061", "distance": 2599.6011676204334}, {"id": "_E_DoXzzEtbGgu4HKNRhIg", "alias": "tacorea-chinatown-san-francisco-2", "name": "Tacorea - Chinatown", "image_url": "https://s3-media3.fl.yelpcdn.com/bphoto/ccc5C8QPkRRkgW0OgLtWQA/o.jpg", "is_closed": false, "url": "https://www.yelp.com/biz/tacorea-chinatown-san-francisco-2?adjust_creative=Klanz-jboxl2XzqrjP6LLw&utm_campaign=yelp_api_v3&utm_medium=api_v3_business_search&utm_source=Klanz-jboxl2XzqrjP6LLw", "review_count": 30, "categories": [{"alias": "mexican", "title": "Mexican"}, {"alias": "korean", "title": "Korean"}, {"alias": "latin", "title": "Latin American"}], "rating": 4.5, "coordinates": {"latitude": 37.797972, "longitude": -122.407453}, "transactions": [], "location": {"address1": "620 Broadway", "address2": null, "address3": "", "city": "San Francisco", "zip_code": "94133", "country": "US", "state": "CA", "display_address": ["620 Broadway", "San Francisco, CA 94133"]}, "phone": "+14155069642", "display_phone": "(415) 506-9642", "distance": 4845.663220089377}, {"id": "m9k5ww1-X8XqB8leB3R2ZA", "alias": "bogys-market-ca-bistro-south-san-francisco-2", "name": "Bogy's Market CA Bistro", "image_url": "https://s3-media2.fl.yelpcdn.com/bphoto/2KxojnKtSbDwQsRH8iFNpQ/o.jpg", "is_closed": false, "url": "https://www.yelp.com/biz/bogys-market-ca-bistro-south-san-francisco-2?adjust_creative=Klanz-jboxl2XzqrjP6LLw&utm_campaign=yelp_api_v3&utm_medium=api_v3_business_search&utm_source=Klanz-jboxl2XzqrjP6LLw", "review_count": 24, "categories": [{"alias": "newamerican", "title": "American (New)"}, {"alias": "breakfast_brunch", "title": "Breakfast & Brunch"}, {"alias": "sandwiches", "title": "Sandwiches"}], "rating": 5.0, "coordinates": {"latitude": 37.65451, "longitude": -122.41056}, "transactions": ["delivery", "pickup"], "location": {"address1": "207 Linden Ave", "address2": null, "address3": "", "city": "South San Francisco", "zip_code": "94080", "country": "US", "state": "CA", "display_address": ["207 Linden Ave", "South San Francisco, CA 94080"]}, "phone": "+16508733434", "display_phone": "(650) 873-3434", "distance": 12048.05069701657}], "total": 5500, "region": {"center": {"longitude": -122.43644714355469, "latitude": 37.76089938976322}}}