{"businesses": [{"id": "xalJwUiV9oMDCHCc6kZhqg", "alias": "ssal-san-francisco", "name": "SSAL", "image_url": "https://s3-media2.fl.yelpcdn.com/bphoto/r6a_K4ImxjPptB6A4daeJg/o.jpg", "is_closed": false, "url": "https://www.yelp.com/biz/ssal-san-francisco?adjust_creative=Klanz-jboxl2XzqrjP6LLw&utm_campaign=yelp_api_v3&utm_medium=api_v3_business_search&utm_source=Klanz-jboxl2XzqrjP6LLw", "review_count": 157, "categories": [{"alias": "korean", "title": "Korean"}], "rating": 4.5, "coordinates": {"latitude": 37.79728333, "longitude": -122.421945}, "transactions": ["delivery"], "price": "$$$$", "location": {"address1": "2226 Polk St", "address2": "", "address3": null, "city": "San Francisco", "zip_code": "94109", "country": "US", "state": "CA", "display_address": ["2226 Polk St", "San Francisco, CA 94109"]}, "phone": "+14158142704", "display_phone": "(415) 814-2704", "distance": 4250.389460185907}, {"id": "YcW2ETSPkGJ4ZsrUkDfoLw", "alias": "rosas-jabal\u00ed-san-francisco", "name": "Rosas Jabal\u00ed", "image_url": "https://s3-media4.fl.yelpcdn.com/bphoto/rns5EXMBFUGk6hwGf0doEg/o.jpg", "is_closed": false, "url": "https://www.yelp.com/biz/rosas-jabal%C3%AD-san-francisco?adjust_creative=Klanz-jboxl2XzqrjP6LLw&utm_campaign=yelp_api_v3&utm_medium=api_v3_business_search&utm_source=Klanz-jboxl2XzqrjP6LLw", "review_count": 8, "categories": [{"alias": "mexican", "title": "Mexican"}, {"alias": "breakfast_brunch", "title": "Breakfast & Brunch"}, {"alias": "italian", "title": "Italian"}], "rating": 4.5, "coordinates": {"latitude": 37.752346, "longitude": -122.413846}, "transactions": ["delivery", "pickup"], "location": {"address1": "2801 Folsom St", "address2": "", "address3": null, "city": "San Francisco", "zip_code": "94110", "country": "US", "state": "CA", "display_address": ["2801 Folsom St", "San Francisco, CA 94110"]}, "phone": "+14159326422", "display_phone": "(415) 932-6422", "distance": 2199.9882913563106}, {"id": "PJ554bOuyR_TXZV1Iu3-fg", "alias": "lazy-susan-san-francisco-2", "name": "Lazy Susan", "image_url": "https://s3-media2.fl.yelpcdn.com/bphoto/rbDb8GF6_BvTMEMmqaQg8g/o.jpg", "is_closed": false, "url": "https://www.yelp.com/biz/lazy-susan-san-francisco-2?adjust_creative=Klanz-jboxl2XzqrjP6LLw&utm_campaign=yelp_api_v3&utm_medium=api_v3_business_search&utm_source=Klanz-jboxl2XzqrjP6LLw", "review_count": 110, "categories": [{"alias": "chinese", "title": "Chinese"}], "rating": 4.0, "coordinates": {"latitude": 37.740582627223404, "longitude": -122.4654549}, "transactions": ["delivery", "pickup"], "location": {"address1": "811 Ulloa St", "address2": null, "address3": "", "city": "San Francisco", "zip_code": "94127", "country": "US", "state": "CA", "display_address": ["811 Ulloa St", "San Francisco, CA 94127"]}, "phone": "+14158587858", "display_phone": "(415) 858-7858", "distance": 3407.039204208976}, {"id": "ztL8KI0ed0snCiK88ZUfNw", "alias": "perbacco-san-francisco", "name": "Perbacco", "image_url": "https://s3-media1.fl.yelpcdn.com/bphoto/mFqhn5uJ9C_XC1XSCOdtEg/o.jpg", "is_closed": false, "url": "https://www.yelp.com/biz/perbacco-san-francisco?adjust_creative=Klanz-jboxl2XzqrjP6LLw&utm_campaign=yelp_api_v3&utm_medium=api_v3_business_search&utm_source=Klanz-jboxl2XzqrjP6LLw", "review_count": 2098, "categories": [{"alias": "italian", "title": "Italian"}, {"alias": "bars", "title": "Bars"}], "rating": 4.0, "coordinates": {"latitude": 37.7934543812786, "longitude": -122.399336635582}, "transactions": ["delivery", "pickup"], "price": "$$$", "location": {"address1": "230 California St", "address2": null, "address3": "", "city": "San Francisco", "zip_code": "94111", "country": "US", "state": "CA", "display_address": ["230 California St", "San Francisco, CA 94111"]}, "phone": "+14159550663", "display_phone": "(415) 955-0663", "distance": 4872.566157562135}, {"id": "hrof-6ketTqVso0GjFBIXg", "alias": "antons-pizza-and-deli-san-francisco", "name": "Anton's Pizza and Deli", "image_url": "https://s3-media2.fl.yelpcdn.com/bphoto/hibGhk3J5gwPC1CXgWCZ8A/o.jpg", "is_closed": false, "url": "https://www.yelp.com/biz/antons-pizza-and-deli-san-francisco?adjust_creative=Klanz-jboxl2XzqrjP6LLw&utm_campaign=yelp_api_v3&utm_medium=api_v3_business_search&utm_source=Klanz-jboxl2XzqrjP6LLw", "review_count": 39, "categories": [{"alias": "pizza", "title": "Pizza"}, {"alias": "delis", "title": "Delis"}], "rating": 3.5, "coordinates": {"latitude": 37.77529, "longitude": -122.41007}, "transactions": ["pickup", "delivery"], "price": "$", "location": {"address1": "1196 Folsom St", "address2": "", "address3": null, "city": "San Francisco", "zip_code": "94103", "country": "US", "state": "CA", "display_address": ["1196 Folsom St", "San Francisco, CA 94103"]}, "phone": "+14156587716", "display_phone": "(415) 658-7716", "distance": 2815.166595153419}, {"id": "Nvc1XZVJZhp2CHbh_hTLUw", "alias": "buffalo-burger-restaurant-san-francisco", "name": "Buffalo Burger Restaurant", "image_url": "https://s3-media2.fl.yelpcdn.com/bphoto/iZHEicicMOa02f_fQ4mJOQ/o.jpg", "is_closed": false, "url": "https://www.yelp.com/biz/buffalo-burger-restaurant-san-francisco?adjust_creative=Klanz-jboxl2XzqrjP6LLw&utm_campaign=yelp_api_v3&utm_medium=api_v3_business_search&utm_source=Klanz-jboxl2XzqrjP6LLw", "review_count": 456, "categories": [{"alias": "burgers", "title": "Burgers"}, {"alias": "hotdog", "title": "Hot Dogs"}, {"alias": "sandwiches", "title": "Sandwiches"}], "rating": 4.0, "coordinates": {"latitude": 37.78026, "longitude": -122.47641}, "transactions": ["delivery", "pickup"], "price": "$", "location": {"address1": "5317 Geary Blvd", "address2": "", "address3": "", "city": "San Francisco", "zip_code": "94121", "country": "US", "state": "CA", "display_address": ["5317 Geary Blvd", "San Francisco, CA 94121"]}, "phone": "+14156681267", "display_phone": "(415) 668-1267", "distance": 4124.852742559437}, {"id": "KutHWQT6Ha5ZRplvZ5mLXg", "alias": "toyama-sushi-san-francisco-2", "name": "Toyama Sushi", "image_url": "https://s3-media2.fl.yelpcdn.com/bphoto/FQHBmBmdUqVCbPFwy0nC9w/o.jpg", "is_closed": false, "url": "https://www.yelp.com/biz/toyama-sushi-san-francisco-2?adjust_creative=Klanz-jboxl2XzqrjP6LLw&utm_campaign=yelp_api_v3&utm_medium=api_v3_business_search&utm_source=Klanz-jboxl2XzqrjP6LLw", "review_count": 311, "categories": [{"alias": "japanese", "title": "Japanese"}, {"alias": "sushi", "title": "Sushi Bars"}], "rating": 4.5, "coordinates": {"latitude": 37.780943, "longitude": -122.459450103343}, "transactions": ["delivery", "pickup"], "price": "$$", "location": {"address1": "3727 Geary Blvd", "address2": "", "address3": null, "city": "San Francisco", "zip_code": "94118", "country": "US", "state": "CA", "display_address": ["3727 Geary Blvd", "San Francisco, CA 94118"]}, "phone": "+14152219811", "display_phone": "(415) 221-9811", "distance": 3009.190784912084}, {"id": "u-pywNLq06dgqR48kbFR9w", "alias": "one-market-restaurant-san-francisco-2", "name": "One Market Restaurant", "image_url": "https://s3-media4.fl.yelpcdn.com/bphoto/Up_zllA40iKhsWRmLU1-HA/o.jpg", "is_closed": false, "url": "https://www.yelp.com/biz/one-market-restaurant-san-francisco-2?adjust_creative=Klanz-jboxl2XzqrjP6LLw&utm_campaign=yelp_api_v3&utm_medium=api_v3_business_search&utm_source=Klanz-jboxl2XzqrjP6LLw", "review_count": 1351, "categories": [{"alias": "newamerican", "title": "American (New)"}], "rating": 3.5, "coordinates": {"latitude": 37.7941479027343, "longitude": -122.394731178574}, "transactions": ["delivery", "pickup"], "price": "$$$", "location": {"address1": "1 Market St", "address2": "", "address3": "", "city": "San Francisco", "zip_code": "94105", "country": "US", "state": "CA", "display_address": ["1 Market St", "San Francisco, CA 94105"]}, "phone": "+14157775577", "display_phone": "(415) 777-5577", "distance": 5206.747338862175}, {"id": "Lp5MEWRevMwksRE295aPzA", "alias": "arbor-san-francisco-2", "name": "Arbor", "image_url": "https://s3-media4.fl.yelpcdn.com/bphoto/vpr0qvSg29dVaBD9cieiOQ/o.jpg", "is_closed": false, "url": "https://www.yelp.com/biz/arbor-san-francisco-2?adjust_creative=Klanz-jboxl2XzqrjP6LLw&utm_campaign=yelp_api_v3&utm_medium=api_v3_business_search&utm_source=Klanz-jboxl2XzqrjP6LLw", "review_count": 36, "categories": [{"alias": "burgers", "title": "Burgers"}, {"alias": "sandwiches", "title": "Sandwiches"}], "rating": 4.0, "coordinates": {"latitude": 37.777096, "longitude": -122.422678}, "transactions": [], "price": "$$", "location": {"address1": "384 Hayes St", "address2": null, "address3": "", "city": "San Francisco", "zip_code": "94102", "country": "US", "state": "CA", "display_address": ["384 Hayes St", "San Francisco, CA 94102"]}, "phone": "+14156261211", "display_phone": "(415) 626-1211", "distance": 2172.176964793389}, {"id": "NFpgg-5mP8Zto_yrrz_a4g", "alias": "the-treasury-san-francisco", "name": "The Treasury", "image_url": "https://s3-media3.fl.yelpcdn.com/bphoto/xxsO1p2_2-R2F5x2DgfRhQ/o.jpg", "is_closed": false, "url": "https://www.yelp.com/biz/the-treasury-san-francisco?adjust_creative=Klanz-jboxl2XzqrjP6LLw&utm_campaign=yelp_api_v3&utm_medium=api_v3_business_search&utm_source=Klanz-jboxl2XzqrjP6LLw", "review_count": 164, "categories": [{"alias": "cocktailbars", "title": "Cocktail Bars"}, {"alias": "tradamerican", "title": "American (Traditional)"}], "rating": 4.0, "coordinates": {"latitude": 37.7912937, "longitude": -122.4010389}, "transactions": ["delivery"], "price": "$$", "location": {"address1": "200 Bush St", "address2": "Ste 101", "address3": "", "city": "San Francisco", "zip_code": "94104", "country": "US", "state": "CA", "display_address": ["200 Bush St", "Ste 101", "San Francisco, CA 94104"]}, "phone": "+14155780530", "display_phone": "(415) 578-0530", "distance": 4594.228501893528}, {"id": "nWmeuZ8g4hhJOrADh7VFHA", "alias": "little-henrys-san-francisco-2", "name": "Little Henry's", "image_url": "https://s3-media3.fl.yelpcdn.com/bphoto/iZAGCAthJuvSH5pP1wOZlA/o.jpg", "is_closed": false, "url": "https://www.yelp.com/biz/little-henrys-san-francisco-2?adjust_creative=Klanz-jboxl2XzqrjP6LLw&utm_campaign=yelp_api_v3&utm_medium=api_v3_business_search&utm_source=Klanz-jboxl2XzqrjP6LLw", "review_count": 280, "categories": [{"alias": "italian", "title": "Italian"}, {"alias": "seafood", "title": "Seafood"}, {"alias": "breakfast_brunch", "title": "Breakfast & Brunch"}], "rating": 3.0, "coordinates": {"latitude": 37.77582, "longitude": -122.49752}, "transactions": ["pickup", "delivery"], "price": "$$", "location": {"address1": "3600 Balboa St", "address2": "", "address3": "", "city": "San Francisco", "zip_code": "94121", "country": "US", "state": "CA", "display_address": ["3600 Balboa St", "San Francisco, CA 94121"]}, "phone": "+14153878761", "display_phone": "(415) 387-8761", "distance": 5622.356486072062}, {"id": "eeZIpjDQrVcOOoPfycWf_g", "alias": "dumpling-alley-san-francisco", "name": "Dumpling Alley", "image_url": "https://s3-media1.fl.yelpcdn.com/bphoto/JodbbMaznjj4U-pfcMf0MA/o.jpg", "is_closed": false, "url": "https://www.yelp.com/biz/dumpling-alley-san-francisco?adjust_creative=Klanz-jboxl2XzqrjP6LLw&utm_campaign=yelp_api_v3&utm_medium=api_v3_business_search&utm_source=Klanz-jboxl2XzqrjP6LLw", "review_count": 189, "categories": [{"alias": "chinese", "title": "Chinese"}], "rating": 4.0, "coordinates": {"latitude": 37.782167, "longitude": -122.486328}, "transactions": ["delivery", "pickup"], "price": "$$", "location": {"address1": "2512 Clement St", "address2": null, "address3": "", "city": "San Francisco", "zip_code": "94121", "country": "US", "state": "CA", "display_address": ["2512 Clement St", "San Francisco, CA 94121"]}, "phone": "+14157539617", "display_phone": "(415) 753-9617", "distance": 4984.329629065526}, {"id": "6ZrEklsw3WiASAUq_2DZcQ", "alias": "taboun-san-francisco", "name": "Taboun", "image_url": "https://s3-media3.fl.yelpcdn.com/bphoto/Wg0vzCwNEvEPKOunseE9nA/o.jpg", "is_closed": false, "url": "https://www.yelp.com/biz/taboun-san-francisco?adjust_creative=Klanz-jboxl2XzqrjP6LLw&utm_campaign=yelp_api_v3&utm_medium=api_v3_business_search&utm_source=Klanz-jboxl2XzqrjP6LLw", "review_count": 295, "categories": [{"alias": "mideastern", "title": "Middle Eastern"}, {"alias": "mediterranean", "title": "Mediterranean"}], "rating": 4.0, "coordinates": {"latitude": 37.76434, "longitude": -122.45279}, "transactions": ["pickup"], "price": "$", "location": {"address1": "203 Parnassus Ave", "address2": null, "address3": "", "city": "San Francisco", "zip_code": "94117", "country": "US", "state": "CA", "display_address": ["203 Parnassus Ave", "San Francisco, CA 94117"]}, "phone": "+14155669696", "display_phone": "(415) 566-9696", "distance": 1495.710431150893}, {"id": "iFZuhhzJCfq5qQBOV5LWKw", "alias": "mos-grill-san-francisco", "name": "Mo's Grill", "image_url": "https://s3-media2.fl.yelpcdn.com/bphoto/ros7i_5Tf_SEZRc4dGLWVg/o.jpg", "is_closed": false, "url": "https://www.yelp.com/biz/mos-grill-san-francisco?adjust_creative=Klanz-jboxl2XzqrjP6LLw&utm_campaign=yelp_api_v3&utm_medium=api_v3_business_search&utm_source=Klanz-jboxl2XzqrjP6LLw", "review_count": 883, "categories": [{"alias": "burgers", "title": "Burgers"}, {"alias": "breakfast_brunch", "title": "Breakfast & Brunch"}, {"alias": "sandwiches", "title": "Sandwiches"}], "rating": 4.0, "coordinates": {"latitude": 37.79909, "longitude": -122.40704}, "transactions": ["delivery"], "price": "$$", "location": {"address1": "1322 Grant Ave", "address2": "", "address3": "", "city": "San Francisco", "zip_code": "94133", "country": "US", "state": "CA", "display_address": ["1322 Grant Ave", "San Francisco, CA 94133"]}, "phone": "+14157883779", "display_phone": "(415) 788-3779", "distance": 4978.650442382673}, {"id": "fK6ZCDLTFtPV9HT4oAo5-w", "alias": "roli-roti-gourmet-rotisserie-san-francisco", "name": "Roli Roti Gourmet Rotisserie", "image_url": "https://s3-media3.fl.yelpcdn.com/bphoto/ifyrPzUyYZc-VPzH36R1Rw/o.jpg", "is_closed": false, "url": "https://www.yelp.com/biz/roli-roti-gourmet-rotisserie-san-francisco?adjust_creative=Klanz-jboxl2XzqrjP6LLw&utm_campaign=yelp_api_v3&utm_medium=api_v3_business_search&utm_source=Klanz-jboxl2XzqrjP6LLw", "review_count": 1504, "categories": [{"alias": "sandwiches", "title": "Sandwiches"}, {"alias": "foodtrucks", "title": "Food Trucks"}, {"alias": "gourmet", "title": "Specialty Food"}], "rating": 4.5, "coordinates": {"latitude": 37.795398235987, "longitude": -122.392534017563}, "transactions": [], "price": "$$", "location": {"address1": "1 Ferry Bldg", "address2": "", "address3": "", "city": "San Francisco", "zip_code": "94105", "country": "US", "state": "CA", "display_address": ["1 Ferry Bldg", "San Francisco, CA 94105"]}, "phone": "+15107800300", "display_phone": "(510) 780-0300", "distance": 5441.558282036725}, {"id": "4_7LJsh5lPWwzrWEkqeZNw", "alias": "may-lee-chinese-restaurant-san-francisco", "name": "May Lee Chinese Restaurant", "image_url": "https://s3-media3.fl.yelpcdn.com/bphoto/BKvLBt3po7KqnNuZ26o9sQ/o.jpg", "is_closed": false, "url": "https://www.yelp.com/biz/may-lee-chinese-restaurant-san-francisco?adjust_creative=Klanz-jboxl2XzqrjP6LLw&utm_campaign=yelp_api_v3&utm_medium=api_v3_business_search&utm_source=Klanz-jboxl2XzqrjP6LLw", "review_count": 238, "categories": [{"alias": "chinese", "title": "Chinese"}], "rating": 3.5, "coordinates": {"latitude": 37.76486, "longitude": -122.46396}, "transactions": ["delivery", "pickup"], "price": "$", "location": {"address1": "1256 7th Ave", "address2": "", "address3": "", "city": "San Francisco", "zip_code": "94122", "country": "US", "state": "CA", "display_address": ["1256 7th Ave", "San Francisco, CA 94122"]}, "phone": "+14152421006", "display_phone": "(415) 242-1006", "distance": 2471.029169267139}, {"id": "tNvJuBDnUw5_BOYF3nz7xw", "alias": "el-fuego-san-francisco-14", "name": "El Fuego", "image_url": "https://s3-media1.fl.yelpcdn.com/bphoto/l8ytcnmQXkDkigsLULF_mw/o.jpg", "is_closed": false, "url": "https://www.yelp.com/biz/el-fuego-san-francisco-14?adjust_creative=Klanz-jboxl2XzqrjP6LLw&utm_campaign=yelp_api_v3&utm_medium=api_v3_business_search&utm_source=Klanz-jboxl2XzqrjP6LLw", "review_count": 124, "categories": [{"alias": "mexican", "title": "Mexican"}, {"alias": "foodtrucks", "title": "Food Trucks"}], "rating": 5.0, "coordinates": {"latitude": 37.7649102, "longitude": -122.4006495}, "transactions": ["delivery", "pickup"], "location": {"address1": "Carolina Street And 17th St", "address2": null, "address3": "", "city": "San Francisco", "zip_code": "94107", "country": "US", "state": "CA", "display_address": ["Carolina Street And 17th St", "San Francisco, CA 94107"]}, "phone": "+14154659395", "display_phone": "(415) 465-9395", "distance": 3178.2466026699194}, {"id": "LU5ocCXCs9sDIc0DsRTVkg", "alias": "jenny-s-burgers-san-francisco", "name": "Jenny\u2019s Burgers", "image_url": "https://s3-media4.fl.yelpcdn.com/bphoto/z6mnOa4bYUJC0S1Ye_xyww/o.jpg", "is_closed": false, "url": "https://www.yelp.com/biz/jenny-s-burgers-san-francisco?adjust_creative=Klanz-jboxl2XzqrjP6LLw&utm_campaign=yelp_api_v3&utm_medium=api_v3_business_search&utm_source=Klanz-jboxl2XzqrjP6LLw", "review_count": 652, "categories": [{"alias": "burgers", "title": "Burgers"}], "rating": 4.0, "coordinates": {"latitude": 37.7652702331543, "longitude": -122.466728210449}, "transactions": ["delivery", "pickup"], "price": "$$", "location": {"address1": "1233 9th Ave", "address2": "", "address3": "", "city": "San Francisco", "zip_code": "94122", "country": "US", "state": "CA", "display_address": ["1233 9th Ave", "San Francisco, CA 94122"]}, "phone": "+14157531453", "display_phone": "(415) 753-1453", "distance": 2706.052291816202}, {"id": "OdO-B4spWQQMgu58-WbozA", "alias": "big-joes-san-francisco", "name": "Big Joe's", "image_url": "https://s3-media2.fl.yelpcdn.com/bphoto/Vnsdhf-IuV8nY2THn6tTJw/o.jpg", "is_closed": false, "url": "https://www.yelp.com/biz/big-joes-san-francisco?adjust_creative=Klanz-jboxl2XzqrjP6LLw&utm_campaign=yelp_api_v3&utm_medium=api_v3_business_search&utm_source=Klanz-jboxl2XzqrjP6LLw", "review_count": 536, "categories": [{"alias": "breakfast_brunch", "title": "Breakfast & Brunch"}], "rating": 4.0, "coordinates": {"latitude": 37.73123, "longitude": -122.45159}, "transactions": ["pickup", "delivery"], "price": "$$", "location": {"address1": "717 Monterey Blvd", "address2": "", "address3": "", "city": "San Francisco", "zip_code": "94127", "country": "US", "state": "CA", "display_address": ["717 Monterey Blvd", "San Francisco, CA 94127"]}, "phone": "+14153332878", "display_phone": "(415) 333-2878", "distance": 3549.243333856429}, {"id": "TdXsIPBVRLP3DR-A3sKdpg", "alias": "tartine-manufactory-san-francisco", "name": "Tartine Manufactory", "image_url": "https://s3-media1.fl.yelpcdn.com/bphoto/p0Vl0oROyI0Y_uoIfMbPDQ/o.jpg", "is_closed": false, "url": "https://www.yelp.com/biz/tartine-manufactory-san-francisco?adjust_creative=Klanz-jboxl2XzqrjP6LLw&utm_campaign=yelp_api_v3&utm_medium=api_v3_business_search&utm_source=Klanz-jboxl2XzqrjP6LLw", "review_count": 1326, "categories": [{"alias": "bakeries", "title": "Bakeries"}, {"alias": "coffee", "title": "Coffee & Tea"}, {"alias": "newamerican", "title": "American (New)"}], "rating": 3.5, "coordinates": {"latitude": 37.7618402321822, "longitude": -122.41198167347}, "transactions": ["delivery"], "price": "$$", "location": {"address1": "595 Alabama St", "address2": "", "address3": null, "city": "San Francisco", "zip_code": "94110", "country": "US", "state": "CA", "display_address": ["595 Alabama St", "San Francisco, CA 94110"]}, "phone": "+14157570007", "display_phone": "(415) 757-0007", "distance": 2156.261653796793}, {"id": "7x1RTQcZAxE8R2tXvWYwiQ", "alias": "an-chi-san-francisco-3", "name": "An Chi", "image_url": "https://s3-media1.fl.yelpcdn.com/bphoto/-289Li1T197u_rpK_U7k3w/o.jpg", "is_closed": false, "url": "https://www.yelp.com/biz/an-chi-san-francisco-3?adjust_creative=Klanz-jboxl2XzqrjP6LLw&utm_campaign=yelp_api_v3&utm_medium=api_v3_business_search&utm_source=Klanz-jboxl2XzqrjP6LLw", "review_count": 128, "categories": [{"alias": "vietnamese", "title": "Vietnamese"}], "rating": 4.5, "coordinates": {"latitude": 37.7799, "longitude": -122.48202}, "transactions": ["delivery", "pickup"], "price": "$$", "location": {"address1": "5827 Geary Blvd", "address2": null, "address3": "", "city": "San Francisco", "zip_code": "94121", "country": "US", "state": "CA", "display_address": ["5827 Geary Blvd", "San Francisco, CA 94121"]}, "phone": "+14157029986", "display_phone": "(415) 702-9986", "distance": 4530.454393639752}, {"id": "hSf4dN8617Czf1T2VrJHgQ", "alias": "tilak-san-francisco", "name": "Tilak", "image_url": "https://s3-media2.fl.yelpcdn.com/bphoto/zTIA2JspVZ9HWZLpindMbQ/o.jpg", "is_closed": false, "url": "https://www.yelp.com/biz/tilak-san-francisco?adjust_creative=Klanz-jboxl2XzqrjP6LLw&utm_campaign=yelp_api_v3&utm_medium=api_v3_business_search&utm_source=Klanz-jboxl2XzqrjP6LLw", "review_count": 324, "categories": [{"alias": "indpak", "title": "Indian"}], "rating": 4.5, "coordinates": {"latitude": 37.74085, "longitude": -122.42273}, "transactions": ["delivery", "pickup"], "price": "$$", "location": {"address1": "3501 Mission St", "address2": null, "address3": "", "city": "San Francisco", "zip_code": "94110", "country": "US", "state": "CA", "display_address": ["3501 Mission St", "San Francisco, CA 94110"]}, "phone": "+14156474037", "display_phone": "(415) 647-4037", "distance": 2539.7505804400757}, {"id": "0i0GDMrn1hxnbaXU579J8g", "alias": "hula-hoops-south-san-francisco-2", "name": "Hula Hoops", "image_url": "https://s3-media1.fl.yelpcdn.com/bphoto/QTye38JBo9VrCHfW_V9Q2A/o.jpg", "is_closed": false, "url": "https://www.yelp.com/biz/hula-hoops-south-san-francisco-2?adjust_creative=Klanz-jboxl2XzqrjP6LLw&utm_campaign=yelp_api_v3&utm_medium=api_v3_business_search&utm_source=Klanz-jboxl2XzqrjP6LLw", "review_count": 868, "categories": [{"alias": "tikibars", "title": "Tiki Bars"}, {"alias": "asianfusion", "title": "Asian Fusion"}, {"alias": "venues", "title": "Venues & Event Spaces"}], "rating": 4.0, "coordinates": {"latitude": 37.644909, "longitude": -122.452615}, "transactions": ["restaurant_reservation", "delivery", "pickup"], "price": "$$", "location": {"address1": "2278 Westborough Blvd", "address2": "Ste 203", "address3": null, "city": "South San Francisco", "zip_code": "94080", "country": "US", "state": "CA", "display_address": ["2278 Westborough Blvd", "Ste 203", "South San Francisco, CA 94080"]}, "phone": "+16509523255", "display_phone": "(650) 952-3255", "distance": 12975.724978951082}, {"id": "vPc-Lhgzghjrt6_ySehNPA", "alias": "osteria-divino-sausalito", "name": "Osteria Divino", "image_url": "https://s3-media1.fl.yelpcdn.com/bphoto/uIEou42iU1HHSc8Tyebk6Q/o.jpg", "is_closed": false, "url": "https://www.yelp.com/biz/osteria-divino-sausalito?adjust_creative=Klanz-jboxl2XzqrjP6LLw&utm_campaign=yelp_api_v3&utm_medium=api_v3_business_search&utm_source=Klanz-jboxl2XzqrjP6LLw", "review_count": 418, "categories": [{"alias": "italian", "title": "Italian"}, {"alias": "jazzandblues", "title": "Jazz & Blues"}], "rating": 4.0, "coordinates": {"latitude": 37.8582356125116, "longitude": -122.484718859196}, "transactions": ["pickup"], "price": "$$", "location": {"address1": "37 Caledonia St", "address2": "", "address3": "", "city": "Sausalito", "zip_code": "94965", "country": "US", "state": "CA", "display_address": ["37 Caledonia St", "Sausalito, CA 94965"]}, "phone": "+14153319355", "display_phone": "(415) 331-9355", "distance": 11641.195186160292}, {"id": "h1wDLfgEWihWTBJ3z33NLg", "alias": "damn-fine-san-francisco-2", "name": "Damn Fine", "image_url": "https://s3-media2.fl.yelpcdn.com/bphoto/Pjox2-abG3pDBwGeZzNIEA/o.jpg", "is_closed": false, "url": "https://www.yelp.com/biz/damn-fine-san-francisco-2?adjust_creative=Klanz-jboxl2XzqrjP6LLw&utm_campaign=yelp_api_v3&utm_medium=api_v3_business_search&utm_source=Klanz-jboxl2XzqrjP6LLw", "review_count": 101, "categories": [{"alias": "pizza", "title": "Pizza"}, {"alias": "salad", "title": "Salad"}], "rating": 4.5, "coordinates": {"latitude": 37.76098, "longitude": -122.4988}, "transactions": [], "price": "$$", "location": {"address1": "3410 Judah St", "address2": "", "address3": null, "city": "San Francisco", "zip_code": "94122", "country": "US", "state": "CA", "display_address": ["3410 Judah St", "San Francisco, CA 94122"]}, "phone": "+14159417503", "display_phone": "(415) 941-7503", "distance": 5475.207985021437}, {"id": "ZYGtYsG_uZzdejxF_gURbQ", "alias": "basque-cultural-center-south-san-francisco", "name": "Basque Cultural Center", "image_url": "https://s3-media3.fl.yelpcdn.com/bphoto/sWV5NnV3N3VEZ2fKTifR1A/o.jpg", "is_closed": false, "url": "https://www.yelp.com/biz/basque-cultural-center-south-san-francisco?adjust_creative=Klanz-jboxl2XzqrjP6LLw&utm_campaign=yelp_api_v3&utm_medium=api_v3_business_search&utm_source=Klanz-jboxl2XzqrjP6LLw", "review_count": 425, "categories": [{"alias": "basque", "title": "Basque"}, {"alias": "culturalcenter", "title": "Cultural Center"}], "rating": 3.5, "coordinates": {"latitude": 37.65373, "longitude": -122.4203}, "transactions": ["delivery", "pickup"], "price": "$$", "location": {"address1": "599 Railroad Ave", "address2": "", "address3": "", "city": "South San Francisco", "zip_code": "94080", "country": "US", "state": "CA", "display_address": ["599 Railroad Ave", "South San Francisco, CA 94080"]}, "phone": "+16505838091", "display_phone": "(650) 583-8091", "distance": 12001.568167593638}, {"id": "aP8bXfX6FzBnhZhQMmC08g", "alias": "ippudo-san-francisco-san-francisco-3", "name": "Ippudo San Francisco", "image_url": "https://s3-media2.fl.yelpcdn.com/bphoto/SE7nWXAFunjmSGNHVNyDFQ/o.jpg", "is_closed": false, "url": "https://www.yelp.com/biz/ippudo-san-francisco-san-francisco-3?adjust_creative=Klanz-jboxl2XzqrjP6LLw&utm_campaign=yelp_api_v3&utm_medium=api_v3_business_search&utm_source=Klanz-jboxl2XzqrjP6LLw", "review_count": 1080, "categories": [{"alias": "ramen", "title": "Ramen"}, {"alias": "noodles", "title": "Noodles"}, {"alias": "soup", "title": "Soup"}], "rating": 3.5, "coordinates": {"latitude": 37.785942, "longitude": -122.404501}, "transactions": ["delivery", "pickup"], "price": "$$", "location": {"address1": "18 Yerba Buena Ln", "address2": "", "address3": null, "city": "San Francisco", "zip_code": "94103", "country": "US", "state": "CA", "display_address": ["18 Yerba Buena Ln", "San Francisco, CA 94103"]}, "phone": "+14153481202", "display_phone": "(415) 348-1202", "distance": 3954.48779638075}, {"id": "sh5emqsZCFjM67xIcp-V0A", "alias": "good-earth-cafe-san-francisco-2", "name": "Good Earth Cafe", "image_url": "https://s3-media4.fl.yelpcdn.com/bphoto/IFXwKSOFRG1sLwXsqIz4aQ/o.jpg", "is_closed": false, "url": "https://www.yelp.com/biz/good-earth-cafe-san-francisco-2?adjust_creative=Klanz-jboxl2XzqrjP6LLw&utm_campaign=yelp_api_v3&utm_medium=api_v3_business_search&utm_source=Klanz-jboxl2XzqrjP6LLw", "review_count": 114, "categories": [{"alias": "bubbletea", "title": "Bubble Tea"}, {"alias": "cafes", "title": "Cafes"}], "rating": 4.5, "coordinates": {"latitude": 37.7957899, "longitude": -122.40537}, "transactions": ["delivery"], "price": "$", "location": {"address1": "835 Kearny St", "address2": "", "address3": "", "city": "San Francisco", "zip_code": "94108", "country": "US", "state": "CA", "display_address": ["835 Kearny St", "San Francisco, CA 94108"]}, "phone": "+14153622822", "display_phone": "(415) 362-2822", "distance": 4756.717532575793}, {"id": "uBEXKiMtioeDItKaAOsmxQ", "alias": "next-level-burger-san-francisco-8", "name": "Next Level Burger", "image_url": "https://s3-media2.fl.yelpcdn.com/bphoto/69J5hbstB26YVTW1qu2LDg/o.jpg", "is_closed": false, "url": "https://www.yelp.com/biz/next-level-burger-san-francisco-8?adjust_creative=Klanz-jboxl2XzqrjP6LLw&utm_campaign=yelp_api_v3&utm_medium=api_v3_business_search&utm_source=Klanz-jboxl2XzqrjP6LLw", "review_count": 266, "categories": [{"alias": "burgers", "title": "Burgers"}, {"alias": "tradamerican", "title": "American (Traditional)"}, {"alias": "vegan", "title": "Vegan"}], "rating": 4.0, "coordinates": {"latitude": 37.76458, "longitude": -122.40281}, "transactions": ["delivery", "pickup"], "price": "$$", "location": {"address1": "450 Rhode Island St", "address2": null, "address3": "Whole Foods Market 365", "city": "San Francisco", "zip_code": "94107", "country": "US", "state": "CA", "display_address": ["450 Rhode Island St", "Whole Foods Market 365", "San Francisco, CA 94107"]}, "phone": "+14153581100", "display_phone": "(415) 358-1100", "distance": 2942.807065250094}, {"id": "E1afEB6othmgSJZKIqeMFA", "alias": "freekeh-san-francisco", "name": "Freekeh", "image_url": "https://s3-media3.fl.yelpcdn.com/bphoto/WazVe4NWv_Zd2LMhIhD-Dg/o.jpg", "is_closed": false, "url": "https://www.yelp.com/biz/freekeh-san-francisco?adjust_creative=Klanz-jboxl2XzqrjP6LLw&utm_campaign=yelp_api_v3&utm_medium=api_v3_business_search&utm_source=Klanz-jboxl2XzqrjP6LLw", "review_count": 43, "categories": [{"alias": "mediterranean", "title": "Mediterranean"}, {"alias": "cocktailbars", "title": "Cocktail Bars"}], "rating": 5.0, "coordinates": {"latitude": 37.76512, "longitude": -122.42261}, "transactions": [], "location": {"address1": "3126 16th St", "address2": "", "address3": null, "city": "San Francisco", "zip_code": "94103", "country": "US", "state": "CA", "display_address": ["3126 16th St", "San Francisco, CA 94103"]}, "phone": "", "display_phone": "", "distance": 1300.2013439164486}, {"id": "7eLMlgDPdCc9zJ2JnSZSLg", "alias": "peacekeeper-san-francisco", "name": "Peacekeeper", "image_url": "https://s3-media3.fl.yelpcdn.com/bphoto/kpkjbR5jae_ldc11OjmxMw/o.jpg", "is_closed": false, "url": "https://www.yelp.com/biz/peacekeeper-san-francisco?adjust_creative=Klanz-jboxl2XzqrjP6LLw&utm_campaign=yelp_api_v3&utm_medium=api_v3_business_search&utm_source=Klanz-jboxl2XzqrjP6LLw", "review_count": 151, "categories": [{"alias": "cocktailbars", "title": "Cocktail Bars"}], "rating": 4.0, "coordinates": {"latitude": 37.78955, "longitude": -122.41252}, "transactions": [], "price": "$$", "location": {"address1": "925 Bush St", "address2": null, "address3": "", "city": "San Francisco", "zip_code": "94109", "country": "US", "state": "CA", "display_address": ["925 Bush St", "San Francisco, CA 94109"]}, "phone": "+14155042502", "display_phone": "(415) 504-2502", "distance": 3817.302856550744}, {"id": "ep1p6on0FScEKfYSsdftng", "alias": "empress-by-boon-san-francisco", "name": "Empress by Boon", "image_url": "https://s3-media3.fl.yelpcdn.com/bphoto/KmfbshLKWgBCovQ4tKiWRw/o.jpg", "is_closed": false, "url": "https://www.yelp.com/biz/empress-by-boon-san-francisco?adjust_creative=Klanz-jboxl2XzqrjP6LLw&utm_campaign=yelp_api_v3&utm_medium=api_v3_business_search&utm_source=Klanz-jboxl2XzqrjP6LLw", "review_count": 210, "categories": [{"alias": "cantonese", "title": "Cantonese"}], "rating": 4.0, "coordinates": {"latitude": 37.794825, "longitude": -122.406084}, "transactions": [], "price": "$$$$", "location": {"address1": "838 Grant Ave", "address2": null, "address3": null, "city": "San Francisco", "zip_code": "94108", "country": "US", "state": "CA", "display_address": ["838 Grant Ave", "San Francisco, CA 94108"]}, "phone": "+14157570728", "display_phone": "(415) 757-0728", "distance": 4624.396649088772}, {"id": "ZDvIMjJ-7I0561ckM4pAeA", "alias": "anchor-oyster-bar-san-francisco", "name": "Anchor Oyster Bar", "image_url": "https://s3-media3.fl.yelpcdn.com/bphoto/oKLPo1042ojJJC9OcCzAMw/o.jpg", "is_closed": false, "url": "https://www.yelp.com/biz/anchor-oyster-bar-san-francisco?adjust_creative=Klanz-jboxl2XzqrjP6LLw&utm_campaign=yelp_api_v3&utm_medium=api_v3_business_search&utm_source=Klanz-jboxl2XzqrjP6LLw", "review_count": 1562, "categories": [{"alias": "seafood", "title": "Seafood"}], "rating": 4.5, "coordinates": {"latitude": 37.759701649632525, "longitude": -122.43476121686464}, "transactions": ["delivery", "pickup"], "price": "$$", "location": {"address1": "579 Castro St", "address2": "", "address3": "", "city": "San Francisco", "zip_code": "94114", "country": "US", "state": "CA", "display_address": ["579 Castro St", "San Francisco, CA 94114"]}, "phone": "+14154313990", "display_phone": "(415) 431-3990", "distance": 199.25583602593704}, {"id": "7De5jFedPf7jr1vxtvz3og", "alias": "honduras-kitchen-san-francisco", "name": "Honduras Kitchen", "image_url": "https://s3-media1.fl.yelpcdn.com/bphoto/aDmoZrCbKC830xy_9PyEhg/o.jpg", "is_closed": false, "url": "https://www.yelp.com/biz/honduras-kitchen-san-francisco?adjust_creative=Klanz-jboxl2XzqrjP6LLw&utm_campaign=yelp_api_v3&utm_medium=api_v3_business_search&utm_source=Klanz-jboxl2XzqrjP6LLw", "review_count": 3, "categories": [{"alias": "latin", "title": "Latin American"}, {"alias": "honduran", "title": "Honduran"}], "rating": 5.0, "coordinates": {"latitude": 37.714956, "longitude": -122.442541}, "transactions": [], "location": {"address1": "5278 Mission St", "address2": null, "address3": "", "city": "San Francisco", "zip_code": "94112", "country": "US", "state": "CA", "display_address": ["5278 Mission St", "San Francisco, CA 94112"]}, "phone": "+14155858554", "display_phone": "(415) 585-8554", "distance": 5136.861373067117}, {"id": "euVu9W9VfND3KWzYevi03A", "alias": "the-damel-oakland", "name": "The Damel", "image_url": "https://s3-media2.fl.yelpcdn.com/bphoto/IIzsZwkaIzFmDB8S4LfnRw/o.jpg", "is_closed": false, "url": "https://www.yelp.com/biz/the-damel-oakland?adjust_creative=Klanz-jboxl2XzqrjP6LLw&utm_campaign=yelp_api_v3&utm_medium=api_v3_business_search&utm_source=Klanz-jboxl2XzqrjP6LLw", "review_count": 115, "categories": [{"alias": "brazilian", "title": "Brazilian"}, {"alias": "african", "title": "African"}], "rating": 4.5, "coordinates": {"latitude": 37.8038565, "longitude": -122.2712799}, "transactions": ["pickup", "delivery"], "price": "$$", "location": {"address1": "1312 Broadway", "address2": null, "address3": "", "city": "Oakland", "zip_code": "94612", "country": "US", "state": "CA", "display_address": ["1312 Broadway", "Oakland, CA 94612"]}, "phone": "+15108174939", "display_phone": "(510) 817-4939", "distance": 15280.973579691787}, {"id": "c6aMZg8kxlNC5fQ49ZcBQA", "alias": "gyu-kaku-japanese-bbq-san-francisco-2", "name": "Gyu-Kaku Japanese BBQ", "image_url": "https://s3-media3.fl.yelpcdn.com/bphoto/y0pn0IqwyIVjDRUOvccHJg/o.jpg", "is_closed": false, "url": "https://www.yelp.com/biz/gyu-kaku-japanese-bbq-san-francisco-2?adjust_creative=Klanz-jboxl2XzqrjP6LLw&utm_campaign=yelp_api_v3&utm_medium=api_v3_business_search&utm_source=Klanz-jboxl2XzqrjP6LLw", "review_count": 91, "categories": [{"alias": "japanese", "title": "Japanese"}, {"alias": "asianfusion", "title": "Asian Fusion"}, {"alias": "bbq", "title": "Barbeque"}], "rating": 3.5, "coordinates": {"latitude": 37.782098, "longitude": -122.403773}, "transactions": ["pickup", "delivery"], "price": "$$", "location": {"address1": "855 Howard St", "address2": "", "address3": null, "city": "San Francisco", "zip_code": "94103", "country": "US", "state": "CA", "display_address": ["855 Howard St", "San Francisco, CA 94103"]}, "phone": "+14157570905", "display_phone": "(415) 757-0905", "distance": 3712.5420011141737}, {"id": "7rUZnmRVyCpq4TrB9Brsiw", "alias": "the-little-chihuahua-san-francisco", "name": "The Little Chihuahua", "image_url": "https://s3-media2.fl.yelpcdn.com/bphoto/LKYks5IRoE34XJYajKd3LA/o.jpg", "is_closed": false, "url": "https://www.yelp.com/biz/the-little-chihuahua-san-francisco?adjust_creative=Klanz-jboxl2XzqrjP6LLw&utm_campaign=yelp_api_v3&utm_medium=api_v3_business_search&utm_source=Klanz-jboxl2XzqrjP6LLw", "review_count": 1531, "categories": [{"alias": "mexican", "title": "Mexican"}], "rating": 4.0, "coordinates": {"latitude": 37.7720399, "longitude": -122.43688}, "transactions": ["delivery"], "price": "$$", "location": {"address1": "292 Divisadero St", "address2": "", "address3": "", "city": "San Francisco", "zip_code": "94117", "country": "US", "state": "CA", "display_address": ["292 Divisadero St", "San Francisco, CA 94117"]}, "phone": "+14152558225", "display_phone": "(415) 255-8225", "distance": 1240.2243862836729}, {"id": "4J7OOaWkSuKk9buCkILN_A", "alias": "tato-san-francisco", "name": "Tato", "image_url": "https://s3-media3.fl.yelpcdn.com/bphoto/JJoHApCkkwdvqJIEuYgNFw/o.jpg", "is_closed": false, "url": "https://www.yelp.com/biz/tato-san-francisco?adjust_creative=Klanz-jboxl2XzqrjP6LLw&utm_campaign=yelp_api_v3&utm_medium=api_v3_business_search&utm_source=Klanz-jboxl2XzqrjP6LLw", "review_count": 104, "categories": [{"alias": "mexican", "title": "Mexican"}], "rating": 4.5, "coordinates": {"latitude": 37.7363085992944, "longitude": -122.390521690249}, "transactions": ["delivery", "pickup"], "price": "$$", "location": {"address1": "4608 3rd St", "address2": "", "address3": null, "city": "San Francisco", "zip_code": "94124", "country": "US", "state": "CA", "display_address": ["4608 3rd St", "San Francisco, CA 94124"]}, "phone": "+14159480974", "display_phone": "(415) 948-0974", "distance": 4876.591861252743}, {"id": "GIm5jbvmymBNo_e7Y84efw", "alias": "rye-san-francisco", "name": "Rye", "image_url": "https://s3-media4.fl.yelpcdn.com/bphoto/-fv6K7Nn0u--YfIQYPOB7w/o.jpg", "is_closed": false, "url": "https://www.yelp.com/biz/rye-san-francisco?adjust_creative=Klanz-jboxl2XzqrjP6LLw&utm_campaign=yelp_api_v3&utm_medium=api_v3_business_search&utm_source=Klanz-jboxl2XzqrjP6LLw", "review_count": 1298, "categories": [{"alias": "cocktailbars", "title": "Cocktail Bars"}], "rating": 4.0, "coordinates": {"latitude": 37.78677, "longitude": -122.41461}, "transactions": [], "price": "$$", "location": {"address1": "688 Geary St", "address2": null, "address3": "", "city": "San Francisco", "zip_code": "94102", "country": "US", "state": "CA", "display_address": ["688 Geary St", "San Francisco, CA 94102"]}, "phone": "+14154744448", "display_phone": "(415) 474-4448", "distance": 3451.980145811065}, {"id": "WtA7XYzBFhZ5LPbSihEWkw", "alias": "akira-japanese-restaurant-san-francisco", "name": "Akira Japanese Restaurant", "image_url": "https://s3-media1.fl.yelpcdn.com/bphoto/hMLXYF8acpJzGEDgEqbRog/o.jpg", "is_closed": false, "url": "https://www.yelp.com/biz/akira-japanese-restaurant-san-francisco?adjust_creative=Klanz-jboxl2XzqrjP6LLw&utm_campaign=yelp_api_v3&utm_medium=api_v3_business_search&utm_source=Klanz-jboxl2XzqrjP6LLw", "review_count": 439, "categories": [{"alias": "japanese", "title": "Japanese"}, {"alias": "sushi", "title": "Sushi Bars"}], "rating": 4.0, "coordinates": {"latitude": 37.78846, "longitude": -122.42421}, "transactions": ["delivery", "pickup"], "price": "$$", "location": {"address1": "1634 Bush St", "address2": "", "address3": null, "city": "San Francisco", "zip_code": "94109", "country": "US", "state": "CA", "display_address": ["1634 Bush St", "San Francisco, CA 94109"]}, "phone": "+14158008498", "display_phone": "(415) 800-8498", "distance": 3240.441916550173}, {"id": "kvXDYmfrjINaH4k5uS9emw", "alias": "yemen-kitchen-san-francisco", "name": "Yemen Kitchen", "image_url": "https://s3-media2.fl.yelpcdn.com/bphoto/v19-FckiGCIUXdMOUYuZ3g/o.jpg", "is_closed": false, "url": "https://www.yelp.com/biz/yemen-kitchen-san-francisco?adjust_creative=Klanz-jboxl2XzqrjP6LLw&utm_campaign=yelp_api_v3&utm_medium=api_v3_business_search&utm_source=Klanz-jboxl2XzqrjP6LLw", "review_count": 239, "categories": [{"alias": "mideastern", "title": "Middle Eastern"}, {"alias": "mediterranean", "title": "Mediterranean"}], "rating": 4.5, "coordinates": {"latitude": 37.783259, "longitude": -122.41267}, "transactions": ["pickup", "delivery"], "price": "$$", "location": {"address1": "219 Jones St", "address2": "", "address3": "", "city": "San Francisco", "zip_code": "94102", "country": "US", "state": "CA", "display_address": ["219 Jones St", "San Francisco, CA 94102"]}, "phone": "+14152143575", "display_phone": "(415) 214-3575", "distance": 3254.694860112923}, {"id": "I3GNU1b9NCaPbts6art1WQ", "alias": "outpost-san-francisco", "name": "Outpost", "image_url": "https://s3-media3.fl.yelpcdn.com/bphoto/C7q-8d1pwPmJJwYzxrBySA/o.jpg", "is_closed": false, "url": "https://www.yelp.com/biz/outpost-san-francisco?adjust_creative=Klanz-jboxl2XzqrjP6LLw&utm_campaign=yelp_api_v3&utm_medium=api_v3_business_search&utm_source=Klanz-jboxl2XzqrjP6LLw", "review_count": 628, "categories": [{"alias": "coffee", "title": "Coffee & Tea"}, {"alias": "cafes", "title": "Cafes"}, {"alias": "wine_bars", "title": "Wine Bars"}], "rating": 4.0, "coordinates": {"latitude": 37.7776832580566, "longitude": -122.407096862793}, "transactions": ["delivery", "pickup"], "price": "$$", "location": {"address1": "1052 Folsom St", "address2": "", "address3": "", "city": "San Francisco", "zip_code": "94103", "country": "US", "state": "CA", "display_address": ["1052 Folsom St", "San Francisco, CA 94103"]}, "phone": "+14158171973", "display_phone": "(415) 817-1973", "distance": 3185.8563460570226}, {"id": "zkVm2lMNdKWfbE4Uo1tMeA", "alias": "abrazo-san-francisco-2", "name": "Abrazo", "image_url": "https://s3-media1.fl.yelpcdn.com/bphoto/g3TqyzHXSsKm0zhVCUErrw/o.jpg", "is_closed": false, "url": "https://www.yelp.com/biz/abrazo-san-francisco-2?adjust_creative=Klanz-jboxl2XzqrjP6LLw&utm_campaign=yelp_api_v3&utm_medium=api_v3_business_search&utm_source=Klanz-jboxl2XzqrjP6LLw", "review_count": 111, "categories": [{"alias": "spanish", "title": "Spanish"}, {"alias": "newamerican", "title": "American (New)"}, {"alias": "seafood", "title": "Seafood"}], "rating": 4.5, "coordinates": {"latitude": 37.7994, "longitude": -122.41888}, "transactions": ["delivery"], "price": "$$$", "location": {"address1": "2000 Hyde St", "address2": null, "address3": "", "city": "San Francisco", "zip_code": "94109", "country": "US", "state": "CA", "display_address": ["2000 Hyde St", "San Francisco, CA 94109"]}, "phone": "+14158729239", "display_phone": "(415) 872-9239", "distance": 4544.339524282116}, {"id": "mSMZJj2pFvttWLpcDmgrEA", "alias": "tonys-pizza-napoletana-san-francisco", "name": "Tony's Pizza Napoletana", "image_url": "https://s3-media3.fl.yelpcdn.com/bphoto/rrBlePEDLrbD27VVE0Ze2A/o.jpg", "is_closed": false, "url": "https://www.yelp.com/biz/tonys-pizza-napoletana-san-francisco?adjust_creative=Klanz-jboxl2XzqrjP6LLw&utm_campaign=yelp_api_v3&utm_medium=api_v3_business_search&utm_source=Klanz-jboxl2XzqrjP6LLw", "review_count": 5660, "categories": [{"alias": "pizza", "title": "Pizza"}, {"alias": "italian", "title": "Italian"}, {"alias": "cocktailbars", "title": "Cocktail Bars"}], "rating": 4.0, "coordinates": {"latitude": 37.8003315377662, "longitude": -122.409053979377}, "transactions": ["delivery"], "price": "$$", "location": {"address1": "1570 Stockton St", "address2": "", "address3": "", "city": "San Francisco", "zip_code": "94133", "country": "US", "state": "CA", "display_address": ["1570 Stockton St", "San Francisco, CA 94133"]}, "phone": "+14158359888", "display_phone": "(415) 835-9888", "distance": 5002.084940639829}, {"id": "OLs6GNr-XE1niKsSkzy9uw", "alias": "skates-on-the-bay-berkeley", "name": "Skates On The Bay", "image_url": "https://s3-media1.fl.yelpcdn.com/bphoto/NOMMsMQVZDGIGS6FHQ9qWg/o.jpg", "is_closed": false, "url": "https://www.yelp.com/biz/skates-on-the-bay-berkeley?adjust_creative=Klanz-jboxl2XzqrjP6LLw&utm_campaign=yelp_api_v3&utm_medium=api_v3_business_search&utm_source=Klanz-jboxl2XzqrjP6LLw", "review_count": 2484, "categories": [{"alias": "seafood", "title": "Seafood"}, {"alias": "tradamerican", "title": "American (Traditional)"}, {"alias": "sushi", "title": "Sushi Bars"}], "rating": 3.5, "coordinates": {"latitude": 37.8636571404776, "longitude": -122.318021}, "transactions": ["delivery", "pickup"], "price": "$$$", "location": {"address1": "100 Seawall Dr", "address2": "", "address3": "", "city": "Berkeley", "zip_code": "94710", "country": "US", "state": "CA", "display_address": ["100 Seawall Dr", "Berkeley, CA 94710"]}, "phone": "+15105491900", "display_phone": "(510) 549-1900", "distance": 15452.685070085428}, {"id": "F2gF7VJpmUn1vXcIwkL_Yw", "alias": "golden-gate-tap-room-san-francisco", "name": "Golden Gate Tap Room", "image_url": "https://s3-media4.fl.yelpcdn.com/bphoto/-sDvDtYLWSywf_OYTzgwVA/o.jpg", "is_closed": false, "url": "https://www.yelp.com/biz/golden-gate-tap-room-san-francisco?adjust_creative=Klanz-jboxl2XzqrjP6LLw&utm_campaign=yelp_api_v3&utm_medium=api_v3_business_search&utm_source=Klanz-jboxl2XzqrjP6LLw", "review_count": 992, "categories": [{"alias": "sportsbars", "title": "Sports Bars"}, {"alias": "chicken_wings", "title": "Chicken Wings"}, {"alias": "beerbar", "title": "Beer Bar"}], "rating": 3.5, "coordinates": {"latitude": 37.78902211758413, "longitude": -122.40868858676203}, "transactions": ["delivery", "pickup"], "price": "$$", "location": {"address1": "449 Powell St", "address2": "Fl 2", "address3": "", "city": "San Francisco", "zip_code": "94108", "country": "US", "state": "CA", "display_address": ["449 Powell St", "Fl 2", "San Francisco, CA 94108"]}, "phone": "+14156779999", "display_phone": "(415) 677-9999", "distance": 3966.234759293509}, {"id": "PgJV1wOtwTuoUz_n5Mcyxw", "alias": "tacos-el-patr\u00f3n-san-francisco-2", "name": "Tacos El Patr\u00f3n", "image_url": "https://s3-media1.fl.yelpcdn.com/bphoto/jvf7RE2HuuAIqXUFqNJBeg/o.jpg", "is_closed": false, "url": "https://www.yelp.com/biz/tacos-el-patr%C3%B3n-san-francisco-2?adjust_creative=Klanz-jboxl2XzqrjP6LLw&utm_campaign=yelp_api_v3&utm_medium=api_v3_business_search&utm_source=Klanz-jboxl2XzqrjP6LLw", "review_count": 611, "categories": [{"alias": "tacos", "title": "Tacos"}], "rating": 4.0, "coordinates": {"latitude": 37.748949, "longitude": -122.416138}, "transactions": ["pickup", "delivery"], "price": "$$", "location": {"address1": "1500 S Van Ness Ave", "address2": "Ste 100", "address3": "", "city": "San Francisco", "zip_code": "94110", "country": "US", "state": "CA", "display_address": ["1500 S Van Ness Ave", "Ste 100", "San Francisco, CA 94110"]}, "phone": "+14158297315", "display_phone": "(415) 829-7315", "distance": 2224.9476542375687}, {"id": "qsJYVZCxZNWMjMyMlsGl5A", "alias": "new-fortune-restaurant-san-francisco", "name": "New Fortune Restaurant", "image_url": "https://s3-media2.fl.yelpcdn.com/bphoto/19pyI0QVUSIkaFZp5jXg8g/o.jpg", "is_closed": false, "url": "https://www.yelp.com/biz/new-fortune-restaurant-san-francisco?adjust_creative=Klanz-jboxl2XzqrjP6LLw&utm_campaign=yelp_api_v3&utm_medium=api_v3_business_search&utm_source=Klanz-jboxl2XzqrjP6LLw", "review_count": 126, "categories": [{"alias": "chinese", "title": "Chinese"}], "rating": 4.5, "coordinates": {"latitude": 37.79335, "longitude": -122.40801}, "transactions": ["delivery", "pickup"], "price": "$", "location": {"address1": "815 Stockton St", "address2": "", "address3": null, "city": "San Francisco", "zip_code": "94108", "country": "US", "state": "CA", "display_address": ["815 Stockton St", "San Francisco, CA 94108"]}, "phone": "+14156587306", "display_phone": "(415) 658-7306", "distance": 4390.420173203169}, {"id": "EY6AZjt3JDqtz7WRzthocA", "alias": "the-willows-san-francisco", "name": "The Willows", "image_url": "https://s3-media4.fl.yelpcdn.com/bphoto/QgtvZshZwTIyXBkYM4pFrQ/o.jpg", "is_closed": false, "url": "https://www.yelp.com/biz/the-willows-san-francisco?adjust_creative=Klanz-jboxl2XzqrjP6LLw&utm_campaign=yelp_api_v3&utm_medium=api_v3_business_search&utm_source=Klanz-jboxl2XzqrjP6LLw", "review_count": 276, "categories": [{"alias": "burgers", "title": "Burgers"}, {"alias": "beerbar", "title": "Beer Bar"}, {"alias": "cocktailbars", "title": "Cocktail Bars"}], "rating": 3.5, "coordinates": {"latitude": 37.77111, "longitude": -122.41504}, "transactions": ["pickup", "delivery"], "price": "$$", "location": {"address1": "1582 Folsom St", "address2": "", "address3": "", "city": "San Francisco", "zip_code": "94103", "country": "US", "state": "CA", "display_address": ["1582 Folsom St", "San Francisco, CA 94103"]}, "phone": "+14152267768", "display_phone": "(415) 226-7768", "distance": 2193.2273920920975}, {"id": "FmGF1B-Rpsjq1f5b56qMwg", "alias": "molinari-delicatessen-san-francisco", "name": "Molinari Delicatessen", "image_url": "https://s3-media3.fl.yelpcdn.com/bphoto/4gRY9rVs8JyHvngljSzXyA/o.jpg", "is_closed": false, "url": "https://www.yelp.com/biz/molinari-delicatessen-san-francisco?adjust_creative=Klanz-jboxl2XzqrjP6LLw&utm_campaign=yelp_api_v3&utm_medium=api_v3_business_search&utm_source=Klanz-jboxl2XzqrjP6LLw", "review_count": 1206, "categories": [{"alias": "delis", "title": "Delis"}], "rating": 4.5, "coordinates": {"latitude": 37.79838, "longitude": -122.40782}, "transactions": ["pickup", "delivery"], "price": "$$", "location": {"address1": "373 Columbus Ave", "address2": "", "address3": "", "city": "San Francisco", "zip_code": "94133", "country": "US", "state": "CA", "display_address": ["373 Columbus Ave", "San Francisco, CA 94133"]}, "phone": "+14154212337", "display_phone": "(415) 421-2337", "distance": 4876.42475984749}], "total": 5500, "region": {"center": {"longitude": -122.43644714355469, "latitude": 37.76089938976322}}}