{"businesses": [{"id": "cL0q9S4bqwpbAN9ZKh-Zeg", "alias": "nara-restaurant-and-sake-bar-san-francisco", "name": "Nara Restaurant & Sake Bar", "image_url": "https://s3-media1.fl.yelpcdn.com/bphoto/7zzlpJKaC9bndjuo2UIr6g/o.jpg", "is_closed": false, "url": "https://www.yelp.com/biz/nara-restaurant-and-sake-bar-san-francisco?adjust_creative=Klanz-jboxl2XzqrjP6LLw&utm_campaign=yelp_api_v3&utm_medium=api_v3_business_search&utm_source=Klanz-jboxl2XzqrjP6LLw", "review_count": 1630, "categories": [{"alias": "japanese", "title": "Japanese"}, {"alias": "sushi", "title": "Sushi Bars"}], "rating": 4.5, "coordinates": {"latitude": 37.7721665317965, "longitude": -122.430675700307}, "transactions": ["restaurant_reservation", "delivery", "pickup"], "price": "$$", "location": {"address1": "518 Haight St", "address2": "", "address3": "", "city": "San Francisco", "zip_code": "94117", "country": "US", "state": "CA", "display_address": ["518 Haight St", "San Francisco, CA 94117"]}, "phone": "+14156386124", "display_phone": "(415) 638-6124", "distance": 1351.6641305802066}, {"id": "PGOXqUQDznDNGNHbQMWQcg", "alias": "takara-sushi-san-francisco", "name": "Takara Sushi", "image_url": "https://s3-media2.fl.yelpcdn.com/bphoto/BaRpjTPiF2Em7lL4fAuq8Q/o.jpg", "is_closed": false, "url": "https://www.yelp.com/biz/takara-sushi-san-francisco?adjust_creative=Klanz-jboxl2XzqrjP6LLw&utm_campaign=yelp_api_v3&utm_medium=api_v3_business_search&utm_source=Klanz-jboxl2XzqrjP6LLw", "review_count": 324, "categories": [{"alias": "sushi", "title": "Sushi Bars"}, {"alias": "japanese", "title": "Japanese"}], "rating": 3.5, "coordinates": {"latitude": 37.76058, "longitude": -122.43684}, "transactions": ["delivery", "pickup"], "price": "$$", "location": {"address1": "4243 18th St", "address2": "", "address3": "", "city": "San Francisco", "zip_code": "94114", "country": "US", "state": "CA", "display_address": ["4243 18th St", "San Francisco, CA 94114"]}, "phone": "+14156267864", "display_phone": "(415) 626-7864", "distance": 42.382355296878444}, {"id": "bhnKl105GwMVVlsiUnwr2w", "alias": "wood-tavern-oakland", "name": "Wood Tavern", "image_url": "https://s3-media1.fl.yelpcdn.com/bphoto/F1k_dDNUCqzrbcsSogZtmw/o.jpg", "is_closed": false, "url": "https://www.yelp.com/biz/wood-tavern-oakland?adjust_creative=Klanz-jboxl2XzqrjP6LLw&utm_campaign=yelp_api_v3&utm_medium=api_v3_business_search&utm_source=Klanz-jboxl2XzqrjP6LLw", "review_count": 2036, "categories": [{"alias": "newamerican", "title": "American (New)"}], "rating": 4.5, "coordinates": {"latitude": 37.850677245435, "longitude": -122.252613605212}, "transactions": ["delivery"], "price": "$$$", "location": {"address1": "6317 College Ave", "address2": "", "address3": "", "city": "Oakland", "zip_code": "94618", "country": "US", "state": "CA", "display_address": ["6317 College Ave", "Oakland, CA 94618"]}, "phone": "+15106546607", "display_phone": "(510) 654-6607", "distance": 18986.762948019692}, {"id": "DeGdhZKXoTnyyFc8GC2BHg", "alias": "waterfront-restaurant-san-francisco-5", "name": "Waterfront Restaurant", "image_url": "https://s3-media3.fl.yelpcdn.com/bphoto/mmTLhmJ_0tsrGSq5p1_XJA/o.jpg", "is_closed": false, "url": "https://www.yelp.com/biz/waterfront-restaurant-san-francisco-5?adjust_creative=Klanz-jboxl2XzqrjP6LLw&utm_campaign=yelp_api_v3&utm_medium=api_v3_business_search&utm_source=Klanz-jboxl2XzqrjP6LLw", "review_count": 1274, "categories": [{"alias": "seafood", "title": "Seafood"}, {"alias": "tradamerican", "title": "American (Traditional)"}], "rating": 3.0, "coordinates": {"latitude": 37.7993774767812, "longitude": -122.397444471717}, "transactions": ["delivery"], "price": "$$$", "location": {"address1": "Pier 7 The Embarcadero", "address2": "", "address3": "", "city": "San Francisco", "zip_code": "94111", "country": "US", "state": "CA", "display_address": ["Pier 7 The Embarcadero", "San Francisco, CA 94111"]}, "phone": "+14153912696", "display_phone": "(415) 391-2696", "distance": 5482.290107314}, {"id": "gxb1-SxUSEIskQg-nNcO-A", "alias": "the-american-grilled-cheese-kitchen-san-francisco-7", "name": "The American Grilled Cheese Kitchen", "image_url": "https://s3-media2.fl.yelpcdn.com/bphoto/yK11qtes5O_GXgIvt6UNzg/o.jpg", "is_closed": false, "url": "https://www.yelp.com/biz/the-american-grilled-cheese-kitchen-san-francisco-7?adjust_creative=Klanz-jboxl2XzqrjP6LLw&utm_campaign=yelp_api_v3&utm_medium=api_v3_business_search&utm_source=Klanz-jboxl2XzqrjP6LLw", "review_count": 1529, "categories": [{"alias": "breakfast_brunch", "title": "Breakfast & Brunch"}, {"alias": "tradamerican", "title": "American (Traditional)"}], "rating": 4.0, "coordinates": {"latitude": 37.782229, "longitude": -122.392869}, "transactions": ["delivery", "pickup"], "price": "$$", "location": {"address1": "1 S Park St", "address2": "Apt 103A", "address3": "", "city": "San Francisco", "zip_code": "94107", "country": "US", "state": "CA", "display_address": ["1 S Park St", "Apt 103A", "San Francisco, CA 94107"]}, "phone": "+14152430107", "display_phone": "(415) 243-0107", "distance": 4505.146506667982}, {"id": "SVpL2BGGoJxexdStPDAlSg", "alias": "shotwells-san-francisco", "name": "Shotwell's", "image_url": "https://s3-media2.fl.yelpcdn.com/bphoto/VbZYG18OWyaf8qve42R5qg/o.jpg", "is_closed": false, "url": "https://www.yelp.com/biz/shotwells-san-francisco?adjust_creative=Klanz-jboxl2XzqrjP6LLw&utm_campaign=yelp_api_v3&utm_medium=api_v3_business_search&utm_source=Klanz-jboxl2XzqrjP6LLw", "review_count": 244, "categories": [{"alias": "pubs", "title": "Pubs"}], "rating": 4.5, "coordinates": {"latitude": 37.75869, "longitude": -122.41562}, "transactions": [], "price": "$", "location": {"address1": "3349 20th St", "address2": "", "address3": "", "city": "San Francisco", "zip_code": "94110", "country": "US", "state": "CA", "display_address": ["3349 20th St", "San Francisco, CA 94110"]}, "phone": "+14155067305", "display_phone": "(415) 506-7305", "distance": 1843.9455072099245}, {"id": "SO7w-fN6uIBUEzkakrcxoQ", "alias": "ushi-taro-ramen-san-francisco-3", "name": "Ushi Taro Ramen", "image_url": "https://s3-media1.fl.yelpcdn.com/bphoto/WvJPkuX4ipW7QdmOzHMbzA/o.jpg", "is_closed": false, "url": "https://www.yelp.com/biz/ushi-taro-ramen-san-francisco-3?adjust_creative=Klanz-jboxl2XzqrjP6LLw&utm_campaign=yelp_api_v3&utm_medium=api_v3_business_search&utm_source=Klanz-jboxl2XzqrjP6LLw", "review_count": 320, "categories": [{"alias": "ramen", "title": "Ramen"}], "rating": 4.5, "coordinates": {"latitude": 37.7625462134757, "longitude": -122.466102987528}, "transactions": ["delivery", "pickup"], "price": "$$", "location": {"address1": "1382 9th Ave", "address2": "", "address3": null, "city": "San Francisco", "zip_code": "94122", "country": "US", "state": "CA", "display_address": ["1382 9th Ave", "San Francisco, CA 94122"]}, "phone": "+14157026014", "display_phone": "(415) 702-6014", "distance": 2613.3690556023816}, {"id": "EgP6WP4B9dwAFboxC_VFBQ", "alias": "glen-park-station-san-francisco", "name": "Glen Park Station", "image_url": "https://s3-media1.fl.yelpcdn.com/bphoto/6cOxVvWX6L2jbJ6m8nFdfw/o.jpg", "is_closed": false, "url": "https://www.yelp.com/biz/glen-park-station-san-francisco?adjust_creative=Klanz-jboxl2XzqrjP6LLw&utm_campaign=yelp_api_v3&utm_medium=api_v3_business_search&utm_source=Klanz-jboxl2XzqrjP6LLw", "review_count": 130, "categories": [{"alias": "divebars", "title": "Dive Bars"}, {"alias": "sportsbars", "title": "Sports Bars"}, {"alias": "lounges", "title": "Lounges"}], "rating": 4.0, "coordinates": {"latitude": 37.7341804504395, "longitude": -122.434211730957}, "transactions": [], "price": "$", "location": {"address1": "2816 Diamond St", "address2": "", "address3": "", "city": "San Francisco", "zip_code": "94131", "country": "US", "state": "CA", "display_address": ["2816 Diamond St", "San Francisco, CA 94131"]}, "phone": "+14153334633", "display_phone": "(415) 333-4633", "distance": 2977.357492007689}, {"id": "Yw4GGa8B8DRNCJOADxk41Q", "alias": "harveys-san-francisco", "name": "Harvey's", "image_url": "https://s3-media4.fl.yelpcdn.com/bphoto/OEeIDSjzoHbAbywnDqJ-7Q/o.jpg", "is_closed": false, "url": "https://www.yelp.com/biz/harveys-san-francisco?adjust_creative=Klanz-jboxl2XzqrjP6LLw&utm_campaign=yelp_api_v3&utm_medium=api_v3_business_search&utm_source=Klanz-jboxl2XzqrjP6LLw", "review_count": 833, "categories": [{"alias": "tradamerican", "title": "American (Traditional)"}, {"alias": "sportsbars", "title": "Sports Bars"}, {"alias": "breakfast_brunch", "title": "Breakfast & Brunch"}], "rating": 3.5, "coordinates": {"latitude": 37.7607805322717, "longitude": -122.435256826083}, "transactions": ["delivery", "pickup"], "price": "$$", "location": {"address1": "500 Castro St", "address2": "", "address3": "", "city": "San Francisco", "zip_code": "94114", "country": "US", "state": "CA", "display_address": ["500 Castro St", "San Francisco, CA 94114"]}, "phone": "+14154314278", "display_phone": "(415) 431-4278", "distance": 105.46940383069769}, {"id": "rnwZTR_YJd0vQdEMuXTS5A", "alias": "halal-dastarkhan-san-francisco-4", "name": "Halal Dastarkhan", "image_url": "https://s3-media2.fl.yelpcdn.com/bphoto/2t8LwysE0kCyt1HoZr1kZg/o.jpg", "is_closed": false, "url": "https://www.yelp.com/biz/halal-dastarkhan-san-francisco-4?adjust_creative=Klanz-jboxl2XzqrjP6LLw&utm_campaign=yelp_api_v3&utm_medium=api_v3_business_search&utm_source=Klanz-jboxl2XzqrjP6LLw", "review_count": 174, "categories": [{"alias": "uzbek", "title": "Uzbek"}, {"alias": "kebab", "title": "Kebab"}, {"alias": "halal", "title": "Halal"}], "rating": 4.5, "coordinates": {"latitude": 37.788295, "longitude": -122.418399}, "transactions": ["delivery", "pickup"], "price": "$$", "location": {"address1": "1098 Sutter St", "address2": "", "address3": null, "city": "San Francisco", "zip_code": "94109", "country": "US", "state": "CA", "display_address": ["1098 Sutter St", "San Francisco, CA 94109"]}, "phone": "+14155253378", "display_phone": "(415) 525-3378", "distance": 3434.5168187073837}, {"id": "0tiSST3GCwTa7eqY6yTlHQ", "alias": "tastebuds-san-francisco-2", "name": "Tastebuds", "image_url": "https://s3-media1.fl.yelpcdn.com/bphoto/XVsist30xCRz-Gy-J7Rpgw/o.jpg", "is_closed": false, "url": "https://www.yelp.com/biz/tastebuds-san-francisco-2?adjust_creative=Klanz-jboxl2XzqrjP6LLw&utm_campaign=yelp_api_v3&utm_medium=api_v3_business_search&utm_source=Klanz-jboxl2XzqrjP6LLw", "review_count": 196, "categories": [{"alias": "cafes", "title": "Cafes"}, {"alias": "soulfood", "title": "Soul Food"}, {"alias": "breakfast_brunch", "title": "Breakfast & Brunch"}], "rating": 4.0, "coordinates": {"latitude": 37.77715801324, "longitude": -122.46266875416}, "transactions": ["restaurant_reservation", "pickup", "delivery"], "price": "$$", "location": {"address1": "600 5th Ave", "address2": "", "address3": null, "city": "San Francisco", "zip_code": "94118", "country": "US", "state": "CA", "display_address": ["600 5th Ave", "San Francisco, CA 94118"]}, "phone": "+14156689298", "display_phone": "(415) 668-9298", "distance": 2929.2717316065673}, {"id": "_9QC9gIGyupdLCzSUr5Mkw", "alias": "the-house-of-hummus-san-francisco", "name": "The House of Hummus", "image_url": "https://s3-media2.fl.yelpcdn.com/bphoto/-0WqP_yM_gw4fBFjzIsyhg/o.jpg", "is_closed": false, "url": "https://www.yelp.com/biz/the-house-of-hummus-san-francisco?adjust_creative=Klanz-jboxl2XzqrjP6LLw&utm_campaign=yelp_api_v3&utm_medium=api_v3_business_search&utm_source=Klanz-jboxl2XzqrjP6LLw", "review_count": 51, "categories": [{"alias": "mideastern", "title": "Middle Eastern"}, {"alias": "falafel", "title": "Falafel"}, {"alias": "arabian", "title": "Arabic"}], "rating": 5.0, "coordinates": {"latitude": 37.7821, "longitude": -122.44797}, "transactions": ["delivery", "pickup"], "location": {"address1": "5 Masonic Ave", "address2": null, "address3": "", "city": "San Francisco", "zip_code": "94118", "country": "US", "state": "CA", "display_address": ["5 Masonic Ave", "San Francisco, CA 94118"]}, "phone": "+14153747803", "display_phone": "(415) 374-7803", "distance": 2570.1658562950124}, {"id": "TpxADhX5a9MU_4x8rN4f2Q", "alias": "wing-lum-cafe-san-francisco-3", "name": "Wing Lum cafe", "image_url": "https://s3-media4.fl.yelpcdn.com/bphoto/MIX8C4CJ8S-U_tiBFA3F_Q/o.jpg", "is_closed": false, "url": "https://www.yelp.com/biz/wing-lum-cafe-san-francisco-3?adjust_creative=Klanz-jboxl2XzqrjP6LLw&utm_campaign=yelp_api_v3&utm_medium=api_v3_business_search&utm_source=Klanz-jboxl2XzqrjP6LLw", "review_count": 31, "categories": [{"alias": "dimsum", "title": "Dim Sum"}, {"alias": "szechuan", "title": "Szechuan"}], "rating": 4.5, "coordinates": {"latitude": 37.787433, "longitude": -122.41988}, "transactions": ["delivery", "pickup"], "price": "$$", "location": {"address1": "1150 Polk St", "address2": null, "address3": "", "city": "San Francisco", "zip_code": "94109", "country": "US", "state": "CA", "display_address": ["1150 Polk St", "San Francisco, CA 94109"]}, "phone": "+14157716888", "display_phone": "(415) 771-6888", "distance": 3297.1049254823706}, {"id": "VTdXwLk_1VbfHoZxrzsHZQ", "alias": "lovely-day-oakland", "name": "Lovely Day", "image_url": "https://s3-media2.fl.yelpcdn.com/bphoto/SpaGhthmbYJke-UAwbOWYw/o.jpg", "is_closed": false, "url": "https://www.yelp.com/biz/lovely-day-oakland?adjust_creative=Klanz-jboxl2XzqrjP6LLw&utm_campaign=yelp_api_v3&utm_medium=api_v3_business_search&utm_source=Klanz-jboxl2XzqrjP6LLw", "review_count": 36, "categories": [{"alias": "newamerican", "title": "American (New)"}, {"alias": "comfortfood", "title": "Comfort Food"}], "rating": 5.0, "coordinates": {"latitude": 37.834867, "longitude": -122.267732}, "transactions": [], "location": {"address1": "4629 Martin Luther King Jr Way", "address2": null, "address3": "", "city": "Oakland", "zip_code": "94609", "country": "US", "state": "CA", "display_address": ["4629 Martin Luther King Jr Way", "Oakland, CA 94609"]}, "phone": "+15105231600", "display_phone": "(510) 523-1600", "distance": 16953.515816974028}, {"id": "afBjDUDJ29UEz96uZD27mA", "alias": "mccormick-and-kuletos-seafood-and-steaks-san-francisco-2", "name": "McCormick & Kuleto's Seafood & Steaks", "image_url": "https://s3-media4.fl.yelpcdn.com/bphoto/-dX3hnQjbFOw_xKtRuj0uA/o.jpg", "is_closed": false, "url": "https://www.yelp.com/biz/mccormick-and-kuletos-seafood-and-steaks-san-francisco-2?adjust_creative=Klanz-jboxl2XzqrjP6LLw&utm_campaign=yelp_api_v3&utm_medium=api_v3_business_search&utm_source=Klanz-jboxl2XzqrjP6LLw", "review_count": 1334, "categories": [{"alias": "seafood", "title": "Seafood"}, {"alias": "steak", "title": "Steakhouses"}], "rating": 3.0, "coordinates": {"latitude": 37.805851, "longitude": -122.422757}, "transactions": ["delivery", "pickup"], "price": "$$$", "location": {"address1": "900 N Point St", "address2": "", "address3": "", "city": "San Francisco", "zip_code": "94109", "country": "US", "state": "CA", "display_address": ["900 N Point St", "San Francisco, CA 94109"]}, "phone": "+14159291730", "display_phone": "(415) 929-1730", "distance": 5141.1391554333295}, {"id": "YZXz9PcG3SzkeCZL7M7DJA", "alias": "the-trident-sausalito", "name": "The Trident", "image_url": "https://s3-media4.fl.yelpcdn.com/bphoto/kjUBJvvPIE5kDvuV49CmmA/o.jpg", "is_closed": false, "url": "https://www.yelp.com/biz/the-trident-sausalito?adjust_creative=Klanz-jboxl2XzqrjP6LLw&utm_campaign=yelp_api_v3&utm_medium=api_v3_business_search&utm_source=Klanz-jboxl2XzqrjP6LLw", "review_count": 1033, "categories": [{"alias": "seafood", "title": "Seafood"}, {"alias": "tradamerican", "title": "American (Traditional)"}], "rating": 3.0, "coordinates": {"latitude": 37.85358676, "longitude": -122.47858335}, "transactions": ["delivery", "pickup"], "price": "$$", "location": {"address1": "558 Bridgeway", "address2": "", "address3": "", "city": "Sausalito", "zip_code": "94965", "country": "US", "state": "CA", "display_address": ["558 Bridgeway", "Sausalito, CA 94965"]}, "phone": "+14153313232", "display_phone": "(415) 331-3232", "distance": 10950.983332801132}, {"id": "bwQ-PAym-XDMax9nloPHfA", "alias": "luna-blu-tiburon", "name": "Luna Blu", "image_url": "https://s3-media2.fl.yelpcdn.com/bphoto/ZzykgI8-TyrG0-_FaHXCzw/o.jpg", "is_closed": false, "url": "https://www.yelp.com/biz/luna-blu-tiburon?adjust_creative=Klanz-jboxl2XzqrjP6LLw&utm_campaign=yelp_api_v3&utm_medium=api_v3_business_search&utm_source=Klanz-jboxl2XzqrjP6LLw", "review_count": 722, "categories": [{"alias": "italian", "title": "Italian"}, {"alias": "seafood", "title": "Seafood"}, {"alias": "bars", "title": "Bars"}], "rating": 4.5, "coordinates": {"latitude": 37.873041, "longitude": -122.45676125706044}, "transactions": ["pickup", "delivery"], "price": "$$$", "location": {"address1": "35 Main St", "address2": "", "address3": "", "city": "Tiburon", "zip_code": "94920", "country": "US", "state": "CA", "display_address": ["35 Main St", "Tiburon, CA 94920"]}, "phone": "+14157895844", "display_phone": "(415) 789-5844", "distance": 12596.592909707411}, {"id": "h5ohkmv-UQiJTKFzxSS6RQ", "alias": "noosh-san-francisco", "name": "Noosh", "image_url": "https://s3-media2.fl.yelpcdn.com/bphoto/8QpGyRhP3WpdAUCQltSRMQ/o.jpg", "is_closed": false, "url": "https://www.yelp.com/biz/noosh-san-francisco?adjust_creative=Klanz-jboxl2XzqrjP6LLw&utm_campaign=yelp_api_v3&utm_medium=api_v3_business_search&utm_source=Klanz-jboxl2XzqrjP6LLw", "review_count": 478, "categories": [{"alias": "mediterranean", "title": "Mediterranean"}, {"alias": "sandwiches", "title": "Sandwiches"}, {"alias": "cocktailbars", "title": "Cocktail Bars"}], "rating": 3.5, "coordinates": {"latitude": 37.7880771447147, "longitude": -122.43393894285}, "transactions": ["delivery", "pickup"], "price": "$$", "location": {"address1": "2001 Fillmore St", "address2": "", "address3": null, "city": "San Francisco", "zip_code": "94115", "country": "US", "state": "CA", "display_address": ["2001 Fillmore St", "San Francisco, CA 94115"]}, "phone": "+14152315985", "display_phone": "(415) 231-5985", "distance": 3030.055075171354}, {"id": "UGKNNQ6bjL-ZttHSdZISfA", "alias": "blackwood-san-francisco-3", "name": "Blackwood", "image_url": "https://s3-media3.fl.yelpcdn.com/bphoto/4J7kmKdrkZjb48WRxzx4TQ/o.jpg", "is_closed": false, "url": "https://www.yelp.com/biz/blackwood-san-francisco-3?adjust_creative=Klanz-jboxl2XzqrjP6LLw&utm_campaign=yelp_api_v3&utm_medium=api_v3_business_search&utm_source=Klanz-jboxl2XzqrjP6LLw", "review_count": 1897, "categories": [{"alias": "thai", "title": "Thai"}, {"alias": "breakfast_brunch", "title": "Breakfast & Brunch"}, {"alias": "asianfusion", "title": "Asian Fusion"}], "rating": 4.0, "coordinates": {"latitude": 37.800591, "longitude": -122.438832}, "transactions": ["restaurant_reservation", "delivery", "pickup"], "price": "$$", "location": {"address1": "2150 Chestnut St", "address2": "", "address3": "", "city": "San Francisco", "zip_code": "94123", "country": "US", "state": "CA", "display_address": ["2150 Chestnut St", "San Francisco, CA 94123"]}, "phone": "+14159319663", "display_phone": "(415) 931-9663", "distance": 4418.474572931308}, {"id": "p7Ay8URFKZ3JrTwUr-OLIg", "alias": "voodoo-love-restaurant-san-francisco-3", "name": "Voodoo Love Restaurant", "image_url": "https://s3-media4.fl.yelpcdn.com/bphoto/qSlAcwaFUJTvS7UX1D5tDA/o.jpg", "is_closed": false, "url": "https://www.yelp.com/biz/voodoo-love-restaurant-san-francisco-3?adjust_creative=Klanz-jboxl2XzqrjP6LLw&utm_campaign=yelp_api_v3&utm_medium=api_v3_business_search&utm_source=Klanz-jboxl2XzqrjP6LLw", "review_count": 310, "categories": [{"alias": "cajun", "title": "Cajun/Creole"}], "rating": 4.0, "coordinates": {"latitude": 37.769722, "longitude": -122.420391}, "transactions": ["restaurant_reservation", "pickup", "delivery"], "price": "$$", "location": {"address1": "1710 Mission St", "address2": null, "address3": "", "city": "San Francisco", "zip_code": "94103", "country": "US", "state": "CA", "display_address": ["1710 Mission St", "San Francisco, CA 94103"]}, "phone": "+14156250614", "display_phone": "(415) 625-0614", "distance": 1720.7542689722652}, {"id": "F7UZBVdp69mTI_1M7stq2Q", "alias": "marcellas-lasagneria-san-francisco-3", "name": "Marcella's Lasagneria", "image_url": "https://s3-media1.fl.yelpcdn.com/bphoto/ByMa9WGlvl82qA7Rw_dLwg/o.jpg", "is_closed": false, "url": "https://www.yelp.com/biz/marcellas-lasagneria-san-francisco-3?adjust_creative=Klanz-jboxl2XzqrjP6LLw&utm_campaign=yelp_api_v3&utm_medium=api_v3_business_search&utm_source=Klanz-jboxl2XzqrjP6LLw", "review_count": 428, "categories": [{"alias": "italian", "title": "Italian"}], "rating": 4.5, "coordinates": {"latitude": 37.7580376, "longitude": -122.3890908}, "transactions": ["pickup", "delivery"], "price": "$$", "location": {"address1": "1099 Tennessee St", "address2": null, "address3": "", "city": "San Francisco", "zip_code": "94107", "country": "US", "state": "CA", "display_address": ["1099 Tennessee St", "San Francisco, CA 94107"]}, "phone": "+14159202225", "display_phone": "(415) 920-2225", "distance": 4170.930385443054}, {"id": "xm9FVka5VDQbN5N3Phc14A", "alias": "jaxson-san-francisco", "name": "Jaxson", "image_url": "https://s3-media2.fl.yelpcdn.com/bphoto/lyS3-SVvsktLLIywLl83rA/o.jpg", "is_closed": false, "url": "https://www.yelp.com/biz/jaxson-san-francisco?adjust_creative=Klanz-jboxl2XzqrjP6LLw&utm_campaign=yelp_api_v3&utm_medium=api_v3_business_search&utm_source=Klanz-jboxl2XzqrjP6LLw", "review_count": 154, "categories": [{"alias": "divebars", "title": "Dive Bars"}, {"alias": "venues", "title": "Venues & Event Spaces"}, {"alias": "countrydancehalls", "title": "Country Dance Halls"}], "rating": 3.0, "coordinates": {"latitude": 37.7994614, "longitude": -122.4362488}, "transactions": [], "price": "$$", "location": {"address1": "3231 Fillmore St", "address2": "", "address3": "", "city": "San Francisco", "zip_code": "94123", "country": "US", "state": "CA", "display_address": ["3231 Fillmore St", "San Francisco, CA 94123"]}, "phone": "+14153356282", "display_phone": "(415) 335-6282", "distance": 4290.421138095794}, {"id": "IGXlabFSIPGG85twYOSGzw", "alias": "the-cypress-grill-san-francisco", "name": "The Cypress Grill", "image_url": "https://s3-media3.fl.yelpcdn.com/bphoto/YP7vht6msU-mkO1mAEQXBA/o.jpg", "is_closed": false, "url": "https://www.yelp.com/biz/the-cypress-grill-san-francisco?adjust_creative=Klanz-jboxl2XzqrjP6LLw&utm_campaign=yelp_api_v3&utm_medium=api_v3_business_search&utm_source=Klanz-jboxl2XzqrjP6LLw", "review_count": 118, "categories": [{"alias": "tradamerican", "title": "American (Traditional)"}, {"alias": "sandwiches", "title": "Sandwiches"}], "rating": 4.0, "coordinates": {"latitude": 37.724708, "longitude": -122.4937578}, "transactions": [], "price": "$$", "location": {"address1": "99 Harding Rd", "address2": "", "address3": "", "city": "San Francisco", "zip_code": "94132", "country": "US", "state": "CA", "display_address": ["99 Harding Rd", "San Francisco, CA 94132"]}, "phone": "+14156644690", "display_phone": "(415) 664-4690", "distance": 6448.972159800181}, {"id": "WWekv34vniav2trhbb2DaA", "alias": "mathilde-french-bistro-san-francisco", "name": "Mathilde French Bistro", "image_url": "https://s3-media1.fl.yelpcdn.com/bphoto/Jxmg6xZlKT2MhAl33CjbuA/o.jpg", "is_closed": false, "url": "https://www.yelp.com/biz/mathilde-french-bistro-san-francisco?adjust_creative=Klanz-jboxl2XzqrjP6LLw&utm_campaign=yelp_api_v3&utm_medium=api_v3_business_search&utm_source=Klanz-jboxl2XzqrjP6LLw", "review_count": 295, "categories": [{"alias": "french", "title": "French"}, {"alias": "desserts", "title": "Desserts"}, {"alias": "salad", "title": "Salad"}], "rating": 4.5, "coordinates": {"latitude": 37.7800134026795, "longitude": -122.402965373019}, "transactions": ["pickup"], "price": "$$$", "location": {"address1": "315 5th St", "address2": "", "address3": "", "city": "San Francisco", "zip_code": "94107", "country": "US", "state": "CA", "display_address": ["315 5th St", "San Francisco, CA 94107"]}, "phone": "+14155466128", "display_phone": "(415) 546-6128", "distance": 3630.1553237904436}, {"id": "wl9l3GJgisM2tDkrngYV1Q", "alias": "cafe-8-san-francisco-5", "name": "Cafe 8", "image_url": "https://s3-media1.fl.yelpcdn.com/bphoto/1BLlkBPBVegWZLVTylhvDw/o.jpg", "is_closed": false, "url": "https://www.yelp.com/biz/cafe-8-san-francisco-5?adjust_creative=Klanz-jboxl2XzqrjP6LLw&utm_campaign=yelp_api_v3&utm_medium=api_v3_business_search&utm_source=Klanz-jboxl2XzqrjP6LLw", "review_count": 308, "categories": [{"alias": "italian", "title": "Italian"}, {"alias": "seafood", "title": "Seafood"}, {"alias": "pizza", "title": "Pizza"}], "rating": 2.5, "coordinates": {"latitude": 37.80866, "longitude": -122.416152}, "transactions": ["delivery"], "price": "$$", "location": {"address1": "2829 Taylor St", "address2": null, "address3": null, "city": "San Francisco", "zip_code": "94133", "country": "US", "state": "CA", "display_address": ["2829 Taylor St", "San Francisco, CA 94133"]}, "phone": "+14153591200", "display_phone": "(415) 359-1200", "distance": 5602.215604255528}, {"id": "XmCwZqAxTl-vL0rG7XJ98A", "alias": "townhouse-emeryville-2", "name": "Townhouse", "image_url": "https://s3-media2.fl.yelpcdn.com/bphoto/dR8vYyWGeOETPjZ-Y8Zrsw/o.jpg", "is_closed": false, "url": "https://www.yelp.com/biz/townhouse-emeryville-2?adjust_creative=Klanz-jboxl2XzqrjP6LLw&utm_campaign=yelp_api_v3&utm_medium=api_v3_business_search&utm_source=Klanz-jboxl2XzqrjP6LLw", "review_count": 1270, "categories": [{"alias": "newamerican", "title": "American (New)"}], "rating": 4.0, "coordinates": {"latitude": 37.84086, "longitude": -122.28746}, "transactions": ["restaurant_reservation", "delivery"], "price": "$$", "location": {"address1": "5862 Doyle St", "address2": "", "address3": "", "city": "Emeryville", "zip_code": "94608", "country": "US", "state": "CA", "display_address": ["5862 Doyle St", "Emeryville, CA 94608"]}, "phone": "+15106526151", "display_phone": "(510) 652-6151", "distance": 15822.792133417457}, {"id": "LpzREKhZ2dGKiIUnxX03Gg", "alias": "fiery-hot-pot-buffet-san-francisco-2", "name": "Fiery Hot Pot Buffet", "image_url": "https://s3-media3.fl.yelpcdn.com/bphoto/2SV1jza6b9C0E-P0GiYoCQ/o.jpg", "is_closed": false, "url": "https://www.yelp.com/biz/fiery-hot-pot-buffet-san-francisco-2?adjust_creative=Klanz-jboxl2XzqrjP6LLw&utm_campaign=yelp_api_v3&utm_medium=api_v3_business_search&utm_source=Klanz-jboxl2XzqrjP6LLw", "review_count": 368, "categories": [{"alias": "hotpot", "title": "Hot Pot"}, {"alias": "chinese", "title": "Chinese"}], "rating": 4.5, "coordinates": {"latitude": 37.7429507985095, "longitude": -122.483775056899}, "transactions": [], "price": "$$$", "location": {"address1": "1626 Taraval St", "address2": null, "address3": null, "city": "San Francisco", "zip_code": "94116", "country": "US", "state": "CA", "display_address": ["1626 Taraval St", "San Francisco, CA 94116"]}, "phone": "+14156824578", "display_phone": "(415) 682-4578", "distance": 4614.8679529839965}, {"id": "1FZM1wOnjMYg0KPSD9qTjg", "alias": "poesia-san-francisco", "name": "Poesia", "image_url": "https://s3-media1.fl.yelpcdn.com/bphoto/CliZoDvIHSCL_Cj0h3HYrg/o.jpg", "is_closed": false, "url": "https://www.yelp.com/biz/poesia-san-francisco?adjust_creative=Klanz-jboxl2XzqrjP6LLw&utm_campaign=yelp_api_v3&utm_medium=api_v3_business_search&utm_source=Klanz-jboxl2XzqrjP6LLw", "review_count": 832, "categories": [{"alias": "italian", "title": "Italian"}, {"alias": "bars", "title": "Bars"}], "rating": 4.0, "coordinates": {"latitude": 37.76115, "longitude": -122.43431}, "transactions": ["pickup"], "price": "$$$", "location": {"address1": "4072 18th St", "address2": "", "address3": "", "city": "San Francisco", "zip_code": "94114", "country": "US", "state": "CA", "display_address": ["4072 18th St", "San Francisco, CA 94114"]}, "phone": "+14152529325", "display_phone": "(415) 252-9325", "distance": 185.1346063375654}, {"id": "G3yD1-3fXYOnzmI-rOd7NA", "alias": "the-flying-pig-san-francisco-2", "name": "The Flying Pig", "image_url": "https://s3-media1.fl.yelpcdn.com/bphoto/Oc6uncpKMigjGFmAh-_MeQ/o.jpg", "is_closed": false, "url": "https://www.yelp.com/biz/the-flying-pig-san-francisco-2?adjust_creative=Klanz-jboxl2XzqrjP6LLw&utm_campaign=yelp_api_v3&utm_medium=api_v3_business_search&utm_source=Klanz-jboxl2XzqrjP6LLw", "review_count": 261, "categories": [{"alias": "sandwiches", "title": "Sandwiches"}, {"alias": "sportsbars", "title": "Sports Bars"}, {"alias": "poolhalls", "title": "Pool Halls"}], "rating": 4.0, "coordinates": {"latitude": 37.7662870758406, "longitude": -122.41747390806188}, "transactions": ["delivery", "pickup"], "price": "$", "location": {"address1": "433 South Van Ness Ave", "address2": "", "address3": "", "city": "San Francisco", "zip_code": "94103", "country": "US", "state": "CA", "display_address": ["433 South Van Ness Ave", "San Francisco, CA 94103"]}, "phone": "+14159341234", "display_phone": "(415) 934-1234", "distance": 1772.1628257694488}, {"id": "JARsJVKLPgs_yC3cwDnp7g", "alias": "la-taqueria-san-francisco-2", "name": "La Taqueria", "image_url": "https://s3-media1.fl.yelpcdn.com/bphoto/7LqVKYVg2GdEFKI2CFL4cA/o.jpg", "is_closed": false, "url": "https://www.yelp.com/biz/la-taqueria-san-francisco-2?adjust_creative=Klanz-jboxl2XzqrjP6LLw&utm_campaign=yelp_api_v3&utm_medium=api_v3_business_search&utm_source=Klanz-jboxl2XzqrjP6LLw", "review_count": 4292, "categories": [{"alias": "mexican", "title": "Mexican"}], "rating": 4.0, "coordinates": {"latitude": 37.75088, "longitude": -122.41805}, "transactions": ["delivery"], "price": "$$", "location": {"address1": "2889 Mission St", "address2": "", "address3": "", "city": "San Francisco", "zip_code": "94110", "country": "US", "state": "CA", "display_address": ["2889 Mission St", "San Francisco, CA 94110"]}, "phone": "+14152857117", "display_phone": "(415) 285-7117", "distance": 1958.2373900144175}, {"id": "dt0nffJ_d5jInX2x_jQmOQ", "alias": "king-of-noodles-san-francisco-3", "name": "King of Noodles", "image_url": "https://s3-media2.fl.yelpcdn.com/bphoto/zvHayWpHvZWRxc3dAubi4w/o.jpg", "is_closed": false, "url": "https://www.yelp.com/biz/king-of-noodles-san-francisco-3?adjust_creative=Klanz-jboxl2XzqrjP6LLw&utm_campaign=yelp_api_v3&utm_medium=api_v3_business_search&utm_source=Klanz-jboxl2XzqrjP6LLw", "review_count": 780, "categories": [{"alias": "chinese", "title": "Chinese"}, {"alias": "noodles", "title": "Noodles"}, {"alias": "soup", "title": "Soup"}], "rating": 4.0, "coordinates": {"latitude": 37.76338, "longitude": -122.47567}, "transactions": ["pickup", "delivery"], "price": "$", "location": {"address1": "1639 Irving St", "address2": "", "address3": "", "city": "San Francisco", "zip_code": "94122", "country": "US", "state": "CA", "display_address": ["1639 Irving St", "San Francisco, CA 94122"]}, "phone": "+14155668318", "display_phone": "(415) 566-8318", "distance": 3465.7856377306275}, {"id": "yxfq9eICLD5M4Sw5Fddc0A", "alias": "yummas-mediterranean-grill-san-francisco", "name": "Yumma's Mediterranean Grill", "image_url": "https://s3-media2.fl.yelpcdn.com/bphoto/WsuUhfDIp-R3kJehVeoJgg/o.jpg", "is_closed": false, "url": "https://www.yelp.com/biz/yummas-mediterranean-grill-san-francisco?adjust_creative=Klanz-jboxl2XzqrjP6LLw&utm_campaign=yelp_api_v3&utm_medium=api_v3_business_search&utm_source=Klanz-jboxl2XzqrjP6LLw", "review_count": 668, "categories": [{"alias": "greek", "title": "Greek"}, {"alias": "mideastern", "title": "Middle Eastern"}, {"alias": "falafel", "title": "Falafel"}], "rating": 3.5, "coordinates": {"latitude": 37.76386, "longitude": -122.46553}, "transactions": ["pickup"], "price": "$", "location": {"address1": "721 Irving St", "address2": null, "address3": "", "city": "San Francisco", "zip_code": "94122", "country": "US", "state": "CA", "display_address": ["721 Irving St", "San Francisco, CA 94122"]}, "phone": "+14156820762", "display_phone": "(415) 682-0762", "distance": 2582.2506992074937}, {"id": "2Mf1yO8mWcUMdnwDpSzWww", "alias": "macd-san-francisco-3", "name": "MAC'D", "image_url": "https://s3-media3.fl.yelpcdn.com/bphoto/RchkQVmTBos-piBYx443oA/o.jpg", "is_closed": false, "url": "https://www.yelp.com/biz/macd-san-francisco-3?adjust_creative=Klanz-jboxl2XzqrjP6LLw&utm_campaign=yelp_api_v3&utm_medium=api_v3_business_search&utm_source=Klanz-jboxl2XzqrjP6LLw", "review_count": 343, "categories": [{"alias": "comfortfood", "title": "Comfort Food"}], "rating": 4.0, "coordinates": {"latitude": 37.7962, "longitude": -122.42211}, "transactions": ["pickup", "delivery"], "price": "$$", "location": {"address1": "2127 Polk St", "address2": null, "address3": "", "city": "San Francisco", "zip_code": "94109", "country": "US", "state": "CA", "display_address": ["2127 Polk St", "San Francisco, CA 94109"]}, "phone": "+16288676545", "display_phone": "(628) 867-6545", "distance": 4136.842514673858}, {"id": "HScfgTMTQtp7yooVSy_-VQ", "alias": "club-deluxe-san-francisco", "name": "Club Deluxe", "image_url": "https://s3-media1.fl.yelpcdn.com/bphoto/YL4JRXL0BJWEMdxrcHVrKA/o.jpg", "is_closed": false, "url": "https://www.yelp.com/biz/club-deluxe-san-francisco?adjust_creative=Klanz-jboxl2XzqrjP6LLw&utm_campaign=yelp_api_v3&utm_medium=api_v3_business_search&utm_source=Klanz-jboxl2XzqrjP6LLw", "review_count": 543, "categories": [{"alias": "jazzandblues", "title": "Jazz & Blues"}], "rating": 4.0, "coordinates": {"latitude": 37.7698165, "longitude": -122.4472234}, "transactions": [], "price": "$$", "location": {"address1": "1511 Haight St", "address2": "", "address3": "", "city": "San Francisco", "zip_code": "94117", "country": "US", "state": "CA", "display_address": ["1511 Haight St", "San Francisco, CA 94117"]}, "phone": "", "display_phone": "", "distance": 1362.3475556987387}, {"id": "GAm5jocnW-NAe-vR_JAWew", "alias": "choux-san-francisco", "name": "Choux", "image_url": "https://s3-media1.fl.yelpcdn.com/bphoto/XArnqATg4J-UGkiGVPk76Q/o.jpg", "is_closed": false, "url": "https://www.yelp.com/biz/choux-san-francisco?adjust_creative=Klanz-jboxl2XzqrjP6LLw&utm_campaign=yelp_api_v3&utm_medium=api_v3_business_search&utm_source=Klanz-jboxl2XzqrjP6LLw", "review_count": 301, "categories": [{"alias": "bakeries", "title": "Bakeries"}, {"alias": "desserts", "title": "Desserts"}, {"alias": "french", "title": "French"}], "rating": 4.0, "coordinates": {"latitude": 37.7718525471645, "longitude": -122.4302821462}, "transactions": ["pickup", "delivery"], "price": "$$", "location": {"address1": "248 Fillmore St", "address2": "", "address3": "", "city": "San Francisco", "zip_code": "94117", "country": "US", "state": "CA", "display_address": ["248 Fillmore St", "San Francisco, CA 94117"]}, "phone": "+14157570722", "display_phone": "(415) 757-0722", "distance": 1333.0529797455652}, {"id": "VjXSJdgy7wnlbMqwRWEgqQ", "alias": "golden-crab-house-san-francisco", "name": "Golden Crab House", "image_url": "https://s3-media2.fl.yelpcdn.com/bphoto/bltDgNEtNuADn54hDXV1uA/o.jpg", "is_closed": false, "url": "https://www.yelp.com/biz/golden-crab-house-san-francisco?adjust_creative=Klanz-jboxl2XzqrjP6LLw&utm_campaign=yelp_api_v3&utm_medium=api_v3_business_search&utm_source=Klanz-jboxl2XzqrjP6LLw", "review_count": 292, "categories": [{"alias": "seafood", "title": "Seafood"}, {"alias": "vietnamese", "title": "Vietnamese"}, {"alias": "asianfusion", "title": "Asian Fusion"}], "rating": 4.5, "coordinates": {"latitude": 37.76368, "longitude": -122.47777}, "transactions": ["delivery", "pickup"], "price": "$$$", "location": {"address1": "1830 Irving St", "address2": "", "address3": null, "city": "San Francisco", "zip_code": "94122", "country": "US", "state": "CA", "display_address": ["1830 Irving St", "San Francisco, CA 94122"]}, "phone": "+14157026685", "display_phone": "(415) 702-6685", "distance": 3648.3712766969606}, {"id": "RsxMKMZSCgt8qeCXhvnVhQ", "alias": "chief-sullivans-san-francisco", "name": "Chief Sullivan's", "image_url": "https://s3-media4.fl.yelpcdn.com/bphoto/y_Ns9e6RlBHcQSWg5nkhMg/o.jpg", "is_closed": false, "url": "https://www.yelp.com/biz/chief-sullivans-san-francisco?adjust_creative=Klanz-jboxl2XzqrjP6LLw&utm_campaign=yelp_api_v3&utm_medium=api_v3_business_search&utm_source=Klanz-jboxl2XzqrjP6LLw", "review_count": 113, "categories": [{"alias": "sportsbars", "title": "Sports Bars"}, {"alias": "breakfast_brunch", "title": "Breakfast & Brunch"}, {"alias": "cocktailbars", "title": "Cocktail Bars"}], "rating": 4.0, "coordinates": {"latitude": 37.7995457022787, "longitude": -122.40971993654966}, "transactions": ["delivery"], "price": "$$", "location": {"address1": "622 Green St", "address2": "", "address3": null, "city": "San Francisco", "zip_code": "94133", "country": "US", "state": "CA", "display_address": ["622 Green St", "San Francisco, CA 94133"]}, "phone": "+14159409223", "display_phone": "(415) 940-9223", "distance": 4897.336555808702}, {"id": "CS6NaMbTlzD-9yc3DBBrKw", "alias": "el-burrito-express-san-francisco-3", "name": "El Burrito Express", "image_url": "https://s3-media1.fl.yelpcdn.com/bphoto/0_eqW5-p2p9kadZsLV5Evg/o.jpg", "is_closed": false, "url": "https://www.yelp.com/biz/el-burrito-express-san-francisco-3?adjust_creative=Klanz-jboxl2XzqrjP6LLw&utm_campaign=yelp_api_v3&utm_medium=api_v3_business_search&utm_source=Klanz-jboxl2XzqrjP6LLw", "review_count": 789, "categories": [{"alias": "mexican", "title": "Mexican"}, {"alias": "seafood", "title": "Seafood"}, {"alias": "breakfast_brunch", "title": "Breakfast & Brunch"}], "rating": 4.0, "coordinates": {"latitude": 37.78646, "longitude": -122.43982}, "transactions": ["pickup"], "price": "$", "location": {"address1": "1812 Divisadero St", "address2": "", "address3": "", "city": "San Francisco", "zip_code": "94115", "country": "US", "state": "CA", "display_address": ["1812 Divisadero St", "San Francisco, CA 94115"]}, "phone": "+14157764246", "display_phone": "(415) 776-4246", "distance": 2859.521150956491}, {"id": "4Y4BXcmERpH_SnMEWQ4RTw", "alias": "bac-lieu-restaurant-san-francisco", "name": "Bac Lieu Restaurant", "image_url": "https://s3-media2.fl.yelpcdn.com/bphoto/fMAY-waUPruz5d31hPz0Yw/o.jpg", "is_closed": false, "url": "https://www.yelp.com/biz/bac-lieu-restaurant-san-francisco?adjust_creative=Klanz-jboxl2XzqrjP6LLw&utm_campaign=yelp_api_v3&utm_medium=api_v3_business_search&utm_source=Klanz-jboxl2XzqrjP6LLw", "review_count": 274, "categories": [{"alias": "vietnamese", "title": "Vietnamese"}, {"alias": "noodles", "title": "Noodles"}, {"alias": "soup", "title": "Soup"}], "rating": 4.5, "coordinates": {"latitude": 37.745267, "longitude": -122.420402}, "transactions": ["delivery"], "price": "$$", "location": {"address1": "3216 Mission St", "address2": "", "address3": null, "city": "San Francisco", "zip_code": "94110", "country": "US", "state": "CA", "display_address": ["3216 Mission St", "San Francisco, CA 94110"]}, "phone": "+14152829088", "display_phone": "(415) 282-9088", "distance": 2238.8084701726593}, {"id": "imHjAJ9uuUK_PNkzT9kCag", "alias": "basa-seafood-express-san-francisco", "name": "Basa Seafood Express", "image_url": "https://s3-media4.fl.yelpcdn.com/bphoto/SV_BUHgxzaIlWE9aOeS1Cg/o.jpg", "is_closed": false, "url": "https://www.yelp.com/biz/basa-seafood-express-san-francisco?adjust_creative=Klanz-jboxl2XzqrjP6LLw&utm_campaign=yelp_api_v3&utm_medium=api_v3_business_search&utm_source=Klanz-jboxl2XzqrjP6LLw", "review_count": 830, "categories": [{"alias": "seafood", "title": "Seafood"}, {"alias": "sandwiches", "title": "Sandwiches"}, {"alias": "burgers", "title": "Burgers"}], "rating": 4.5, "coordinates": {"latitude": 37.75276, "longitude": -122.41338}, "transactions": ["delivery", "pickup"], "price": "$", "location": {"address1": "3064 24th St", "address2": "", "address3": "", "city": "San Francisco", "zip_code": "94110", "country": "US", "state": "CA", "display_address": ["3064 24th St", "San Francisco, CA 94110"]}, "phone": "+14155502388", "display_phone": "(415) 550-2388", "distance": 2222.594636885032}, {"id": "dU04BKGhaB19ipLoKM7tRw", "alias": "shokudou-san-francisco-5", "name": "Shokudou", "image_url": "https://s3-media1.fl.yelpcdn.com/bphoto/xe7iOX14-CRXfgmMjgTtJw/o.jpg", "is_closed": false, "url": "https://www.yelp.com/biz/shokudou-san-francisco-5?adjust_creative=Klanz-jboxl2XzqrjP6LLw&utm_campaign=yelp_api_v3&utm_medium=api_v3_business_search&utm_source=Klanz-jboxl2XzqrjP6LLw", "review_count": 54, "categories": [{"alias": "izakaya", "title": "Izakaya"}], "rating": 4.5, "coordinates": {"latitude": 37.73893929400767, "longitude": -122.413161}, "transactions": ["delivery", "pickup"], "location": {"address1": "1000 Cortland Ave", "address2": null, "address3": "", "city": "San Francisco", "zip_code": "94110", "country": "US", "state": "CA", "display_address": ["1000 Cortland Ave", "San Francisco, CA 94110"]}, "phone": "+14158006883", "display_phone": "(415) 800-6883", "distance": 3186.5651800625633}, {"id": "BiZAzf2SAFCE0gJrX-PGFw", "alias": "gather-berkeley", "name": "Gather", "image_url": "https://s3-media4.fl.yelpcdn.com/bphoto/rb22DgOl5oKasPQwqRS6TQ/o.jpg", "is_closed": false, "url": "https://www.yelp.com/biz/gather-berkeley?adjust_creative=Klanz-jboxl2XzqrjP6LLw&utm_campaign=yelp_api_v3&utm_medium=api_v3_business_search&utm_source=Klanz-jboxl2XzqrjP6LLw", "review_count": 2300, "categories": [{"alias": "newamerican", "title": "American (New)"}, {"alias": "bars", "title": "Bars"}, {"alias": "pizza", "title": "Pizza"}], "rating": 4.0, "coordinates": {"latitude": 37.8694781027984, "longitude": -122.266114248013}, "transactions": ["restaurant_reservation", "delivery", "pickup"], "price": "$$", "location": {"address1": "2200 Oxford St", "address2": "", "address3": "", "city": "Berkeley", "zip_code": "94704", "country": "US", "state": "CA", "display_address": ["2200 Oxford St", "Berkeley, CA 94704"]}, "phone": "+15108090400", "display_phone": "(510) 809-0400", "distance": 19226.147687520814}, {"id": "S0OVpWde3SlzzrygVQXdoQ", "alias": "hall-of-flame-burgers-san-francisco", "name": "Hall Of Flame Burgers", "image_url": "https://s3-media3.fl.yelpcdn.com/bphoto/zETJ45yn7fhkAxv0wFp9JQ/o.jpg", "is_closed": false, "url": "https://www.yelp.com/biz/hall-of-flame-burgers-san-francisco?adjust_creative=Klanz-jboxl2XzqrjP6LLw&utm_campaign=yelp_api_v3&utm_medium=api_v3_business_search&utm_source=Klanz-jboxl2XzqrjP6LLw", "review_count": 569, "categories": [{"alias": "burgers", "title": "Burgers"}, {"alias": "sportsbars", "title": "Sports Bars"}, {"alias": "tradamerican", "title": "American (Traditional)"}], "rating": 4.0, "coordinates": {"latitude": 37.7174879011283, "longitude": -122.473734660797}, "transactions": ["delivery", "pickup"], "price": "$$", "location": {"address1": "73 Cambon Dr", "address2": "", "address3": "", "city": "San Francisco", "zip_code": "94132", "country": "US", "state": "CA", "display_address": ["73 Cambon Dr", "San Francisco, CA 94132"]}, "phone": "+14155844444", "display_phone": "(415) 584-4444", "distance": 5835.396482176017}, {"id": "0Ix0_r15BNkXqz4DsXF9dQ", "alias": "gotts-roadside-san-francisco-9", "name": "Gott's Roadside", "image_url": "https://s3-media4.fl.yelpcdn.com/bphoto/PLLBYuzCJXbJJDBqg57xDg/o.jpg", "is_closed": false, "url": "https://www.yelp.com/biz/gotts-roadside-san-francisco-9?adjust_creative=Klanz-jboxl2XzqrjP6LLw&utm_campaign=yelp_api_v3&utm_medium=api_v3_business_search&utm_source=Klanz-jboxl2XzqrjP6LLw", "review_count": 28, "categories": [{"alias": "tacos", "title": "Tacos"}, {"alias": "burgers", "title": "Burgers"}, {"alias": "tradamerican", "title": "American (Traditional)"}], "rating": 4.0, "coordinates": {"latitude": 37.76854388956767, "longitude": -122.38858463165705}, "transactions": [], "price": "$$", "location": {"address1": "151 Warriors Way", "address2": "Ste 102", "address3": "", "city": "San Francisco", "zip_code": "94158", "country": "US", "state": "CA", "display_address": ["151 Warriors Way", "Ste 102", "San Francisco, CA 94158"]}, "phone": "+14158152992", "display_phone": "(415) 815-2992", "distance": 4292.272418647577}, {"id": "jzmCjMb4nJscElnEgtY-Pw", "alias": "juanita-and-maude-albany", "name": "Juanita & Maude", "image_url": "https://s3-media3.fl.yelpcdn.com/bphoto/P0emuaaCfv6e828Yet-3tw/o.jpg", "is_closed": false, "url": "https://www.yelp.com/biz/juanita-and-maude-albany?adjust_creative=Klanz-jboxl2XzqrjP6LLw&utm_campaign=yelp_api_v3&utm_medium=api_v3_business_search&utm_source=Klanz-jboxl2XzqrjP6LLw", "review_count": 265, "categories": [{"alias": "newamerican", "title": "American (New)"}], "rating": 4.5, "coordinates": {"latitude": 37.89099, "longitude": -122.2988}, "transactions": [], "price": "$$$", "location": {"address1": "825 San Pablo Ave", "address2": "", "address3": null, "city": "Albany", "zip_code": "94706", "country": "US", "state": "CA", "display_address": ["825 San Pablo Ave", "Albany, CA 94706"]}, "phone": "+15105262233", "display_phone": "(510) 526-2233", "distance": 18844.602581588028}, {"id": "FRpULkKmvD9caSKabQzq5w", "alias": "the-italian-homemade-company-san-francisco-6", "name": "The Italian Homemade Company", "image_url": "https://s3-media1.fl.yelpcdn.com/bphoto/_qcdK6AaYatHTLiNNeO69Q/o.jpg", "is_closed": false, "url": "https://www.yelp.com/biz/the-italian-homemade-company-san-francisco-6?adjust_creative=Klanz-jboxl2XzqrjP6LLw&utm_campaign=yelp_api_v3&utm_medium=api_v3_business_search&utm_source=Klanz-jboxl2XzqrjP6LLw", "review_count": 1060, "categories": [{"alias": "italian", "title": "Italian"}, {"alias": "pastashops", "title": "Pasta Shops"}, {"alias": "desserts", "title": "Desserts"}], "rating": 4.5, "coordinates": {"latitude": 37.79742, "longitude": -122.43097}, "transactions": ["pickup", "delivery"], "price": "$$", "location": {"address1": "1919 Union St", "address2": "", "address3": "", "city": "San Francisco", "zip_code": "94123", "country": "US", "state": "CA", "display_address": ["1919 Union St", "San Francisco, CA 94123"]}, "phone": "+14156559325", "display_phone": "(415) 655-9325", "distance": 4089.4935544669324}, {"id": "XWGSjN82azh6Op-tG4659Q", "alias": "lukes-lobster-soma-san-francisco-4", "name": "Luke's Lobster SoMa", "image_url": "https://s3-media4.fl.yelpcdn.com/bphoto/8m7Uaer1UxcKJvCEtcAjZQ/o.jpg", "is_closed": false, "url": "https://www.yelp.com/biz/lukes-lobster-soma-san-francisco-4?adjust_creative=Klanz-jboxl2XzqrjP6LLw&utm_campaign=yelp_api_v3&utm_medium=api_v3_business_search&utm_source=Klanz-jboxl2XzqrjP6LLw", "review_count": 485, "categories": [{"alias": "seafood", "title": "Seafood"}], "rating": 4.0, "coordinates": {"latitude": 37.7880152, "longitude": -122.4000381}, "transactions": ["delivery"], "price": "$$", "location": {"address1": "92 2nd St", "address2": "", "address3": null, "city": "San Francisco", "zip_code": "94105", "country": "US", "state": "CA", "display_address": ["92 2nd St", "San Francisco, CA 94105"]}, "phone": "+14156587443", "display_phone": "(415) 658-7443", "distance": 4393.882859343781}, {"id": "q7ahclJhJgN8rsPyYJgchg", "alias": "sf-hole-in-the-wall-pizza-san-francisco-7", "name": "SF Hole In The Wall Pizza", "image_url": "https://s3-media1.fl.yelpcdn.com/bphoto/bjQbgUN4dUkzvqIbJEtxZQ/o.jpg", "is_closed": false, "url": "https://www.yelp.com/biz/sf-hole-in-the-wall-pizza-san-francisco-7?adjust_creative=Klanz-jboxl2XzqrjP6LLw&utm_campaign=yelp_api_v3&utm_medium=api_v3_business_search&utm_source=Klanz-jboxl2XzqrjP6LLw", "review_count": 265, "categories": [{"alias": "pizza", "title": "Pizza"}, {"alias": "burgers", "title": "Burgers"}, {"alias": "salad", "title": "Salad"}], "rating": 3.5, "coordinates": {"latitude": 37.799879, "longitude": -122.440908}, "transactions": ["pickup", "delivery"], "location": {"address1": "3244 Scott St San Francisco", "address2": null, "address3": "", "city": "San Francisco", "zip_code": "94123", "country": "US", "state": "CA", "display_address": ["3244 Scott St San Francisco", "San Francisco, CA 94123"]}, "phone": "+14157752580", "display_phone": "(415) 775-2580", "distance": 4352.717061032225}, {"id": "6UBR0qGpkOXaFAybTYl0eg", "alias": "yakiniku-shodai-san-francisco", "name": "Yakiniku Shodai", "image_url": "https://s3-media4.fl.yelpcdn.com/bphoto/Y1oZ2V4dR28WoraZ6-ITtg/o.jpg", "is_closed": false, "url": "https://www.yelp.com/biz/yakiniku-shodai-san-francisco?adjust_creative=Klanz-jboxl2XzqrjP6LLw&utm_campaign=yelp_api_v3&utm_medium=api_v3_business_search&utm_source=Klanz-jboxl2XzqrjP6LLw", "review_count": 3, "categories": [{"alias": "japanese", "title": "Japanese"}, {"alias": "bbq", "title": "Barbeque"}], "rating": 3.5, "coordinates": {"latitude": 37.77622440524734, "longitude": -122.41823863238096}, "transactions": [], "location": {"address1": "1420 Market St", "address2": "", "address3": null, "city": "San Francisco", "zip_code": "94102", "country": "US", "state": "CA", "display_address": ["1420 Market St", "San Francisco, CA 94102"]}, "phone": "+14157570201", "display_phone": "(415) 757-0201", "distance": 2337.826160207502}, {"id": "pKP6ikrLyM5Gtua13kVoUw", "alias": "izakaya-sozai-san-francisco", "name": "Izakaya Sozai", "image_url": "https://s3-media4.fl.yelpcdn.com/bphoto/XWj7FATx9EG9gteTQBXhgA/o.jpg", "is_closed": false, "url": "https://www.yelp.com/biz/izakaya-sozai-san-francisco?adjust_creative=Klanz-jboxl2XzqrjP6LLw&utm_campaign=yelp_api_v3&utm_medium=api_v3_business_search&utm_source=Klanz-jboxl2XzqrjP6LLw", "review_count": 2104, "categories": [{"alias": "ramen", "title": "Ramen"}, {"alias": "izakaya", "title": "Izakaya"}, {"alias": "noodles", "title": "Noodles"}], "rating": 4.0, "coordinates": {"latitude": 37.763879, "longitude": -122.47413}, "transactions": ["delivery"], "price": "$$", "location": {"address1": "1500 Irving St", "address2": null, "address3": "", "city": "San Francisco", "zip_code": "94122", "country": "US", "state": "CA", "display_address": ["1500 Irving St", "San Francisco, CA 94122"]}, "phone": "+14157425122", "display_phone": "(415) 742-5122", "distance": 3329.071252002252}], "total": 5500, "region": {"center": {"longitude": -122.43644714355469, "latitude": 37.76089938976322}}}