{"businesses": [{"id": "ZiTRspDPY9T_kh4tQDwDMQ", "alias": "pacific-cafe-san-francisco", "name": "Pacific Cafe", "image_url": "https://s3-media2.fl.yelpcdn.com/bphoto/1cXnFvCcvZ3SOPqeXxjmLQ/o.jpg", "is_closed": false, "url": "https://www.yelp.com/biz/pacific-cafe-san-francisco?adjust_creative=Klanz-jboxl2XzqrjP6LLw&utm_campaign=yelp_api_v3&utm_medium=api_v3_business_search&utm_source=Klanz-jboxl2XzqrjP6LLw", "review_count": 772, "categories": [{"alias": "seafood", "title": "Seafood"}], "rating": 4.0, "coordinates": {"latitude": 37.77994, "longitude": -122.49457}, "transactions": ["delivery"], "price": "$$", "location": {"address1": "7000 Geary Blvd", "address2": "", "address3": "", "city": "San Francisco", "zip_code": "94121", "country": "US", "state": "CA", "display_address": ["7000 Geary Blvd", "San Francisco, CA 94121"]}, "phone": "+14153877091", "display_phone": "(415) 387-7091", "distance": 5527.200004505452}, {"id": "q2EbLD93gEO5uXXx7Pk3bw", "alias": "benu-san-francisco-4", "name": "Benu", "image_url": "https://s3-media2.fl.yelpcdn.com/bphoto/NuJWvKMyw-PA6AtQvEOJGw/o.jpg", "is_closed": false, "url": "https://www.yelp.com/biz/benu-san-francisco-4?adjust_creative=Klanz-jboxl2XzqrjP6LLw&utm_campaign=yelp_api_v3&utm_medium=api_v3_business_search&utm_source=Klanz-jboxl2XzqrjP6LLw", "review_count": 1107, "categories": [{"alias": "newamerican", "title": "American (New)"}, {"alias": "wine_bars", "title": "Wine Bars"}, {"alias": "seafood", "title": "Seafood"}], "rating": 4.5, "coordinates": {"latitude": 37.785402, "longitude": -122.399068}, "transactions": ["pickup", "delivery"], "price": "$$$$", "location": {"address1": "22 Hawthorne St", "address2": "", "address3": "", "city": "San Francisco", "zip_code": "94105", "country": "US", "state": "CA", "display_address": ["22 Hawthorne St", "San Francisco, CA 94105"]}, "phone": "+14156854860", "display_phone": "(415) 685-4860", "distance": 4268.123760656363}, {"id": "kFgjHGp-cTUK5uPaSJOORA", "alias": "souvla-san-francisco", "name": "Souvla", "image_url": "https://s3-media1.fl.yelpcdn.com/bphoto/Gg_ynaIhzIdfTxKXTQmfUA/o.jpg", "is_closed": false, "url": "https://www.yelp.com/biz/souvla-san-francisco?adjust_creative=Klanz-jboxl2XzqrjP6LLw&utm_campaign=yelp_api_v3&utm_medium=api_v3_business_search&utm_source=Klanz-jboxl2XzqrjP6LLw", "review_count": 1534, "categories": [{"alias": "greek", "title": "Greek"}, {"alias": "mediterranean", "title": "Mediterranean"}], "rating": 4.0, "coordinates": {"latitude": 37.77643, "longitude": -122.425}, "transactions": ["delivery"], "price": "$$", "location": {"address1": "517 Hayes St", "address2": null, "address3": "", "city": "San Francisco", "zip_code": "94102", "country": "US", "state": "CA", "display_address": ["517 Hayes St", "San Francisco, CA 94102"]}, "phone": "+14154005458", "display_phone": "(415) 400-5458", "distance": 2003.2179011503324}, {"id": "M4hrvI7_NwJ9igOgQBsCiw", "alias": "gardenias-san-francisco-2", "name": "Gardenias", "image_url": "https://s3-media4.fl.yelpcdn.com/bphoto/ha5pIrCGp6pqH2YlUebc4Q/o.jpg", "is_closed": false, "url": "https://www.yelp.com/biz/gardenias-san-francisco-2?adjust_creative=Klanz-jboxl2XzqrjP6LLw&utm_campaign=yelp_api_v3&utm_medium=api_v3_business_search&utm_source=Klanz-jboxl2XzqrjP6LLw", "review_count": 145, "categories": [{"alias": "newamerican", "title": "American (New)"}, {"alias": "seafood", "title": "Seafood"}], "rating": 4.0, "coordinates": {"latitude": 37.78595, "longitude": -122.43261}, "transactions": ["delivery"], "price": "$$$", "location": {"address1": "1963 Sutter St", "address2": "", "address3": "", "city": "San Francisco", "zip_code": "94115", "country": "US", "state": "CA", "display_address": ["1963 Sutter St", "San Francisco, CA 94115"]}, "phone": "+14156217122", "display_phone": "(415) 621-7122", "distance": 2809.5336946361012}, {"id": "mLAg6fPXuO2_QV-IEfGsYA", "alias": "noren-izakaya-san-francisco", "name": "Noren Izakaya", "image_url": "https://s3-media2.fl.yelpcdn.com/bphoto/s2vbSuXO5g9nhCbpWbsexQ/o.jpg", "is_closed": false, "url": "https://www.yelp.com/biz/noren-izakaya-san-francisco?adjust_creative=Klanz-jboxl2XzqrjP6LLw&utm_campaign=yelp_api_v3&utm_medium=api_v3_business_search&utm_source=Klanz-jboxl2XzqrjP6LLw", "review_count": 117, "categories": [{"alias": "izakaya", "title": "Izakaya"}, {"alias": "tapasmallplates", "title": "Tapas/Small Plates"}, {"alias": "cocktailbars", "title": "Cocktail Bars"}], "rating": 4.0, "coordinates": {"latitude": 37.800326, "longitude": -122.411083}, "transactions": ["pickup", "restaurant_reservation", "delivery"], "price": "$$$", "location": {"address1": "1701 Powell St", "address2": null, "address3": "", "city": "San Francisco", "zip_code": "94133", "country": "US", "state": "CA", "display_address": ["1701 Powell St", "San Francisco, CA 94133"]}, "phone": "+14152919268", "display_phone": "(415) 291-9268", "distance": 4922.004524068032}, {"id": "DqJjIACQF6T85MR4ZYTrEA", "alias": "foodee-burger-san-francisco", "name": "Foodee Burger", "image_url": "https://s3-media2.fl.yelpcdn.com/bphoto/2AvlfZlwXNlk1pGVqktKqQ/o.jpg", "is_closed": false, "url": "https://www.yelp.com/biz/foodee-burger-san-francisco?adjust_creative=Klanz-jboxl2XzqrjP6LLw&utm_campaign=yelp_api_v3&utm_medium=api_v3_business_search&utm_source=Klanz-jboxl2XzqrjP6LLw", "review_count": 155, "categories": [{"alias": "burgers", "title": "Burgers"}], "rating": 4.5, "coordinates": {"latitude": 37.74738, "longitude": -122.45952}, "transactions": ["pickup", "delivery"], "price": "$$", "location": {"address1": "408 Dewey Blvd", "address2": null, "address3": "", "city": "San Francisco", "zip_code": "94116", "country": "US", "state": "CA", "display_address": ["408 Dewey Blvd", "San Francisco, CA 94116"]}, "phone": "+14156656888", "display_phone": "(415) 665-6888", "distance": 2532.17861609067}, {"id": "if7l8HVMz7kmW0tG9l2LQA", "alias": "e-and-o-kitchen-and-bar-san-francisco", "name": "E&O Kitchen and Bar", "image_url": "https://s3-media4.fl.yelpcdn.com/bphoto/9CHJxodw65D_f_anIxZdlA/o.jpg", "is_closed": false, "url": "https://www.yelp.com/biz/e-and-o-kitchen-and-bar-san-francisco?adjust_creative=Klanz-jboxl2XzqrjP6LLw&utm_campaign=yelp_api_v3&utm_medium=api_v3_business_search&utm_source=Klanz-jboxl2XzqrjP6LLw", "review_count": 1115, "categories": [{"alias": "asianfusion", "title": "Asian Fusion"}, {"alias": "venues", "title": "Venues & Event Spaces"}], "rating": 4.0, "coordinates": {"latitude": 37.789719, "longitude": -122.405846}, "transactions": ["delivery"], "price": "$$", "location": {"address1": "314 Sutter St", "address2": "", "address3": "", "city": "San Francisco", "zip_code": "94108", "country": "US", "state": "CA", "display_address": ["314 Sutter St", "San Francisco, CA 94108"]}, "phone": "+14156930303", "display_phone": "(415) 693-0303", "distance": 4183.668148630503}, {"id": "8u7pyRsCdf0DOP-Vg6MuLQ", "alias": "purple-rice-san-francisco", "name": "Purple Rice", "image_url": "https://s3-media1.fl.yelpcdn.com/bphoto/IlTN8YP7QfKme9-ulpeLSg/o.jpg", "is_closed": false, "url": "https://www.yelp.com/biz/purple-rice-san-francisco?adjust_creative=Klanz-jboxl2XzqrjP6LLw&utm_campaign=yelp_api_v3&utm_medium=api_v3_business_search&utm_source=Klanz-jboxl2XzqrjP6LLw", "review_count": 168, "categories": [{"alias": "korean", "title": "Korean"}, {"alias": "bbq", "title": "Barbeque"}, {"alias": "asianfusion", "title": "Asian Fusion"}], "rating": 4.5, "coordinates": {"latitude": 37.771917, "longitude": -122.430753}, "transactions": ["pickup", "delivery"], "price": "$$", "location": {"address1": "509 Haight St", "address2": null, "address3": "", "city": "San Francisco", "zip_code": "94117", "country": "US", "state": "CA", "display_address": ["509 Haight St", "San Francisco, CA 94117"]}, "phone": "+14159326257", "display_phone": "(415) 932-6257", "distance": 1325.1838754735893}, {"id": "go9rChwByfJjdm_ySZ3ceg", "alias": "sams-anchor-cafe-tiburon", "name": "Sam's Anchor Cafe", "image_url": "https://s3-media4.fl.yelpcdn.com/bphoto/aQ7N1XECtbxNyQz5RaH6IA/o.jpg", "is_closed": false, "url": "https://www.yelp.com/biz/sams-anchor-cafe-tiburon?adjust_creative=Klanz-jboxl2XzqrjP6LLw&utm_campaign=yelp_api_v3&utm_medium=api_v3_business_search&utm_source=Klanz-jboxl2XzqrjP6LLw", "review_count": 1390, "categories": [{"alias": "seafood", "title": "Seafood"}, {"alias": "bars", "title": "Bars"}, {"alias": "tradamerican", "title": "American (Traditional)"}], "rating": 3.5, "coordinates": {"latitude": 37.8728207589478, "longitude": -122.456399479355}, "transactions": ["pickup", "delivery"], "price": "$$", "location": {"address1": "27 Main St", "address2": "", "address3": "", "city": "Tiburon", "zip_code": "94920", "country": "US", "state": "CA", "display_address": ["27 Main St", "Tiburon, CA 94920"]}, "phone": "+14154354527", "display_phone": "(415) 435-4527", "distance": 12567.880006240097}, {"id": "KCVZ0Z5GQgQxduizQ91O1Q", "alias": "yummy-yummy-san-francisco", "name": "Yummy Yummy", "image_url": "https://s3-media2.fl.yelpcdn.com/bphoto/HQJwDCOdx5tEBL6vGYkmPA/o.jpg", "is_closed": false, "url": "https://www.yelp.com/biz/yummy-yummy-san-francisco?adjust_creative=Klanz-jboxl2XzqrjP6LLw&utm_campaign=yelp_api_v3&utm_medium=api_v3_business_search&utm_source=Klanz-jboxl2XzqrjP6LLw", "review_count": 1491, "categories": [{"alias": "vietnamese", "title": "Vietnamese"}, {"alias": "chinese", "title": "Chinese"}, {"alias": "noodles", "title": "Noodles"}], "rating": 4.0, "coordinates": {"latitude": 37.76368, "longitude": -122.46879}, "transactions": ["pickup", "delivery"], "price": "$$", "location": {"address1": "1015 Irving St", "address2": "", "address3": "", "city": "San Francisco", "zip_code": "94122", "country": "US", "state": "CA", "display_address": ["1015 Irving St", "San Francisco, CA 94122"]}, "phone": "+14155664722", "display_phone": "(415) 566-4722", "distance": 2861.847455798399}, {"id": "zPfF2YVRCokWVXswEaxcjw", "alias": "thriller-social-club-san-francisco", "name": "Thriller Social Club", "image_url": "https://s3-media3.fl.yelpcdn.com/bphoto/IUX4u7wRHm51JViNfeverA/o.jpg", "is_closed": false, "url": "https://www.yelp.com/biz/thriller-social-club-san-francisco?adjust_creative=Klanz-jboxl2XzqrjP6LLw&utm_campaign=yelp_api_v3&utm_medium=api_v3_business_search&utm_source=Klanz-jboxl2XzqrjP6LLw", "review_count": 17, "categories": [{"alias": "bars", "title": "Bars"}, {"alias": "arcades", "title": "Arcades"}, {"alias": "newamerican", "title": "American (New)"}], "rating": 4.5, "coordinates": {"latitude": 37.7792122, "longitude": -122.3981003}, "transactions": ["restaurant_reservation"], "location": {"address1": "508 4th St", "address2": "", "address3": null, "city": "San Francisco", "zip_code": "94107", "country": "US", "state": "CA", "display_address": ["508 4th St", "San Francisco, CA 94107"]}, "phone": "+14157066568", "display_phone": "(415) 706-6568", "distance": 3937.9137756986825}, {"id": "IdxPbp0WPdmBhYysGRhxCQ", "alias": "nicks-restaurant-pacifica", "name": "Nick's Seashore Restaurant", "image_url": "https://s3-media2.fl.yelpcdn.com/bphoto/v1RCZ3FOMdbag8ShJRvByg/o.jpg", "is_closed": false, "url": "https://www.yelp.com/biz/nicks-restaurant-pacifica?adjust_creative=Klanz-jboxl2XzqrjP6LLw&utm_campaign=yelp_api_v3&utm_medium=api_v3_business_search&utm_source=Klanz-jboxl2XzqrjP6LLw", "review_count": 1354, "categories": [{"alias": "seafood", "title": "Seafood"}, {"alias": "lounges", "title": "Lounges"}], "rating": 3.5, "coordinates": {"latitude": 37.60909624258056, "longitude": -122.49694831165662}, "transactions": ["pickup", "delivery"], "price": "$$", "location": {"address1": "100 Rockaway Beach Ave", "address2": "", "address3": "", "city": "Pacifica", "zip_code": "94044", "country": "US", "state": "CA", "display_address": ["100 Rockaway Beach Ave", "Pacifica, CA 94044"]}, "phone": "+16503593900", "display_phone": "(650) 359-3900", "distance": 17699.422473542738}, {"id": "dhTrfvdlpFE33USafJ3cjQ", "alias": "bluestem-restaurant-and-market-san-francisco", "name": "Bluestem Restaurant &  Market", "image_url": "https://s3-media4.fl.yelpcdn.com/bphoto/YtFfNMzj-f1w05nbuAcMxg/o.jpg", "is_closed": false, "url": "https://www.yelp.com/biz/bluestem-restaurant-and-market-san-francisco?adjust_creative=Klanz-jboxl2XzqrjP6LLw&utm_campaign=yelp_api_v3&utm_medium=api_v3_business_search&utm_source=Klanz-jboxl2XzqrjP6LLw", "review_count": 1708, "categories": [{"alias": "wine_bars", "title": "Wine Bars"}, {"alias": "gourmet", "title": "Specialty Food"}], "rating": 4.0, "coordinates": {"latitude": 37.785985, "longitude": -122.404921}, "transactions": ["delivery"], "price": "$$$", "location": {"address1": "One Yerba Buena Ln", "address2": "", "address3": "", "city": "San Francisco", "zip_code": "94103", "country": "US", "state": "CA", "display_address": ["One Yerba Buena Ln", "San Francisco, CA 94103"]}, "phone": "+14155471111", "display_phone": "(415) 547-1111", "distance": 3931.7529515124697}, {"id": "0bDxHlnb-411Er3w5quBYg", "alias": "sessions-at-the-presidio-san-francisco", "name": "Sessions at the Presidio", "image_url": "https://s3-media2.fl.yelpcdn.com/bphoto/r1rhMU6f7PoyAX6fOXeapg/o.jpg", "is_closed": false, "url": "https://www.yelp.com/biz/sessions-at-the-presidio-san-francisco?adjust_creative=Klanz-jboxl2XzqrjP6LLw&utm_campaign=yelp_api_v3&utm_medium=api_v3_business_search&utm_source=Klanz-jboxl2XzqrjP6LLw", "review_count": 614, "categories": [{"alias": "newamerican", "title": "American (New)"}, {"alias": "beer_and_wine", "title": "Beer, Wine & Spirits"}, {"alias": "cocktailbars", "title": "Cocktail Bars"}], "rating": 3.5, "coordinates": {"latitude": 37.799238, "longitude": -122.448184}, "transactions": ["delivery"], "price": "$$", "location": {"address1": "1 Letterman Dr", "address2": "Bldg D", "address3": "", "city": "San Francisco", "zip_code": "94129", "country": "US", "state": "CA", "display_address": ["1 Letterman Dr", "Bldg D", "San Francisco, CA 94129"]}, "phone": "+14156559413", "display_phone": "(415) 655-9413", "distance": 4386.069572043942}, {"id": "JFDsi1rdN443paRcoCx6gg", "alias": "thai-house-express-san-francisco-2", "name": "Thai House Express", "image_url": "https://s3-media3.fl.yelpcdn.com/bphoto/DitXMSoM0xeumwTyVwD4VQ/o.jpg", "is_closed": false, "url": "https://www.yelp.com/biz/thai-house-express-san-francisco-2?adjust_creative=Klanz-jboxl2XzqrjP6LLw&utm_campaign=yelp_api_v3&utm_medium=api_v3_business_search&utm_source=Klanz-jboxl2XzqrjP6LLw", "review_count": 630, "categories": [{"alias": "thai", "title": "Thai"}, {"alias": "noodles", "title": "Noodles"}], "rating": 3.5, "coordinates": {"latitude": 37.759405, "longitude": -122.434702}, "transactions": ["pickup", "delivery"], "price": "$$", "location": {"address1": "599 Castro St", "address2": "", "address3": "", "city": "San Francisco", "zip_code": "94114", "country": "US", "state": "CA", "display_address": ["599 Castro St", "San Francisco, CA 94114"]}, "phone": "+14158645000", "display_phone": "(415) 864-5000", "distance": 226.15805824579837}, {"id": "lJAGnYzku5zSaLnQ_T6_GQ", "alias": "brendas-french-soul-food-san-francisco-5", "name": "Brenda's French Soul Food", "image_url": "https://s3-media4.fl.yelpcdn.com/bphoto/olWZc1SyhyPkz1btzms_hg/o.jpg", "is_closed": false, "url": "https://www.yelp.com/biz/brendas-french-soul-food-san-francisco-5?adjust_creative=Klanz-jboxl2XzqrjP6LLw&utm_campaign=yelp_api_v3&utm_medium=api_v3_business_search&utm_source=Klanz-jboxl2XzqrjP6LLw", "review_count": 11378, "categories": [{"alias": "breakfast_brunch", "title": "Breakfast & Brunch"}, {"alias": "southern", "title": "Southern"}, {"alias": "cajun", "title": "Cajun/Creole"}], "rating": 4.0, "coordinates": {"latitude": 37.7829016035273, "longitude": -122.419043442957}, "transactions": ["delivery"], "price": "$$", "location": {"address1": "652 Polk St", "address2": "", "address3": "", "city": "San Francisco", "zip_code": "94102", "country": "US", "state": "CA", "display_address": ["652 Polk St", "San Francisco, CA 94102"]}, "phone": "+14153458100", "display_phone": "(415) 345-8100", "distance": 2885.38913097158}, {"id": "haFRimHPOq90EiTplF4S8A", "alias": "cafe-europa-san-francisco", "name": "Cafe Europa", "image_url": "https://s3-media2.fl.yelpcdn.com/bphoto/gz-5CRoYv4BMmN10kmbSlw/o.jpg", "is_closed": false, "url": "https://www.yelp.com/biz/cafe-europa-san-francisco?adjust_creative=Klanz-jboxl2XzqrjP6LLw&utm_campaign=yelp_api_v3&utm_medium=api_v3_business_search&utm_source=Klanz-jboxl2XzqrjP6LLw", "review_count": 515, "categories": [{"alias": "german", "title": "German"}, {"alias": "polish", "title": "Polish"}, {"alias": "modern_european", "title": "Modern European"}], "rating": 4.5, "coordinates": {"latitude": 37.78535, "longitude": -122.46388}, "transactions": ["pickup"], "price": "$$", "location": {"address1": "4318 California St", "address2": "", "address3": "", "city": "San Francisco", "zip_code": "94118", "country": "US", "state": "CA", "display_address": ["4318 California St", "San Francisco, CA 94118"]}, "phone": "+14153861000", "display_phone": "(415) 386-1000", "distance": 3628.053876072137}, {"id": "BjlVE7tTp1UCEttgkM1Big", "alias": "beit-rima-san-francisco-3", "name": "Beit Rima", "image_url": "https://s3-media1.fl.yelpcdn.com/bphoto/7j77HFHqc-mJkfdFK2T94g/o.jpg", "is_closed": false, "url": "https://www.yelp.com/biz/beit-rima-san-francisco-3?adjust_creative=Klanz-jboxl2XzqrjP6LLw&utm_campaign=yelp_api_v3&utm_medium=api_v3_business_search&utm_source=Klanz-jboxl2XzqrjP6LLw", "review_count": 496, "categories": [{"alias": "arabian", "title": "Arabic"}, {"alias": "mediterranean", "title": "Mediterranean"}, {"alias": "lebanese", "title": "Lebanese"}], "rating": 4.5, "coordinates": {"latitude": 37.76872, "longitude": -122.42943}, "transactions": ["delivery"], "price": "$$", "location": {"address1": "138 Church St", "address2": null, "address3": "", "city": "San Francisco", "zip_code": "94114", "country": "US", "state": "CA", "display_address": ["138 Church St", "San Francisco, CA 94114"]}, "phone": "+14157030270", "display_phone": "(415) 703-0270", "distance": 1073.1993439779797}, {"id": "H2IZSqvr71k9-tBn91mgrA", "alias": "del-popolo-san-francisco-3", "name": "Del Popolo", "image_url": "https://s3-media1.fl.yelpcdn.com/bphoto/PtpsPU-o2OVEbDjnDsV7yQ/o.jpg", "is_closed": false, "url": "https://www.yelp.com/biz/del-popolo-san-francisco-3?adjust_creative=Klanz-jboxl2XzqrjP6LLw&utm_campaign=yelp_api_v3&utm_medium=api_v3_business_search&utm_source=Klanz-jboxl2XzqrjP6LLw", "review_count": 522, "categories": [{"alias": "pizza", "title": "Pizza"}], "rating": 4.0, "coordinates": {"latitude": 37.789627, "longitude": -122.411374}, "transactions": ["pickup", "delivery"], "price": "$$", "location": {"address1": "855 Bush St", "address2": "", "address3": "", "city": "San Francisco", "zip_code": "94108", "country": "US", "state": "CA", "display_address": ["855 Bush St", "San Francisco, CA 94108"]}, "phone": "+14155897940", "display_phone": "(415) 589-7940", "distance": 3880.7475366459203}, {"id": "f9ikTGTJL5RgvVKbQLNh4w", "alias": "rickhouse-san-francisco", "name": "Rickhouse", "image_url": "https://s3-media1.fl.yelpcdn.com/bphoto/zCYBHBVG_x9LKzXXz1ivxg/o.jpg", "is_closed": false, "url": "https://www.yelp.com/biz/rickhouse-san-francisco?adjust_creative=Klanz-jboxl2XzqrjP6LLw&utm_campaign=yelp_api_v3&utm_medium=api_v3_business_search&utm_source=Klanz-jboxl2XzqrjP6LLw", "review_count": 1607, "categories": [{"alias": "cocktailbars", "title": "Cocktail Bars"}, {"alias": "venues", "title": "Venues & Event Spaces"}, {"alias": "whiskeybars", "title": "Whiskey Bars"}], "rating": 4.0, "coordinates": {"latitude": 37.7904968261719, "longitude": -122.403594970703}, "transactions": [], "price": "$$", "location": {"address1": "246 Kearny St", "address2": "", "address3": "", "city": "San Francisco", "zip_code": "94108", "country": "US", "state": "CA", "display_address": ["246 Kearny St", "San Francisco, CA 94108"]}, "phone": "+14153982827", "display_phone": "(415) 398-2827", "distance": 4366.2796409753655}, {"id": "XVPiXV_TPivnr9szB5kc-A", "alias": "birdsong-san-francisco", "name": "Birdsong", "image_url": "https://s3-media1.fl.yelpcdn.com/bphoto/u8K7lf0qDJADWy-NhkH_PQ/o.jpg", "is_closed": false, "url": "https://www.yelp.com/biz/birdsong-san-francisco?adjust_creative=Klanz-jboxl2XzqrjP6LLw&utm_campaign=yelp_api_v3&utm_medium=api_v3_business_search&utm_source=Klanz-jboxl2XzqrjP6LLw", "review_count": 323, "categories": [{"alias": "newamerican", "title": "American (New)"}], "rating": 4.5, "coordinates": {"latitude": 37.7793175, "longitude": -122.4105235}, "transactions": [], "price": "$$$$", "location": {"address1": "1085 Mission St", "address2": "", "address3": null, "city": "San Francisco", "zip_code": "94103", "country": "US", "state": "CA", "display_address": ["1085 Mission St", "San Francisco, CA 94103"]}, "phone": "+14153699161", "display_phone": "(415) 369-9161", "distance": 3078.2947913539338}, {"id": "w6Rqt5gdNHl18wpxGuYnaQ", "alias": "yh-beijing-san-francisco-9", "name": "YH-Beijing", "image_url": "https://s3-media1.fl.yelpcdn.com/bphoto/L3JjZaCAKSfwE9wp6Zr1Ow/o.jpg", "is_closed": false, "url": "https://www.yelp.com/biz/yh-beijing-san-francisco-9?adjust_creative=Klanz-jboxl2XzqrjP6LLw&utm_campaign=yelp_api_v3&utm_medium=api_v3_business_search&utm_source=Klanz-jboxl2XzqrjP6LLw", "review_count": 182, "categories": [{"alias": "chinese", "title": "Chinese"}], "rating": 4.5, "coordinates": {"latitude": 37.77219859919826, "longitude": -122.43062306195498}, "transactions": ["pickup", "delivery"], "price": "$$", "location": {"address1": "500 Haight St", "address2": "", "address3": null, "city": "San Francisco", "zip_code": "94117", "country": "US", "state": "CA", "display_address": ["500 Haight St", "San Francisco, CA 94117"]}, "phone": "+14153559125", "display_phone": "(415) 355-9125", "distance": 1356.7089644966477}, {"id": "Id2aVe9l5YQlHtlXnGye-Q", "alias": "wooly-pig-san-francisco-2", "name": "Wooly Pig", "image_url": "https://s3-media2.fl.yelpcdn.com/bphoto/2wivRtCR9UisAy7qebHtBw/o.jpg", "is_closed": false, "url": "https://www.yelp.com/biz/wooly-pig-san-francisco-2?adjust_creative=Klanz-jboxl2XzqrjP6LLw&utm_campaign=yelp_api_v3&utm_medium=api_v3_business_search&utm_source=Klanz-jboxl2XzqrjP6LLw", "review_count": 738, "categories": [{"alias": "sandwiches", "title": "Sandwiches"}, {"alias": "coffee", "title": "Coffee & Tea"}, {"alias": "asianfusion", "title": "Asian Fusion"}], "rating": 4.5, "coordinates": {"latitude": 37.760662161462, "longitude": -122.388421141818}, "transactions": ["pickup", "delivery"], "price": "$$", "location": {"address1": "2295 3rd St", "address2": "", "address3": "", "city": "San Francisco", "zip_code": "94107", "country": "US", "state": "CA", "display_address": ["2295 3rd St", "San Francisco, CA 94107"]}, "phone": "+14155928015", "display_phone": "(415) 592-8015", "distance": 4225.848161076123}, {"id": "Z3gYoBTTXniIBOLU_6haMQ", "alias": "the-pots-hot-pot-buffet-san-francisco-2", "name": "The Pots Hot Pot Buffet", "image_url": "https://s3-media3.fl.yelpcdn.com/bphoto/VDfAEsl0cUPdQo6MhZ3m5A/o.jpg", "is_closed": false, "url": "https://www.yelp.com/biz/the-pots-hot-pot-buffet-san-francisco-2?adjust_creative=Klanz-jboxl2XzqrjP6LLw&utm_campaign=yelp_api_v3&utm_medium=api_v3_business_search&utm_source=Klanz-jboxl2XzqrjP6LLw", "review_count": 751, "categories": [{"alias": "chinese", "title": "Chinese"}, {"alias": "hotpot", "title": "Hot Pot"}, {"alias": "vietnamese", "title": "Vietnamese"}], "rating": 4.0, "coordinates": {"latitude": 37.76129, "longitude": -122.49071}, "transactions": ["pickup", "delivery"], "price": "$$$", "location": {"address1": "2652 Judah St", "address2": "", "address3": "", "city": "San Francisco", "zip_code": "94122", "country": "US", "state": "CA", "display_address": ["2652 Judah St", "San Francisco, CA 94122"]}, "phone": "+14156827889", "display_phone": "(415) 682-7889", "distance": 4773.601353112841}, {"id": "fPYCsVL3s0vM13jJeOWAig", "alias": "urban-putt-san-francisco", "name": "Urban Putt", "image_url": "https://s3-media2.fl.yelpcdn.com/bphoto/z-AipVh5V0-7U3FyfiuNaw/o.jpg", "is_closed": false, "url": "https://www.yelp.com/biz/urban-putt-san-francisco?adjust_creative=Klanz-jboxl2XzqrjP6LLw&utm_campaign=yelp_api_v3&utm_medium=api_v3_business_search&utm_source=Klanz-jboxl2XzqrjP6LLw", "review_count": 1476, "categories": [{"alias": "mini_golf", "title": "Mini Golf"}, {"alias": "newamerican", "title": "American (New)"}, {"alias": "bars", "title": "Bars"}], "rating": 4.5, "coordinates": {"latitude": 37.7557019908942, "longitude": -122.416826814485}, "transactions": ["pickup", "delivery"], "price": "$$", "location": {"address1": "1096 S Van Ness Ave", "address2": "", "address3": "", "city": "San Francisco", "zip_code": "94110", "country": "US", "state": "CA", "display_address": ["1096 S Van Ness Ave", "San Francisco, CA 94110"]}, "phone": "+14153411080", "display_phone": "(415) 341-1080", "distance": 1819.081802948902}, {"id": "_zCS5z46c2ZgoEDdMPjT8A", "alias": "violets-san-francisco", "name": "Violet's", "image_url": "https://s3-media3.fl.yelpcdn.com/bphoto/k3xKEWC73DtkGN8xgPGHIw/o.jpg", "is_closed": false, "url": "https://www.yelp.com/biz/violets-san-francisco?adjust_creative=Klanz-jboxl2XzqrjP6LLw&utm_campaign=yelp_api_v3&utm_medium=api_v3_business_search&utm_source=Klanz-jboxl2XzqrjP6LLw", "review_count": 211, "categories": [{"alias": "cocktailbars", "title": "Cocktail Bars"}, {"alias": "tradamerican", "title": "American (Traditional)"}], "rating": 3.5, "coordinates": {"latitude": 37.78181, "longitude": -122.48396}, "transactions": ["pickup", "delivery"], "price": "$$", "location": {"address1": "2301 Clement St", "address2": "", "address3": null, "city": "San Francisco", "zip_code": "94121", "country": "US", "state": "CA", "display_address": ["2301 Clement St", "San Francisco, CA 94121"]}, "phone": "+14156824861", "display_phone": "(415) 682-4861", "distance": 4779.8555304562815}, {"id": "mDM7-ho67ePJXd5TodtCOg", "alias": "acquerello-san-francisco", "name": "Acquerello", "image_url": "https://s3-media4.fl.yelpcdn.com/bphoto/-8zaekWtiI-d50ybEJBtEA/o.jpg", "is_closed": false, "url": "https://www.yelp.com/biz/acquerello-san-francisco?adjust_creative=Klanz-jboxl2XzqrjP6LLw&utm_campaign=yelp_api_v3&utm_medium=api_v3_business_search&utm_source=Klanz-jboxl2XzqrjP6LLw", "review_count": 1165, "categories": [{"alias": "italian", "title": "Italian"}, {"alias": "wine_bars", "title": "Wine Bars"}, {"alias": "venues", "title": "Venues & Event Spaces"}], "rating": 4.5, "coordinates": {"latitude": 37.79157, "longitude": -122.4213296}, "transactions": [], "price": "$$$$", "location": {"address1": "1722 Sacramento St", "address2": "", "address3": "", "city": "San Francisco", "zip_code": "94109", "country": "US", "state": "CA", "display_address": ["1722 Sacramento St", "San Francisco, CA 94109"]}, "phone": "+14155675432", "display_phone": "(415) 567-5432", "distance": 3654.5935261670274}, {"id": "fZvOxrSLjw39vkYyA466YA", "alias": "uncle-boys-san-francisco", "name": "Uncle Boy's", "image_url": "https://s3-media3.fl.yelpcdn.com/bphoto/qYAqCmJ21xBKa1skFoSRXA/o.jpg", "is_closed": false, "url": "https://www.yelp.com/biz/uncle-boys-san-francisco?adjust_creative=Klanz-jboxl2XzqrjP6LLw&utm_campaign=yelp_api_v3&utm_medium=api_v3_business_search&utm_source=Klanz-jboxl2XzqrjP6LLw", "review_count": 689, "categories": [{"alias": "burgers", "title": "Burgers"}, {"alias": "hotdogs", "title": "Fast Food"}], "rating": 4.0, "coordinates": {"latitude": 37.7772493, "longitude": -122.4615654}, "transactions": ["pickup", "delivery"], "price": "$", "location": {"address1": "245 Balboa St", "address2": "", "address3": "", "city": "San Francisco", "zip_code": "94118", "country": "US", "state": "CA", "display_address": ["245 Balboa St", "San Francisco, CA 94118"]}, "phone": "+14157424468", "display_phone": "(415) 742-4468", "distance": 2860.031758248829}, {"id": "7tsN9N9mhfJRNTe37pLFMg", "alias": "burma-love-san-francisco-10", "name": "Burma Love", "image_url": "https://s3-media3.fl.yelpcdn.com/bphoto/Sd_ij4_9TyALdoNgwnzmaw/o.jpg", "is_closed": false, "url": "https://www.yelp.com/biz/burma-love-san-francisco-10?adjust_creative=Klanz-jboxl2XzqrjP6LLw&utm_campaign=yelp_api_v3&utm_medium=api_v3_business_search&utm_source=Klanz-jboxl2XzqrjP6LLw", "review_count": 1359, "categories": [{"alias": "burmese", "title": "Burmese"}, {"alias": "cocktailbars", "title": "Cocktail Bars"}, {"alias": "seafood", "title": "Seafood"}], "rating": 4.0, "coordinates": {"latitude": 37.76961, "longitude": -122.42205}, "transactions": ["pickup", "restaurant_reservation"], "price": "$$", "location": {"address1": "211 Valencia St", "address2": "", "address3": "", "city": "San Francisco", "zip_code": "94103", "country": "US", "state": "CA", "display_address": ["211 Valencia St", "San Francisco, CA 94103"]}, "phone": "+14158612100", "display_phone": "(415) 861-2100", "distance": 1590.0954692428409}, {"id": "eQHepA7u_mb-0TIb8t8EXQ", "alias": "la-traviata-san-francisco", "name": "La Traviata", "image_url": "https://s3-media1.fl.yelpcdn.com/bphoto/aWgOFhR_Bk3Z9cqjANI5gg/o.jpg", "is_closed": false, "url": "https://www.yelp.com/biz/la-traviata-san-francisco?adjust_creative=Klanz-jboxl2XzqrjP6LLw&utm_campaign=yelp_api_v3&utm_medium=api_v3_business_search&utm_source=Klanz-jboxl2XzqrjP6LLw", "review_count": 598, "categories": [{"alias": "italian", "title": "Italian"}], "rating": 4.0, "coordinates": {"latitude": 37.75126, "longitude": -122.41869}, "transactions": ["pickup", "delivery"], "price": "$$", "location": {"address1": "2854 Mission St", "address2": "", "address3": "", "city": "San Francisco", "zip_code": "94110", "country": "US", "state": "CA", "display_address": ["2854 Mission St", "San Francisco, CA 94110"]}, "phone": "+14152820500", "display_phone": "(415) 282-0500", "distance": 1895.2194361644615}, {"id": "NZI303NL5iVqOCxZKCfCYQ", "alias": "district-san-francisco-san-francisco-3", "name": "District San Francisco", "image_url": "https://s3-media2.fl.yelpcdn.com/bphoto/7rM07gUmoTmj5Gmyom4u4A/o.jpg", "is_closed": false, "url": "https://www.yelp.com/biz/district-san-francisco-san-francisco-3?adjust_creative=Klanz-jboxl2XzqrjP6LLw&utm_campaign=yelp_api_v3&utm_medium=api_v3_business_search&utm_source=Klanz-jboxl2XzqrjP6LLw", "review_count": 1175, "categories": [{"alias": "wine_bars", "title": "Wine Bars"}, {"alias": "tapasmallplates", "title": "Tapas/Small Plates"}, {"alias": "whiskeybars", "title": "Whiskey Bars"}], "rating": 4.0, "coordinates": {"latitude": 37.778613006412, "longitude": -122.393322239596}, "transactions": ["pickup", "delivery"], "price": "$$", "location": {"address1": "216 Townsend St", "address2": "", "address3": "", "city": "San Francisco", "zip_code": "94107", "country": "US", "state": "CA", "display_address": ["216 Townsend St", "San Francisco, CA 94107"]}, "phone": "+14158962120", "display_phone": "(415) 896-2120", "distance": 4271.752063372429}, {"id": "CS0pUlk25RV2-vhKFFbxqA", "alias": "the-progress-san-francisco-2", "name": "The Progress", "image_url": "https://s3-media3.fl.yelpcdn.com/bphoto/a1zVlVwlBudPaABuq9d71g/o.jpg", "is_closed": false, "url": "https://www.yelp.com/biz/the-progress-san-francisco-2?adjust_creative=Klanz-jboxl2XzqrjP6LLw&utm_campaign=yelp_api_v3&utm_medium=api_v3_business_search&utm_source=Klanz-jboxl2XzqrjP6LLw", "review_count": 925, "categories": [{"alias": "newamerican", "title": "American (New)"}, {"alias": "bars", "title": "Bars"}], "rating": 4.0, "coordinates": {"latitude": 37.7836608886719, "longitude": -122.433074951172}, "transactions": [], "price": "$$$$", "location": {"address1": "1525 Fillmore St", "address2": "", "address3": "", "city": "San Francisco", "zip_code": "94115", "country": "US", "state": "CA", "display_address": ["1525 Fillmore St", "San Francisco, CA 94115"]}, "phone": "+14156731294", "display_phone": "(415) 673-1294", "distance": 2548.9070794457953}, {"id": "V3x7BG-ExlkPQgqxVdduJw", "alias": "the-anchovy-bar-san-francisco", "name": "The Anchovy Bar", "image_url": "https://s3-media3.fl.yelpcdn.com/bphoto/M9SE2W86w6F6xfc_7G5ecA/o.jpg", "is_closed": false, "url": "https://www.yelp.com/biz/the-anchovy-bar-san-francisco?adjust_creative=Klanz-jboxl2XzqrjP6LLw&utm_campaign=yelp_api_v3&utm_medium=api_v3_business_search&utm_source=Klanz-jboxl2XzqrjP6LLw", "review_count": 103, "categories": [{"alias": "seafood", "title": "Seafood"}], "rating": 4.5, "coordinates": {"latitude": 37.783374, "longitude": -122.4332}, "transactions": [], "location": {"address1": "1740 O'Farrell St", "address2": null, "address3": null, "city": "San Francisco", "zip_code": "94115", "country": "US", "state": "CA", "display_address": ["1740 O'Farrell St", "San Francisco, CA 94115"]}, "phone": "+14157962710", "display_phone": "(415) 796-2710", "distance": 2518.2669415721657}, {"id": "A9QDUzIGMcybhLhtPDSN4A", "alias": "gaspares-pizza-house-and-italian-restaurant-san-francisco", "name": "Gaspare's Pizza House & Italian Restaurant", "image_url": "https://s3-media3.fl.yelpcdn.com/bphoto/hmifoh_eBa2wWy5ikvPtUQ/o.jpg", "is_closed": false, "url": "https://www.yelp.com/biz/gaspares-pizza-house-and-italian-restaurant-san-francisco?adjust_creative=Klanz-jboxl2XzqrjP6LLw&utm_campaign=yelp_api_v3&utm_medium=api_v3_business_search&utm_source=Klanz-jboxl2XzqrjP6LLw", "review_count": 980, "categories": [{"alias": "italian", "title": "Italian"}, {"alias": "pizza", "title": "Pizza"}, {"alias": "newamerican", "title": "American (New)"}], "rating": 4.0, "coordinates": {"latitude": 37.780586, "longitude": -122.479153}, "transactions": ["delivery"], "price": "$$", "location": {"address1": "5546 Geary Blvd", "address2": "", "address3": "", "city": "San Francisco", "zip_code": "94121", "country": "US", "state": "CA", "display_address": ["5546 Geary Blvd", "San Francisco, CA 94121"]}, "phone": "+14153875025", "display_phone": "(415) 387-5025", "distance": 4345.339636731725}, {"id": "Wcd6K6APT-yWVCSi4oq-kg", "alias": "kitchen-istanbul-san-francisco", "name": "Kitchen Istanbul", "image_url": "https://s3-media2.fl.yelpcdn.com/bphoto/tywHJKqr16jUSvcC1kdsvw/o.jpg", "is_closed": false, "url": "https://www.yelp.com/biz/kitchen-istanbul-san-francisco?adjust_creative=Klanz-jboxl2XzqrjP6LLw&utm_campaign=yelp_api_v3&utm_medium=api_v3_business_search&utm_source=Klanz-jboxl2XzqrjP6LLw", "review_count": 502, "categories": [{"alias": "greek", "title": "Greek"}, {"alias": "turkish", "title": "Turkish"}, {"alias": "mediterranean", "title": "Mediterranean"}], "rating": 4.5, "coordinates": {"latitude": 37.782849, "longitude": -122.46321}, "transactions": ["pickup", "delivery"], "price": "$$$", "location": {"address1": "349 Clement St", "address2": "", "address3": "", "city": "San Francisco", "zip_code": "94118", "country": "US", "state": "CA", "display_address": ["349 Clement St", "San Francisco, CA 94118"]}, "phone": "+14157539479", "display_phone": "(415) 753-9479", "distance": 3389.7335007923343}, {"id": "EZwHLuyJCLiF0sJ-gyvjrQ", "alias": "california-fish-grill-daly-city", "name": "California Fish Grill", "image_url": "https://s3-media2.fl.yelpcdn.com/bphoto/pJRIsZEVoG3kqVgn68bmCQ/o.jpg", "is_closed": false, "url": "https://www.yelp.com/biz/california-fish-grill-daly-city?adjust_creative=Klanz-jboxl2XzqrjP6LLw&utm_campaign=yelp_api_v3&utm_medium=api_v3_business_search&utm_source=Klanz-jboxl2XzqrjP6LLw", "review_count": 887, "categories": [{"alias": "fishnchips", "title": "Fish & Chips"}, {"alias": "seafood", "title": "Seafood"}, {"alias": "tacos", "title": "Tacos"}], "rating": 4.0, "coordinates": {"latitude": 37.6709408, "longitude": -122.4677696}, "transactions": ["pickup", "delivery"], "price": "$$", "location": {"address1": "153C Serramonte Ctr", "address2": "", "address3": null, "city": "Daly City", "zip_code": "94015", "country": "US", "state": "CA", "display_address": ["153C Serramonte Ctr", "Daly City, CA 94015"]}, "phone": "+16505175712", "display_phone": "(650) 517-5712", "distance": 10375.4249609453}, {"id": "UTVDbZv-qiHU06sDkoel3g", "alias": "chez-maman-east-san-francisco", "name": "Chez Maman East", "image_url": "https://s3-media4.fl.yelpcdn.com/bphoto/gccHe5ofFMpNyh8vmS0VSw/o.jpg", "is_closed": false, "url": "https://www.yelp.com/biz/chez-maman-east-san-francisco?adjust_creative=Klanz-jboxl2XzqrjP6LLw&utm_campaign=yelp_api_v3&utm_medium=api_v3_business_search&utm_source=Klanz-jboxl2XzqrjP6LLw", "review_count": 2204, "categories": [{"alias": "french", "title": "French"}, {"alias": "burgers", "title": "Burgers"}, {"alias": "creperies", "title": "Creperies"}], "rating": 4.5, "coordinates": {"latitude": 37.762463, "longitude": -122.396712}, "transactions": ["pickup", "delivery"], "price": "$$", "location": {"address1": "1401 18th St", "address2": "", "address3": "", "city": "San Francisco", "zip_code": "94107", "country": "US", "state": "CA", "display_address": ["1401 18th St", "San Francisco, CA 94107"]}, "phone": "+14156559542", "display_phone": "(415) 655-9542", "distance": 3497.309403134702}, {"id": "tjflPf7MTPmSgau-b8CN3A", "alias": "wesburger-n-more-san-francisco", "name": "WesBurger 'N' More", "image_url": "https://s3-media1.fl.yelpcdn.com/bphoto/c3kfueXWqy6T2DeWNRmCaQ/o.jpg", "is_closed": false, "url": "https://www.yelp.com/biz/wesburger-n-more-san-francisco?adjust_creative=Klanz-jboxl2XzqrjP6LLw&utm_campaign=yelp_api_v3&utm_medium=api_v3_business_search&utm_source=Klanz-jboxl2XzqrjP6LLw", "review_count": 656, "categories": [{"alias": "burgers", "title": "Burgers"}], "rating": 4.0, "coordinates": {"latitude": 37.761198586981, "longitude": -122.419501330688}, "transactions": ["pickup", "delivery"], "price": "$$", "location": {"address1": "2240 Mission St", "address2": "", "address3": "", "city": "San Francisco", "zip_code": "94110", "country": "US", "state": "CA", "display_address": ["2240 Mission St", "San Francisco, CA 94110"]}, "phone": "+14157459371", "display_phone": "(415) 745-9371", "distance": 1490.0345240122192}, {"id": "5D--FJXQHdC3kZWYm2GREg", "alias": "barcha-san-francisco", "name": "Barcha", "image_url": "https://s3-media3.fl.yelpcdn.com/bphoto/dOkeQIAsfVtj-SZBjR8lkA/o.jpg", "is_closed": false, "url": "https://www.yelp.com/biz/barcha-san-francisco?adjust_creative=Klanz-jboxl2XzqrjP6LLw&utm_campaign=yelp_api_v3&utm_medium=api_v3_business_search&utm_source=Klanz-jboxl2XzqrjP6LLw", "review_count": 595, "categories": [{"alias": "mediterranean", "title": "Mediterranean"}, {"alias": "tapasmallplates", "title": "Tapas/Small Plates"}], "rating": 4.0, "coordinates": {"latitude": 37.7909966558218, "longitude": -122.397482693195}, "transactions": ["pickup", "delivery"], "price": "$$$", "location": {"address1": "28 Fremont St", "address2": "", "address3": "", "city": "San Francisco", "zip_code": "94105", "country": "US", "state": "CA", "display_address": ["28 Fremont St", "San Francisco, CA 94105"]}, "phone": "+14159575463", "display_phone": "(415) 957-5463", "distance": 4748.428160585835}, {"id": "RJjuozKTsgwPNa429tnxbg", "alias": "the-cheese-steak-shop-san-francisco", "name": "The Cheese Steak Shop", "image_url": "https://s3-media1.fl.yelpcdn.com/bphoto/JYdp8P9mVUUzGIqk1XW2rQ/o.jpg", "is_closed": false, "url": "https://www.yelp.com/biz/the-cheese-steak-shop-san-francisco?adjust_creative=Klanz-jboxl2XzqrjP6LLw&utm_campaign=yelp_api_v3&utm_medium=api_v3_business_search&utm_source=Klanz-jboxl2XzqrjP6LLw", "review_count": 993, "categories": [{"alias": "sandwiches", "title": "Sandwiches"}, {"alias": "cheesesteaks", "title": "Cheesesteaks"}], "rating": 4.0, "coordinates": {"latitude": 37.78558, "longitude": -122.43963}, "transactions": ["pickup", "delivery"], "price": "$$", "location": {"address1": "1716 Divisadero St", "address2": "", "address3": "", "city": "San Francisco", "zip_code": "94115", "country": "US", "state": "CA", "display_address": ["1716 Divisadero St", "San Francisco, CA 94115"]}, "phone": "+14153463712", "display_phone": "(415) 346-3712", "distance": 2756.590642753267}, {"id": "mfD5wlWS6tY92FJHDcBwJA", "alias": "bouche-san-francisco", "name": "Bouche", "image_url": "https://s3-media4.fl.yelpcdn.com/bphoto/_9vcFd7tvgKRrE3Y0xebwQ/o.jpg", "is_closed": false, "url": "https://www.yelp.com/biz/bouche-san-francisco?adjust_creative=Klanz-jboxl2XzqrjP6LLw&utm_campaign=yelp_api_v3&utm_medium=api_v3_business_search&utm_source=Klanz-jboxl2XzqrjP6LLw", "review_count": 817, "categories": [{"alias": "french", "title": "French"}], "rating": 4.5, "coordinates": {"latitude": 37.790254, "longitude": -122.407361268997}, "transactions": ["pickup", "delivery"], "price": "$$$", "location": {"address1": "603 Bush St", "address2": "", "address3": "", "city": "San Francisco", "zip_code": "94108", "country": "US", "state": "CA", "display_address": ["603 Bush St", "San Francisco, CA 94108"]}, "phone": "+14159560396", "display_phone": "(415) 956-0396", "distance": 4145.9869960215665}, {"id": "3PfAzrjJzw7XsO7hzeXFsg", "alias": "southern-pacific-brewing-san-francisco", "name": "Southern Pacific Brewing", "image_url": "https://s3-media1.fl.yelpcdn.com/bphoto/e-7X8c4Ai7luDyT8rJTDhw/o.jpg", "is_closed": false, "url": "https://www.yelp.com/biz/southern-pacific-brewing-san-francisco?adjust_creative=Klanz-jboxl2XzqrjP6LLw&utm_campaign=yelp_api_v3&utm_medium=api_v3_business_search&utm_source=Klanz-jboxl2XzqrjP6LLw", "review_count": 1352, "categories": [{"alias": "breweries", "title": "Breweries"}], "rating": 3.0, "coordinates": {"latitude": 37.760103, "longitude": -122.414232}, "transactions": ["pickup", "delivery"], "price": "$$", "location": {"address1": "620 Treat Ave", "address2": "", "address3": "", "city": "San Francisco", "zip_code": "94110", "country": "US", "state": "CA", "display_address": ["620 Treat Ave", "San Francisco, CA 94110"]}, "phone": "+14153410152", "display_phone": "(415) 341-0152", "distance": 1954.8976386166876}, {"id": "ZdKUKq7A94x9cEobARf2cA", "alias": "breakfast-at-tiffanys-san-francisco", "name": "Breakfast at Tiffany's", "image_url": "https://s3-media4.fl.yelpcdn.com/bphoto/DwaqfqPcLHwcVPjz-0vYKA/o.jpg", "is_closed": false, "url": "https://www.yelp.com/biz/breakfast-at-tiffanys-san-francisco?adjust_creative=Klanz-jboxl2XzqrjP6LLw&utm_campaign=yelp_api_v3&utm_medium=api_v3_business_search&utm_source=Klanz-jboxl2XzqrjP6LLw", "review_count": 980, "categories": [{"alias": "diners", "title": "Diners"}, {"alias": "breakfast_brunch", "title": "Breakfast & Brunch"}, {"alias": "tradamerican", "title": "American (Traditional)"}], "rating": 4.0, "coordinates": {"latitude": 37.7304538339376, "longitude": -122.40473203361}, "transactions": ["pickup", "delivery"], "price": "$$", "location": {"address1": "2499 San Bruno Ave", "address2": "", "address3": "", "city": "San Francisco", "zip_code": "94134", "country": "US", "state": "CA", "display_address": ["2499 San Bruno Ave", "San Francisco, CA 94134"]}, "phone": "+14154688805", "display_phone": "(415) 468-8805", "distance": 4390.308843256284}, {"id": "I-32OYNaIU4AMkUB-17fpw", "alias": "stable-cafe-san-francisco", "name": "Stable Cafe", "image_url": "https://s3-media4.fl.yelpcdn.com/bphoto/6oumb3s7SV0Ryk9XAjCHng/o.jpg", "is_closed": false, "url": "https://www.yelp.com/biz/stable-cafe-san-francisco?adjust_creative=Klanz-jboxl2XzqrjP6LLw&utm_campaign=yelp_api_v3&utm_medium=api_v3_business_search&utm_source=Klanz-jboxl2XzqrjP6LLw", "review_count": 558, "categories": [{"alias": "breakfast_brunch", "title": "Breakfast & Brunch"}, {"alias": "cafes", "title": "Cafes"}], "rating": 4.0, "coordinates": {"latitude": 37.7632381549085, "longitude": -122.41531057781}, "transactions": ["pickup", "delivery"], "price": "$", "location": {"address1": "2128 Folsom St", "address2": "", "address3": "", "city": "San Francisco", "zip_code": "94110", "country": "US", "state": "CA", "display_address": ["2128 Folsom St", "San Francisco, CA 94110"]}, "phone": "+14155521199", "display_phone": "(415) 552-1199", "distance": 1876.146987121351}, {"id": "7qgsnMg99OtH9cVHiYqLvg", "alias": "pacifica-brewery-pacifica", "name": "Pacifica Brewery", "image_url": "https://s3-media2.fl.yelpcdn.com/bphoto/nRCZJ5ODJ0oWvdbll3YHLQ/o.jpg", "is_closed": false, "url": "https://www.yelp.com/biz/pacifica-brewery-pacifica?adjust_creative=Klanz-jboxl2XzqrjP6LLw&utm_campaign=yelp_api_v3&utm_medium=api_v3_business_search&utm_source=Klanz-jboxl2XzqrjP6LLw", "review_count": 370, "categories": [{"alias": "breweries", "title": "Breweries"}, {"alias": "newamerican", "title": "American (New)"}, {"alias": "breakfast_brunch", "title": "Breakfast & Brunch"}], "rating": 4.0, "coordinates": {"latitude": 37.60661, "longitude": -122.49738}, "transactions": [], "price": "$$", "location": {"address1": "4627 CA-1", "address2": "", "address3": null, "city": "Pacifica", "zip_code": "94044", "country": "US", "state": "CA", "display_address": ["4627 CA-1", "Pacifica, CA 94044"]}, "phone": "+16507355311", "display_phone": "(650) 735-5311", "distance": 17954.114761231383}, {"id": "5DeL87rp02kT8xHn1CJS1g", "alias": "jasmine-garden-san-francisco", "name": "Jasmine Garden", "image_url": "https://s3-media2.fl.yelpcdn.com/bphoto/8-aLidQXaYXCfBA0H2E1jw/o.jpg", "is_closed": false, "url": "https://www.yelp.com/biz/jasmine-garden-san-francisco?adjust_creative=Klanz-jboxl2XzqrjP6LLw&utm_campaign=yelp_api_v3&utm_medium=api_v3_business_search&utm_source=Klanz-jboxl2XzqrjP6LLw", "review_count": 692, "categories": [{"alias": "vietnamese", "title": "Vietnamese"}], "rating": 4.0, "coordinates": {"latitude": 37.76783, "longitude": -122.42933}, "transactions": ["pickup", "delivery"], "price": "$$", "location": {"address1": "708 14th St", "address2": "", "address3": "", "city": "San Francisco", "zip_code": "94114", "country": "US", "state": "CA", "display_address": ["708 14th St", "San Francisco, CA 94114"]}, "phone": "+14158612682", "display_phone": "(415) 861-2682", "distance": 990.1681747307066}, {"id": "X2_qq-IyD4J-OtTqOUQ67A", "alias": "american-bites-san-francisco", "name": "American Bites", "image_url": "https://s3-media4.fl.yelpcdn.com/bphoto/lJBulyZ7PvfDLNaXgCjZgg/o.jpg", "is_closed": false, "url": "https://www.yelp.com/biz/american-bites-san-francisco?adjust_creative=Klanz-jboxl2XzqrjP6LLw&utm_campaign=yelp_api_v3&utm_medium=api_v3_business_search&utm_source=Klanz-jboxl2XzqrjP6LLw", "review_count": 49, "categories": [{"alias": "italian", "title": "Italian"}, {"alias": "bars", "title": "Bars"}, {"alias": "seafood", "title": "Seafood"}], "rating": 5.0, "coordinates": {"latitude": 37.800009, "longitude": -122.407144}, "transactions": ["pickup", "delivery"], "price": "$$", "location": {"address1": "478 Green St", "address2": null, "address3": null, "city": "San Francisco", "zip_code": "94133", "country": "US", "state": "CA", "display_address": ["478 Green St", "San Francisco, CA 94133"]}, "phone": "+14158345454", "display_phone": "(415) 834-5454", "distance": 5054.1116461229185}, {"id": "yNMCITEPGh6cgqd6VDfQOg", "alias": "nob-hill-cafe-san-francisco", "name": "Nob Hill Cafe", "image_url": "https://s3-media2.fl.yelpcdn.com/bphoto/31dH6qEd2WNdGm42sR0VaA/o.jpg", "is_closed": false, "url": "https://www.yelp.com/biz/nob-hill-cafe-san-francisco?adjust_creative=Klanz-jboxl2XzqrjP6LLw&utm_campaign=yelp_api_v3&utm_medium=api_v3_business_search&utm_source=Klanz-jboxl2XzqrjP6LLw", "review_count": 1388, "categories": [{"alias": "italian", "title": "Italian"}, {"alias": "pizza", "title": "Pizza"}], "rating": 4.0, "coordinates": {"latitude": 37.7932599, "longitude": -122.41262}, "transactions": ["pickup", "delivery"], "price": "$$", "location": {"address1": "1152 Taylor St", "address2": "", "address3": "", "city": "San Francisco", "zip_code": "94108", "country": "US", "state": "CA", "display_address": ["1152 Taylor St", "San Francisco, CA 94108"]}, "phone": "+14157766500", "display_phone": "(415) 776-6500", "distance": 4158.0714029354485}, {"id": "QX7MEW77bPLrYBEV-D1EUQ", "alias": "the-crafty-fox-ale-house-san-francisco", "name": "The Crafty Fox Ale House", "image_url": "https://s3-media2.fl.yelpcdn.com/bphoto/S_Q1fQikvBEoLE7YtYelsA/o.jpg", "is_closed": false, "url": "https://www.yelp.com/biz/the-crafty-fox-ale-house-san-francisco?adjust_creative=Klanz-jboxl2XzqrjP6LLw&utm_campaign=yelp_api_v3&utm_medium=api_v3_business_search&utm_source=Klanz-jboxl2XzqrjP6LLw", "review_count": 246, "categories": [{"alias": "beerbar", "title": "Beer Bar"}, {"alias": "burgers", "title": "Burgers"}, {"alias": "newamerican", "title": "American (New)"}], "rating": 4.5, "coordinates": {"latitude": 37.76983, "longitude": -122.42039}, "transactions": ["pickup", "delivery"], "price": "$$", "location": {"address1": "1700 Mission St", "address2": "", "address3": "", "city": "San Francisco", "zip_code": "94103", "country": "US", "state": "CA", "display_address": ["1700 Mission St", "San Francisco, CA 94103"]}, "phone": "+14154166602", "display_phone": "(415) 416-6602", "distance": 1724.0708499375644}, {"id": "UTjgPLk9RYjWudG3GSqsTQ", "alias": "calibur-san-francisco", "name": "Calibur", "image_url": "https://s3-media2.fl.yelpcdn.com/bphoto/qEjePO0qgF4A1Mt4dM4mLA/o.jpg", "is_closed": false, "url": "https://www.yelp.com/biz/calibur-san-francisco?adjust_creative=Klanz-jboxl2XzqrjP6LLw&utm_campaign=yelp_api_v3&utm_medium=api_v3_business_search&utm_source=Klanz-jboxl2XzqrjP6LLw", "review_count": 487, "categories": [{"alias": "burgers", "title": "Burgers"}, {"alias": "tradamerican", "title": "American (Traditional)"}], "rating": 4.0, "coordinates": {"latitude": 37.7402382, "longitude": -122.4668427}, "transactions": ["pickup", "delivery"], "price": "$$", "location": {"address1": "68 W Portal Ave", "address2": "", "address3": "", "city": "San Francisco", "zip_code": "94127", "country": "US", "state": "CA", "display_address": ["68 W Portal Ave", "San Francisco, CA 94127"]}, "phone": "+14157424931", "display_phone": "(415) 742-4931", "distance": 3525.5964178854515}], "total": 5500, "region": {"center": {"longitude": -122.43644714355469, "latitude": 37.76089938976322}}}