{"businesses": [{"id": "zTPJr9tZ9sU2gRxEQXlWLQ", "alias": "ohgane-kbbq-x-vons-chicken-alameda", "name": "Ohgane KBBQ x Vons Chicken", "image_url": "https://s3-media3.fl.yelpcdn.com/bphoto/s493C42JgQvs3kmIwpxvGw/o.jpg", "is_closed": false, "url": "https://www.yelp.com/biz/ohgane-kbbq-x-vons-chicken-alameda?adjust_creative=Klanz-jboxl2XzqrjP6LLw&utm_campaign=yelp_api_v3&utm_medium=api_v3_business_search&utm_source=Klanz-jboxl2XzqrjP6LLw", "review_count": 464, "categories": [{"alias": "bbq", "title": "Barbeque"}, {"alias": "korean", "title": "Korean"}, {"alias": "chicken_wings", "title": "Chicken Wings"}], "rating": 4.0, "coordinates": {"latitude": 37.757406, "longitude": -122.251872}, "transactions": ["delivery", "restaurant_reservation"], "price": "$$", "location": {"address1": "2211 S Shore Ctr", "address2": "Ste 160", "address3": "", "city": "Alameda", "zip_code": "94501", "country": "US", "state": "CA", "display_address": ["2211 S Shore Ctr", "Ste 160", "Alameda, CA 94501"]}, "phone": "+15107757538", "display_phone": "(510) 775-7538", "distance": 16238.34227911646}, {"id": "p6bLw7PS63Kbge_wyIOP8w", "alias": "garibaldis-san-francisco-2", "name": "Garibaldis", "image_url": "https://s3-media3.fl.yelpcdn.com/bphoto/zRYOYgtiLopeZcF2mcgi-w/o.jpg", "is_closed": false, "url": "https://www.yelp.com/biz/garibaldis-san-francisco-2?adjust_creative=Klanz-jboxl2XzqrjP6LLw&utm_campaign=yelp_api_v3&utm_medium=api_v3_business_search&utm_source=Klanz-jboxl2XzqrjP6LLw", "review_count": 558, "categories": [{"alias": "newamerican", "title": "American (New)"}], "rating": 4.0, "coordinates": {"latitude": 37.7883799, "longitude": -122.44729}, "transactions": ["delivery"], "price": "$$$", "location": {"address1": "347 Presidio Ave", "address2": "", "address3": "", "city": "San Francisco", "zip_code": "94115", "country": "US", "state": "CA", "display_address": ["347 Presidio Ave", "San Francisco, CA 94115"]}, "phone": "+14155638841", "display_phone": "(415) 563-8841", "distance": 3206.4730332555237}, {"id": "02wUJF0661zMeXLgArujlg", "alias": "united-dumplings-san-francisco", "name": "United Dumplings", "image_url": "https://s3-media3.fl.yelpcdn.com/bphoto/MSuw9bIgigzqNSFoza_2BA/o.jpg", "is_closed": false, "url": "https://www.yelp.com/biz/united-dumplings-san-francisco?adjust_creative=Klanz-jboxl2XzqrjP6LLw&utm_campaign=yelp_api_v3&utm_medium=api_v3_business_search&utm_source=Klanz-jboxl2XzqrjP6LLw", "review_count": 251, "categories": [{"alias": "chinese", "title": "Chinese"}, {"alias": "asianfusion", "title": "Asian Fusion"}, {"alias": "noodles", "title": "Noodles"}], "rating": 4.5, "coordinates": {"latitude": 37.739223, "longitude": -122.416008}, "transactions": ["delivery", "pickup"], "price": "$$", "location": {"address1": "525 Cortland Ave", "address2": null, "address3": null, "city": "San Francisco", "zip_code": "94110", "country": "US", "state": "CA", "display_address": ["525 Cortland Ave", "San Francisco, CA 94110"]}, "phone": "+14156587363", "display_phone": "(415) 658-7363", "distance": 3003.4004661663594}, {"id": "ZD5-5Gu44WrcsYtw7qMgiw", "alias": "palmyra-san-francisco", "name": "Palmyra", "image_url": "https://s3-media1.fl.yelpcdn.com/bphoto/KrWdMlnePQRD1zJTInq5HQ/o.jpg", "is_closed": false, "url": "https://www.yelp.com/biz/palmyra-san-francisco?adjust_creative=Klanz-jboxl2XzqrjP6LLw&utm_campaign=yelp_api_v3&utm_medium=api_v3_business_search&utm_source=Klanz-jboxl2XzqrjP6LLw", "review_count": 947, "categories": [{"alias": "mediterranean", "title": "Mediterranean"}, {"alias": "mideastern", "title": "Middle Eastern"}, {"alias": "syrian", "title": "Syrian"}], "rating": 4.0, "coordinates": {"latitude": 37.771851, "longitude": -122.433937}, "transactions": ["delivery", "pickup"], "price": "$", "location": {"address1": "700 Haight St", "address2": "", "address3": "", "city": "San Francisco", "zip_code": "94117", "country": "US", "state": "CA", "display_address": ["700 Haight St", "San Francisco, CA 94117"]}, "phone": "+14158964172", "display_phone": "(415) 896-4172", "distance": 1237.5898351704045}, {"id": "0LVKwqqzwiUnGtKFo7f6AA", "alias": "pazzia-ristorante-italiano-san-francisco", "name": "Pazzia Ristorante Italiano", "image_url": "https://s3-media1.fl.yelpcdn.com/bphoto/rtDVuyIuxprAjsvqnWFNBA/o.jpg", "is_closed": false, "url": "https://www.yelp.com/biz/pazzia-ristorante-italiano-san-francisco?adjust_creative=Klanz-jboxl2XzqrjP6LLw&utm_campaign=yelp_api_v3&utm_medium=api_v3_business_search&utm_source=Klanz-jboxl2XzqrjP6LLw", "review_count": 1037, "categories": [{"alias": "italian", "title": "Italian"}, {"alias": "pizza", "title": "Pizza"}], "rating": 4.0, "coordinates": {"latitude": 37.7834151615544, "longitude": -122.398016998777}, "transactions": ["delivery", "pickup"], "price": "$$", "location": {"address1": "337 3rd St", "address2": "", "address3": "", "city": "San Francisco", "zip_code": "94107", "country": "US", "state": "CA", "display_address": ["337 3rd St", "San Francisco, CA 94107"]}, "phone": "+14155121693", "display_phone": "(415) 512-1693", "distance": 4204.4798452659425}, {"id": "la0VrTjFyMjQF-L8O6RRbQ", "alias": "vals-steak-house-restaurant-and-lounge-daly-city", "name": "Val's Steak House Restaurant & Lounge", "image_url": "https://s3-media1.fl.yelpcdn.com/bphoto/x-8JS4DWkdL3qwaOCAd1Cg/o.jpg", "is_closed": false, "url": "https://www.yelp.com/biz/vals-steak-house-restaurant-and-lounge-daly-city?adjust_creative=Klanz-jboxl2XzqrjP6LLw&utm_campaign=yelp_api_v3&utm_medium=api_v3_business_search&utm_source=Klanz-jboxl2XzqrjP6LLw", "review_count": 501, "categories": [{"alias": "lounges", "title": "Lounges"}, {"alias": "steak", "title": "Steakhouses"}, {"alias": "sportsbars", "title": "Sports Bars"}], "rating": 3.5, "coordinates": {"latitude": 37.691611, "longitude": -122.4715}, "transactions": ["delivery"], "price": "$$", "location": {"address1": "2468 Junipero Serra Blvd", "address2": "", "address3": "", "city": "Daly City", "zip_code": "94015", "country": "US", "state": "CA", "display_address": ["2468 Junipero Serra Blvd", "Daly City, CA 94015"]}, "phone": "+16507553448", "display_phone": "(650) 755-3448", "distance": 8286.970552070148}, {"id": "6e7gMgVJRQ5rtkIbTF6TLQ", "alias": "trattoria-contadina-san-francisco", "name": "Trattoria Contadina", "image_url": "https://s3-media4.fl.yelpcdn.com/bphoto/9mKRj1o8w66udaeg1w4uLA/o.jpg", "is_closed": false, "url": "https://www.yelp.com/biz/trattoria-contadina-san-francisco?adjust_creative=Klanz-jboxl2XzqrjP6LLw&utm_campaign=yelp_api_v3&utm_medium=api_v3_business_search&utm_source=Klanz-jboxl2XzqrjP6LLw", "review_count": 1397, "categories": [{"alias": "italian", "title": "Italian"}], "rating": 4.0, "coordinates": {"latitude": 37.80018, "longitude": -122.41228}, "transactions": ["delivery"], "price": "$$", "location": {"address1": "1800 Mason St", "address2": "", "address3": "", "city": "San Francisco", "zip_code": "94133", "country": "US", "state": "CA", "display_address": ["1800 Mason St", "San Francisco, CA 94133"]}, "phone": "+14159825728", "display_phone": "(415) 982-5728", "distance": 4856.99549956629}, {"id": "WCk_ecR-PQuGIqd5I2hAZw", "alias": "7-mile-house-brisbane", "name": "7 Mile House", "image_url": "https://s3-media2.fl.yelpcdn.com/bphoto/4ToXLP656FKS2iDZRA9vIA/o.jpg", "is_closed": false, "url": "https://www.yelp.com/biz/7-mile-house-brisbane?adjust_creative=Klanz-jboxl2XzqrjP6LLw&utm_campaign=yelp_api_v3&utm_medium=api_v3_business_search&utm_source=Klanz-jboxl2XzqrjP6LLw", "review_count": 1430, "categories": [{"alias": "sportsbars", "title": "Sports Bars"}, {"alias": "tradamerican", "title": "American (Traditional)"}, {"alias": "filipino", "title": "Filipino"}], "rating": 4.0, "coordinates": {"latitude": 37.704305, "longitude": -122.407456}, "transactions": ["delivery", "pickup", "restaurant_reservation"], "price": "$$", "location": {"address1": "2800 Bayshore Blvd", "address2": "", "address3": "", "city": "Brisbane", "zip_code": "94005", "country": "US", "state": "CA", "display_address": ["2800 Bayshore Blvd", "Brisbane, CA 94005"]}, "phone": "+14154672343", "display_phone": "(415) 467-2343", "distance": 6787.929877497306}, {"id": "OCk8JFBaOw_p2EY6mi5iLQ", "alias": "am\u00e9lie-san-francisco-2", "name": "Am\u00e9lie", "image_url": "https://s3-media2.fl.yelpcdn.com/bphoto/049qWtIPodGVZS4rdFoIJA/o.jpg", "is_closed": false, "url": "https://www.yelp.com/biz/am%C3%A9lie-san-francisco-2?adjust_creative=Klanz-jboxl2XzqrjP6LLw&utm_campaign=yelp_api_v3&utm_medium=api_v3_business_search&utm_source=Klanz-jboxl2XzqrjP6LLw", "review_count": 1376, "categories": [{"alias": "wine_bars", "title": "Wine Bars"}, {"alias": "lounges", "title": "Lounges"}, {"alias": "french", "title": "French"}], "rating": 4.0, "coordinates": {"latitude": 37.7931200864529, "longitude": -122.420906547632}, "transactions": ["delivery", "pickup"], "price": "$$", "location": {"address1": "1754 Polk St", "address2": null, "address3": "", "city": "San Francisco", "zip_code": "94109", "country": "US", "state": "CA", "display_address": ["1754 Polk St", "San Francisco, CA 94109"]}, "phone": "+14152926916", "display_phone": "(415) 292-6916", "distance": 3834.290854298074}, {"id": "6iR0zBfiup79DErYKAXY0Q", "alias": "cafe-international-san-francisco", "name": "Cafe International", "image_url": "https://s3-media1.fl.yelpcdn.com/bphoto/hlCB3mnGShqUJsrPHRMcIw/o.jpg", "is_closed": false, "url": "https://www.yelp.com/biz/cafe-international-san-francisco?adjust_creative=Klanz-jboxl2XzqrjP6LLw&utm_campaign=yelp_api_v3&utm_medium=api_v3_business_search&utm_source=Klanz-jboxl2XzqrjP6LLw", "review_count": 421, "categories": [{"alias": "coffee", "title": "Coffee & Tea"}, {"alias": "sandwiches", "title": "Sandwiches"}, {"alias": "bagels", "title": "Bagels"}], "rating": 4.0, "coordinates": {"latitude": 37.77227, "longitude": -122.43084}, "transactions": ["delivery"], "price": "$", "location": {"address1": "508 Haight St", "address2": "", "address3": "", "city": "San Francisco", "zip_code": "94117", "country": "US", "state": "CA", "display_address": ["508 Haight St", "San Francisco, CA 94117"]}, "phone": "+14155527390", "display_phone": "(415) 552-7390", "distance": 1354.8608862377914}, {"id": "mYQmEp2dsRTmNhgIrJ7mKQ", "alias": "palmers-san-francisco-2", "name": "Palmer's", "image_url": "https://s3-media4.fl.yelpcdn.com/bphoto/SVfvIXCnEgcI8qtljzvgEA/o.jpg", "is_closed": false, "url": "https://www.yelp.com/biz/palmers-san-francisco-2?adjust_creative=Klanz-jboxl2XzqrjP6LLw&utm_campaign=yelp_api_v3&utm_medium=api_v3_business_search&utm_source=Klanz-jboxl2XzqrjP6LLw", "review_count": 282, "categories": [{"alias": "bars", "title": "Bars"}, {"alias": "tradamerican", "title": "American (Traditional)"}], "rating": 3.5, "coordinates": {"latitude": 37.790615, "longitude": -122.433907}, "transactions": ["delivery"], "price": "$$", "location": {"address1": "2298 Fillmore St", "address2": "", "address3": "", "city": "San Francisco", "zip_code": "94115", "country": "US", "state": "CA", "display_address": ["2298 Fillmore St", "San Francisco, CA 94115"]}, "phone": "+14157327777", "display_phone": "(415) 732-7777", "distance": 3312.047947299036}, {"id": "zvIbFkcZwqhTuDF7t7eQsQ", "alias": "25-lusk-san-francisco-3", "name": "25 Lusk", "image_url": "https://s3-media1.fl.yelpcdn.com/bphoto/9ZICYixhwA4S9kPB2oRwBg/o.jpg", "is_closed": false, "url": "https://www.yelp.com/biz/25-lusk-san-francisco-3?adjust_creative=Klanz-jboxl2XzqrjP6LLw&utm_campaign=yelp_api_v3&utm_medium=api_v3_business_search&utm_source=Klanz-jboxl2XzqrjP6LLw", "review_count": 1454, "categories": [{"alias": "newamerican", "title": "American (New)"}, {"alias": "cocktailbars", "title": "Cocktail Bars"}, {"alias": "venues", "title": "Venues & Event Spaces"}], "rating": 4.0, "coordinates": {"latitude": 37.778506, "longitude": -122.394342}, "transactions": ["delivery"], "price": "$$$", "location": {"address1": "25 Lusk St", "address2": "", "address3": "", "city": "San Francisco", "zip_code": "94107", "country": "US", "state": "CA", "display_address": ["25 Lusk St", "San Francisco, CA 94107"]}, "phone": "+14154955875", "display_phone": "(415) 495-5875", "distance": 4186.859438105963}, {"id": "IBBHd7ejaRDK_m-oXC6ZVw", "alias": "little-wok-cafe-san-francisco", "name": "Little Wok Cafe", "image_url": "https://s3-media3.fl.yelpcdn.com/bphoto/AxSP_dLhYJoJyZRosRmstA/o.jpg", "is_closed": false, "url": "https://www.yelp.com/biz/little-wok-cafe-san-francisco?adjust_creative=Klanz-jboxl2XzqrjP6LLw&utm_campaign=yelp_api_v3&utm_medium=api_v3_business_search&utm_source=Klanz-jboxl2XzqrjP6LLw", "review_count": 40, "categories": [{"alias": "chinese", "title": "Chinese"}, {"alias": "seafood", "title": "Seafood"}], "rating": 4.5, "coordinates": {"latitude": 37.77585, "longitude": -122.49761}, "transactions": ["delivery", "pickup"], "location": {"address1": "3608 Balboa St", "address2": null, "address3": "", "city": "San Francisco", "zip_code": "94121", "country": "US", "state": "CA", "display_address": ["3608 Balboa St", "San Francisco, CA 94121"]}, "phone": "+14156824672", "display_phone": "(415) 682-4672", "distance": 5634.9461438083}, {"id": "uUQt3LQbJsjIrwq6iVh8AQ", "alias": "chao-pescao-san-francisco", "name": "Chao Pescao", "image_url": "https://s3-media1.fl.yelpcdn.com/bphoto/N7ZvV-084uB_Qi8e2m-ePw/o.jpg", "is_closed": false, "url": "https://www.yelp.com/biz/chao-pescao-san-francisco?adjust_creative=Klanz-jboxl2XzqrjP6LLw&utm_campaign=yelp_api_v3&utm_medium=api_v3_business_search&utm_source=Klanz-jboxl2XzqrjP6LLw", "review_count": 83, "categories": [{"alias": "caribbean", "title": "Caribbean"}, {"alias": "sandwiches", "title": "Sandwiches"}, {"alias": "salad", "title": "Salad"}], "rating": 4.5, "coordinates": {"latitude": 37.780707, "longitude": -122.416583}, "transactions": ["delivery", "pickup"], "price": "$$", "location": {"address1": "272 McAllister St", "address2": "", "address3": null, "city": "San Francisco", "zip_code": "94102", "country": "US", "state": "CA", "display_address": ["272 McAllister St", "San Francisco, CA 94102"]}, "phone": "+14156212200", "display_phone": "(415) 621-2200", "distance": 2816.770458251008}, {"id": "xkTx2lxZQptqxNeCBCaArA", "alias": "tadu-ethiopian-kitchen-san-francisco-3", "name": "Tadu Ethiopian Kitchen", "image_url": "https://s3-media2.fl.yelpcdn.com/bphoto/pUg-HAc0dCxV4iORG8NJZA/o.jpg", "is_closed": false, "url": "https://www.yelp.com/biz/tadu-ethiopian-kitchen-san-francisco-3?adjust_creative=Klanz-jboxl2XzqrjP6LLw&utm_campaign=yelp_api_v3&utm_medium=api_v3_business_search&utm_source=Klanz-jboxl2XzqrjP6LLw", "review_count": 688, "categories": [{"alias": "ethiopian", "title": "Ethiopian"}], "rating": 4.5, "coordinates": {"latitude": 37.7848298, "longitude": -122.4142271}, "transactions": ["delivery", "pickup"], "price": "$$", "location": {"address1": "484 Ellis St", "address2": "", "address3": "", "city": "San Francisco", "zip_code": "94102", "country": "US", "state": "CA", "display_address": ["484 Ellis St", "San Francisco, CA 94102"]}, "phone": "+14154096649", "display_phone": "(415) 409-6649", "distance": 3299.4776347184934}, {"id": "msn4HQum3OTOgJ7fXH-74Q", "alias": "rooh-san-francisco", "name": "ROOH", "image_url": "https://s3-media1.fl.yelpcdn.com/bphoto/Aqx54zQGy-4usrESxqEfdA/o.jpg", "is_closed": false, "url": "https://www.yelp.com/biz/rooh-san-francisco?adjust_creative=Klanz-jboxl2XzqrjP6LLw&utm_campaign=yelp_api_v3&utm_medium=api_v3_business_search&utm_source=Klanz-jboxl2XzqrjP6LLw", "review_count": 947, "categories": [{"alias": "indpak", "title": "Indian"}, {"alias": "cocktailbars", "title": "Cocktail Bars"}], "rating": 4.0, "coordinates": {"latitude": 37.7813044077209, "longitude": -122.392686848497}, "transactions": ["delivery", "pickup"], "price": "$$$", "location": {"address1": "333 Brannan St", "address2": "Ste 150", "address3": "", "city": "San Francisco", "zip_code": "94107", "country": "US", "state": "CA", "display_address": ["333 Brannan St", "Ste 150", "San Francisco, CA 94107"]}, "phone": "+14155254174", "display_phone": "(415) 525-4174", "distance": 4465.68326822531}, {"id": "ptFfsvzCDv4lf9d4i3hRZw", "alias": "moya-san-francisco", "name": "Moya", "image_url": "https://s3-media2.fl.yelpcdn.com/bphoto/dfHaFnH0cupkgkiB22q2OQ/o.jpg", "is_closed": false, "url": "https://www.yelp.com/biz/moya-san-francisco?adjust_creative=Klanz-jboxl2XzqrjP6LLw&utm_campaign=yelp_api_v3&utm_medium=api_v3_business_search&utm_source=Klanz-jboxl2XzqrjP6LLw", "review_count": 383, "categories": [{"alias": "ethiopian", "title": "Ethiopian"}], "rating": 4.0, "coordinates": {"latitude": 37.776067, "longitude": -122.414074}, "transactions": ["delivery", "pickup"], "price": "$$", "location": {"address1": "121 9th St", "address2": "", "address3": "", "city": "San Francisco", "zip_code": "94103", "country": "US", "state": "CA", "display_address": ["121 9th St", "San Francisco, CA 94103"]}, "phone": "+14154315544", "display_phone": "(415) 431-5544", "distance": 2590.728257416323}, {"id": "8jW9a4WCnMsQSyT0x1MI8Q", "alias": "po-boys-kitchen-san-francisco", "name": "Po\u2019Boys Kitchen", "image_url": "https://s3-media2.fl.yelpcdn.com/bphoto/Qwz_9kxexWLCys7-et1P0A/o.jpg", "is_closed": false, "url": "https://www.yelp.com/biz/po-boys-kitchen-san-francisco?adjust_creative=Klanz-jboxl2XzqrjP6LLw&utm_campaign=yelp_api_v3&utm_medium=api_v3_business_search&utm_source=Klanz-jboxl2XzqrjP6LLw", "review_count": 122, "categories": [{"alias": "southern", "title": "Southern"}, {"alias": "tradamerican", "title": "American (Traditional)"}, {"alias": "sandwiches", "title": "Sandwiches"}], "rating": 4.5, "coordinates": {"latitude": 37.7623025861537, "longitude": -122.397311757684}, "transactions": ["delivery", "pickup"], "price": "$$", "location": {"address1": "317 Connecticut St", "address2": "", "address3": null, "city": "San Francisco", "zip_code": "94107", "country": "US", "state": "CA", "display_address": ["317 Connecticut St", "San Francisco, CA 94107"]}, "phone": "+14155254088", "display_phone": "(415) 525-4088", "distance": 3443.802369645898}, {"id": "iWnI7jmppz4-nn2r_FXwHg", "alias": "watershed-mill-valley", "name": "Watershed", "image_url": "https://s3-media2.fl.yelpcdn.com/bphoto/9Wd_TSyyHHj4FkWRMiUQjw/o.jpg", "is_closed": false, "url": "https://www.yelp.com/biz/watershed-mill-valley?adjust_creative=Klanz-jboxl2XzqrjP6LLw&utm_campaign=yelp_api_v3&utm_medium=api_v3_business_search&utm_source=Klanz-jboxl2XzqrjP6LLw", "review_count": 128, "categories": [{"alias": "newamerican", "title": "American (New)"}], "rating": 4.0, "coordinates": {"latitude": 37.90358901251195, "longitude": -122.54443474388091}, "transactions": [], "location": {"address1": "129 Miller Ave", "address2": "Ste 500", "address3": null, "city": "Mill Valley", "zip_code": "94941", "country": "US", "state": "CA", "display_address": ["129 Miller Ave", "Ste 500", "Mill Valley, CA 94941"]}, "phone": "+14158882406", "display_phone": "(415) 888-2406", "distance": 18484.65936965313}, {"id": "qvGED1YA1lt_wrbP92RVZA", "alias": "kibatsu-san-francisco", "name": "Kibatsu", "image_url": "https://s3-media4.fl.yelpcdn.com/bphoto/lzOFTkbitbmm-oOBahmQsw/o.jpg", "is_closed": false, "url": "https://www.yelp.com/biz/kibatsu-san-francisco?adjust_creative=Klanz-jboxl2XzqrjP6LLw&utm_campaign=yelp_api_v3&utm_medium=api_v3_business_search&utm_source=Klanz-jboxl2XzqrjP6LLw", "review_count": 240, "categories": [{"alias": "sushi", "title": "Sushi Bars"}, {"alias": "japanese", "title": "Japanese"}], "rating": 4.5, "coordinates": {"latitude": 37.77243, "longitude": -122.42899}, "transactions": ["delivery", "pickup", "restaurant_reservation"], "price": "$$$", "location": {"address1": "400 Haight St", "address2": "", "address3": null, "city": "San Francisco", "zip_code": "94117", "country": "US", "state": "CA", "display_address": ["400 Haight St", "San Francisco, CA 94117"]}, "phone": "+14158729636", "display_phone": "(415) 872-9636", "distance": 1444.631536218594}, {"id": "AtFGQccBpgEZzsy9V1330Q", "alias": "lily-san-francisco", "name": "Lily", "image_url": "https://s3-media2.fl.yelpcdn.com/bphoto/X-dgyeI8RijCWSkuK0gyZg/o.jpg", "is_closed": false, "url": "https://www.yelp.com/biz/lily-san-francisco?adjust_creative=Klanz-jboxl2XzqrjP6LLw&utm_campaign=yelp_api_v3&utm_medium=api_v3_business_search&utm_source=Klanz-jboxl2XzqrjP6LLw", "review_count": 210, "categories": [{"alias": "vietnamese", "title": "Vietnamese"}], "rating": 4.0, "coordinates": {"latitude": 37.782826, "longitude": -122.461686}, "transactions": ["delivery", "pickup"], "location": {"address1": "225 Clement St", "address2": null, "address3": null, "city": "San Francisco", "zip_code": "94118", "country": "US", "state": "CA", "display_address": ["225 Clement St", "San Francisco, CA 94118"]}, "phone": "+14157425285", "display_phone": "(415) 742-5285", "distance": 3299.107317666393}, {"id": "mNFQuOA_hhrqmJeHg-AzKA", "alias": "rue-lepic-san-francisco", "name": "Rue Lepic", "image_url": "https://s3-media4.fl.yelpcdn.com/bphoto/_hoETBS07SbSStI8kJ3eZg/o.jpg", "is_closed": false, "url": "https://www.yelp.com/biz/rue-lepic-san-francisco?adjust_creative=Klanz-jboxl2XzqrjP6LLw&utm_campaign=yelp_api_v3&utm_medium=api_v3_business_search&utm_source=Klanz-jboxl2XzqrjP6LLw", "review_count": 323, "categories": [{"alias": "french", "title": "French"}], "rating": 4.0, "coordinates": {"latitude": 37.7909867, "longitude": -122.4108429}, "transactions": ["delivery", "pickup"], "price": "$$$", "location": {"address1": "900 Pine St", "address2": "", "address3": "", "city": "San Francisco", "zip_code": "94108", "country": "US", "state": "CA", "display_address": ["900 Pine St", "San Francisco, CA 94108"]}, "phone": "+14154746070", "display_phone": "(415) 474-6070", "distance": 4031.971952722591}, {"id": "yyi2GpG_p7TX7XAq_eHSZA", "alias": "boudin-bakery-and-cafe-san-francisco-7", "name": "Boudin Bakery & Cafe", "image_url": "https://s3-media4.fl.yelpcdn.com/bphoto/rDVvWFk7tMGdphnF6tdHDw/o.jpg", "is_closed": false, "url": "https://www.yelp.com/biz/boudin-bakery-and-cafe-san-francisco-7?adjust_creative=Klanz-jboxl2XzqrjP6LLw&utm_campaign=yelp_api_v3&utm_medium=api_v3_business_search&utm_source=Klanz-jboxl2XzqrjP6LLw", "review_count": 3962, "categories": [{"alias": "bakeries", "title": "Bakeries"}, {"alias": "salad", "title": "Salad"}, {"alias": "sandwiches", "title": "Sandwiches"}], "rating": 4.0, "coordinates": {"latitude": 37.808507, "longitude": -122.4149047308367}, "transactions": ["delivery", "pickup"], "price": "$$", "location": {"address1": "160 Jefferson St", "address2": "Fl 2", "address3": "", "city": "San Francisco", "zip_code": "94133", "country": "US", "state": "CA", "display_address": ["160 Jefferson St", "Fl 2", "San Francisco, CA 94133"]}, "phone": "+14153515561", "display_phone": "(415) 351-5561", "distance": 5622.04677817921}, {"id": "aK_4VuHnDlanajeTI77qqQ", "alias": "white-horse-tavern-and-restaurant-san-francisco", "name": "White Horse Tavern & Restaurant", "image_url": "https://s3-media3.fl.yelpcdn.com/bphoto/YeepOrKCCf6J7qTHtuukBA/o.jpg", "is_closed": false, "url": "https://www.yelp.com/biz/white-horse-tavern-and-restaurant-san-francisco?adjust_creative=Klanz-jboxl2XzqrjP6LLw&utm_campaign=yelp_api_v3&utm_medium=api_v3_business_search&utm_source=Klanz-jboxl2XzqrjP6LLw", "review_count": 278, "categories": [{"alias": "pubs", "title": "Pubs"}, {"alias": "tradamerican", "title": "American (Traditional)"}], "rating": 3.5, "coordinates": {"latitude": 37.78866, "longitude": -122.41086}, "transactions": [], "price": "$$", "location": {"address1": "635 Sutter St", "address2": "", "address3": "Hotel Beresford", "city": "San Francisco", "zip_code": "94102", "country": "US", "state": "CA", "display_address": ["635 Sutter St", "Hotel Beresford", "San Francisco, CA 94102"]}, "phone": "+14156739900", "display_phone": "(415) 673-9900", "distance": 3809.5389655705308}, {"id": "ufIm7isxE9blLhnVJ6EHGQ", "alias": "the-melt-455-market-san-francisco", "name": "The Melt - 455 Market", "image_url": "https://s3-media2.fl.yelpcdn.com/bphoto/Ax9W1eHhOHPJqyDKeHBmBw/o.jpg", "is_closed": false, "url": "https://www.yelp.com/biz/the-melt-455-market-san-francisco?adjust_creative=Klanz-jboxl2XzqrjP6LLw&utm_campaign=yelp_api_v3&utm_medium=api_v3_business_search&utm_source=Klanz-jboxl2XzqrjP6LLw", "review_count": 309, "categories": [{"alias": "newamerican", "title": "American (New)"}, {"alias": "burgers", "title": "Burgers"}, {"alias": "sandwiches", "title": "Sandwiches"}], "rating": 4.5, "coordinates": {"latitude": 37.79095, "longitude": -122.39863}, "transactions": ["delivery", "pickup"], "price": "$$", "location": {"address1": "455 Market St", "address2": null, "address3": "Market and 1st", "city": "San Francisco", "zip_code": "94105", "country": "US", "state": "CA", "display_address": ["455 Market St", "Market and 1st", "San Francisco, CA 94105"]}, "phone": "+14152879819", "display_phone": "(415) 287-9819", "distance": 4711.519452723227}, {"id": "yt86SitQ8PYi4j9myIkZPQ", "alias": "lions-den-bar-and-lounge-san-francisco", "name": "Lion's Den Bar and Lounge", "image_url": "https://s3-media4.fl.yelpcdn.com/bphoto/SpVQgvC82_JMxdgJ1CDiPw/o.jpg", "is_closed": false, "url": "https://www.yelp.com/biz/lions-den-bar-and-lounge-san-francisco?adjust_creative=Klanz-jboxl2XzqrjP6LLw&utm_campaign=yelp_api_v3&utm_medium=api_v3_business_search&utm_source=Klanz-jboxl2XzqrjP6LLw", "review_count": 33, "categories": [{"alias": "lounges", "title": "Lounges"}, {"alias": "djs", "title": "DJs"}, {"alias": "musicvenues", "title": "Music Venues"}], "rating": 5.0, "coordinates": {"latitude": 37.7957268407889, "longitude": -122.4063578021377}, "transactions": [], "price": "$$", "location": {"address1": "57 Wentworth Pl", "address2": "", "address3": null, "city": "San Francisco", "zip_code": "94108", "country": "US", "state": "CA", "display_address": ["57 Wentworth Pl", "San Francisco, CA 94108"]}, "phone": "+16282014272", "display_phone": "(628) 201-4272", "distance": 4689.396657684326}, {"id": "JicMvKPmRHqLl4xuW8yeXA", "alias": "whitechapel-san-francisco-2", "name": "Whitechapel", "image_url": "https://s3-media1.fl.yelpcdn.com/bphoto/Lrqc8Gal553gffmRQYONGw/o.jpg", "is_closed": false, "url": "https://www.yelp.com/biz/whitechapel-san-francisco-2?adjust_creative=Klanz-jboxl2XzqrjP6LLw&utm_campaign=yelp_api_v3&utm_medium=api_v3_business_search&utm_source=Klanz-jboxl2XzqrjP6LLw", "review_count": 474, "categories": [{"alias": "newamerican", "title": "American (New)"}, {"alias": "cocktailbars", "title": "Cocktail Bars"}, {"alias": "british", "title": "British"}], "rating": 4.0, "coordinates": {"latitude": 37.7824077817325, "longitude": -122.418771721423}, "transactions": ["delivery", "pickup"], "price": "$$", "location": {"address1": "600 Polk St", "address2": "", "address3": "", "city": "San Francisco", "zip_code": "94102", "country": "US", "state": "CA", "display_address": ["600 Polk St", "San Francisco, CA 94102"]}, "phone": "", "display_phone": "", "distance": 2851.9219193060453}, {"id": "AAw1s9gOa80xG-dENugWEg", "alias": "the-seven-stills-brewery-and-distillery-san-francisco-3", "name": "The Seven Stills Brewery & Distillery", "image_url": "https://s3-media3.fl.yelpcdn.com/bphoto/H1QgthOCCvIvgW0PDqc_cQ/o.jpg", "is_closed": false, "url": "https://www.yelp.com/biz/the-seven-stills-brewery-and-distillery-san-francisco-3?adjust_creative=Klanz-jboxl2XzqrjP6LLw&utm_campaign=yelp_api_v3&utm_medium=api_v3_business_search&utm_source=Klanz-jboxl2XzqrjP6LLw", "review_count": 188, "categories": [{"alias": "breweries", "title": "Breweries"}, {"alias": "distilleries", "title": "Distilleries"}, {"alias": "cocktailbars", "title": "Cocktail Bars"}], "rating": 4.0, "coordinates": {"latitude": 37.7682934496149, "longitude": -122.399422635721}, "transactions": ["delivery", "pickup"], "price": "$$", "location": {"address1": "100 Hooper St", "address2": "Ste 4", "address3": "", "city": "San Francisco", "zip_code": "94107", "country": "US", "state": "CA", "display_address": ["100 Hooper St", "Ste 4", "San Francisco, CA 94107"]}, "phone": "+14157570178", "display_phone": "(415) 757-0178", "distance": 3356.818635729797}, {"id": "A48hNce1axs5Rs8KCekwgQ", "alias": "le-garage-sausalito", "name": "Le Garage", "image_url": "https://s3-media2.fl.yelpcdn.com/bphoto/lu5MOA0_mry7xZrlKMeLqg/o.jpg", "is_closed": false, "url": "https://www.yelp.com/biz/le-garage-sausalito?adjust_creative=Klanz-jboxl2XzqrjP6LLw&utm_campaign=yelp_api_v3&utm_medium=api_v3_business_search&utm_source=Klanz-jboxl2XzqrjP6LLw", "review_count": 1629, "categories": [{"alias": "french", "title": "French"}, {"alias": "breakfast_brunch", "title": "Breakfast & Brunch"}, {"alias": "wine_bars", "title": "Wine Bars"}], "rating": 4.0, "coordinates": {"latitude": 37.8637241488, "longitude": -122.491174439}, "transactions": ["delivery", "pickup", "restaurant_reservation"], "price": "$$", "location": {"address1": "85 Liberty Ship Way", "address2": "Ste 109", "address3": "", "city": "Sausalito", "zip_code": "94965", "country": "US", "state": "CA", "display_address": ["85 Liberty Ship Way", "Ste 109", "Sausalito, CA 94965"]}, "phone": "+14153325625", "display_phone": "(415) 332-5625", "distance": 12403.21450808289}, {"id": "ssI9ivccrDBT-RH_52fPBQ", "alias": "greens-restaurant-san-francisco-5", "name": "Greens Restaurant", "image_url": "https://s3-media3.fl.yelpcdn.com/bphoto/aTlxXQRqnrAZSk2sCa2H6g/o.jpg", "is_closed": false, "url": "https://www.yelp.com/biz/greens-restaurant-san-francisco-5?adjust_creative=Klanz-jboxl2XzqrjP6LLw&utm_campaign=yelp_api_v3&utm_medium=api_v3_business_search&utm_source=Klanz-jboxl2XzqrjP6LLw", "review_count": 2172, "categories": [{"alias": "vegetarian", "title": "Vegetarian"}, {"alias": "vegan", "title": "Vegan"}, {"alias": "gluten_free", "title": "Gluten-Free"}], "rating": 4.0, "coordinates": {"latitude": 37.80668033302732, "longitude": -122.43210032743212}, "transactions": ["delivery", "pickup"], "price": "$$$", "location": {"address1": "2 Marina Blvd", "address2": "Bldg A", "address3": "Fort Mason", "city": "San Francisco", "zip_code": "94123", "country": "US", "state": "CA", "display_address": ["2 Marina Blvd", "Bldg A", "Fort Mason", "San Francisco, CA 94123"]}, "phone": "+14157716222", "display_phone": "(415) 771-6222", "distance": 5104.915541217035}, {"id": "8MMhiZdt1QD4r8os_hKEvg", "alias": "fly-bar-san-francisco", "name": "Fly Bar", "image_url": "https://s3-media2.fl.yelpcdn.com/bphoto/3vPSRX9ozSyi2sDyXJga3Q/o.jpg", "is_closed": false, "url": "https://www.yelp.com/biz/fly-bar-san-francisco?adjust_creative=Klanz-jboxl2XzqrjP6LLw&utm_campaign=yelp_api_v3&utm_medium=api_v3_business_search&utm_source=Klanz-jboxl2XzqrjP6LLw", "review_count": 759, "categories": [{"alias": "tradamerican", "title": "American (Traditional)"}, {"alias": "beer_and_wine", "title": "Beer, Wine & Spirits"}], "rating": 4.0, "coordinates": {"latitude": 37.77675, "longitude": -122.43785}, "transactions": ["delivery", "pickup"], "price": "$$", "location": {"address1": "762 Divisadero St", "address2": "", "address3": "", "city": "San Francisco", "zip_code": "94117", "country": "US", "state": "CA", "display_address": ["762 Divisadero St", "San Francisco, CA 94117"]}, "phone": "+14157801630", "display_phone": "(415) 780-1630", "distance": 1766.563495577208}, {"id": "cX5dOMkwZ5rqWbeIJpw_Ig", "alias": "novela-san-francisco-2", "name": "Novela", "image_url": "https://s3-media2.fl.yelpcdn.com/bphoto/BMME0TMEneVykmQyxMJnYg/o.jpg", "is_closed": false, "url": "https://www.yelp.com/biz/novela-san-francisco-2?adjust_creative=Klanz-jboxl2XzqrjP6LLw&utm_campaign=yelp_api_v3&utm_medium=api_v3_business_search&utm_source=Klanz-jboxl2XzqrjP6LLw", "review_count": 1224, "categories": [{"alias": "cocktailbars", "title": "Cocktail Bars"}, {"alias": "lounges", "title": "Lounges"}, {"alias": "venues", "title": "Venues & Event Spaces"}], "rating": 4.0, "coordinates": {"latitude": 37.787047, "longitude": -122.401239}, "transactions": ["delivery", "pickup", "restaurant_reservation"], "price": "$$", "location": {"address1": "662 Mission St", "address2": "", "address3": "", "city": "San Francisco", "zip_code": "94105", "country": "US", "state": "CA", "display_address": ["662 Mission St", "San Francisco, CA 94105"]}, "phone": "+14158966500", "display_phone": "(415) 896-6500", "distance": 4246.111787375533}, {"id": "eQtJR9FsTl6v-EnzVeHDcg", "alias": "elephant-sushi-san-francisco-7", "name": "Elephant Sushi", "image_url": "https://s3-media1.fl.yelpcdn.com/bphoto/6LhDIl-8L9ISQkrV4QvgpQ/o.jpg", "is_closed": false, "url": "https://www.yelp.com/biz/elephant-sushi-san-francisco-7?adjust_creative=Klanz-jboxl2XzqrjP6LLw&utm_campaign=yelp_api_v3&utm_medium=api_v3_business_search&utm_source=Klanz-jboxl2XzqrjP6LLw", "review_count": 307, "categories": [{"alias": "sushi", "title": "Sushi Bars"}, {"alias": "japanese", "title": "Japanese"}, {"alias": "seafood", "title": "Seafood"}], "rating": 4.5, "coordinates": {"latitude": 37.78629, "longitude": -122.41499}, "transactions": ["delivery", "pickup"], "price": "$$", "location": {"address1": "705 Geary St", "address2": null, "address3": "", "city": "San Francisco", "zip_code": "94109", "country": "US", "state": "CA", "display_address": ["705 Geary St", "San Francisco, CA 94109"]}, "phone": "+14153747186", "display_phone": "(415) 374-7186", "distance": 3395.5328682030467}, {"id": "MgQPLInlgk_vw_sfZr5wSw", "alias": "the-page-san-francisco", "name": "The Page", "image_url": "https://s3-media4.fl.yelpcdn.com/bphoto/WQRlLXvaUej-0ASvZYyKUA/o.jpg", "is_closed": false, "url": "https://www.yelp.com/biz/the-page-san-francisco?adjust_creative=Klanz-jboxl2XzqrjP6LLw&utm_campaign=yelp_api_v3&utm_medium=api_v3_business_search&utm_source=Klanz-jboxl2XzqrjP6LLw", "review_count": 492, "categories": [{"alias": "bars", "title": "Bars"}, {"alias": "poolhalls", "title": "Pool Halls"}], "rating": 3.5, "coordinates": {"latitude": 37.772333, "longitude": -122.436933}, "transactions": [], "price": "$", "location": {"address1": "298 Divisadero St", "address2": "", "address3": "", "city": "San Francisco", "zip_code": "94117", "country": "US", "state": "CA", "display_address": ["298 Divisadero St", "San Francisco, CA 94117"]}, "phone": "+14152556101", "display_phone": "(415) 255-6101", "distance": 1272.0751444436705}, {"id": "4MJp_WZa6zFx4N6fL9RDMg", "alias": "red-window-san-francisco", "name": "Red Window", "image_url": "https://s3-media1.fl.yelpcdn.com/bphoto/z4InWBPR6JhlpZDCiskUpQ/o.jpg", "is_closed": false, "url": "https://www.yelp.com/biz/red-window-san-francisco?adjust_creative=Klanz-jboxl2XzqrjP6LLw&utm_campaign=yelp_api_v3&utm_medium=api_v3_business_search&utm_source=Klanz-jboxl2XzqrjP6LLw", "review_count": 84, "categories": [{"alias": "spanish", "title": "Spanish"}, {"alias": "cocktailbars", "title": "Cocktail Bars"}], "rating": 4.0, "coordinates": {"latitude": 37.799821, "longitude": -122.409242}, "transactions": [], "location": {"address1": "500 Columbus Ave", "address2": null, "address3": "", "city": "San Francisco", "zip_code": "94133", "country": "US", "state": "CA", "display_address": ["500 Columbus Ave", "San Francisco, CA 94133"]}, "phone": "+14157570600", "display_phone": "(415) 757-0600", "distance": 4947.118535306635}, {"id": "w8FENzEJt0v1gPx568N0iA", "alias": "pho-huong-viet-san-francisco", "name": "Pho Huong Viet", "image_url": "https://s3-media1.fl.yelpcdn.com/bphoto/iLB8qBMDw9dR2sSXhEkbAA/o.jpg", "is_closed": false, "url": "https://www.yelp.com/biz/pho-huong-viet-san-francisco?adjust_creative=Klanz-jboxl2XzqrjP6LLw&utm_campaign=yelp_api_v3&utm_medium=api_v3_business_search&utm_source=Klanz-jboxl2XzqrjP6LLw", "review_count": 112, "categories": [{"alias": "vietnamese", "title": "Vietnamese"}], "rating": 4.5, "coordinates": {"latitude": 37.77995, "longitude": -122.48105}, "transactions": [], "price": "$$", "location": {"address1": "5733 Geary Blvd", "address2": null, "address3": "", "city": "San Francisco", "zip_code": "94121", "country": "US", "state": "CA", "display_address": ["5733 Geary Blvd", "San Francisco, CA 94121"]}, "phone": "+14157026177", "display_phone": "(415) 702-6177", "distance": 4459.68149332107}, {"id": "oibaW-5yuiKVS5o_CcvzIg", "alias": "izakaya-mayumi-san-francisco", "name": "Izakaya Mayumi", "image_url": "https://s3-media4.fl.yelpcdn.com/bphoto/86o0ZlzpCbgRg1xzoDR8ug/o.jpg", "is_closed": false, "url": "https://www.yelp.com/biz/izakaya-mayumi-san-francisco?adjust_creative=Klanz-jboxl2XzqrjP6LLw&utm_campaign=yelp_api_v3&utm_medium=api_v3_business_search&utm_source=Klanz-jboxl2XzqrjP6LLw", "review_count": 68, "categories": [{"alias": "izakaya", "title": "Izakaya"}], "rating": 4.5, "coordinates": {"latitude": 37.78195, "longitude": -122.48316}, "transactions": ["delivery", "pickup"], "location": {"address1": "2221 Clement St", "address2": "", "address3": null, "city": "San Francisco", "zip_code": "94121", "country": "US", "state": "CA", "display_address": ["2221 Clement St", "San Francisco, CA 94121"]}, "phone": "+14157424159", "display_phone": "(415) 742-4159", "distance": 4727.4974345442415}, {"id": "-BKIqDQ3CawzwyN9kW1-FQ", "alias": "mangrove-kitchen-san-francisco", "name": "Mangrove Kitchen", "image_url": "https://s3-media2.fl.yelpcdn.com/bphoto/5p-s9YIaFxhZUpApYtjAcQ/o.jpg", "is_closed": false, "url": "https://www.yelp.com/biz/mangrove-kitchen-san-francisco?adjust_creative=Klanz-jboxl2XzqrjP6LLw&utm_campaign=yelp_api_v3&utm_medium=api_v3_business_search&utm_source=Klanz-jboxl2XzqrjP6LLw", "review_count": 312, "categories": [{"alias": "thai", "title": "Thai"}, {"alias": "ramen", "title": "Ramen"}], "rating": 4.0, "coordinates": {"latitude": 37.77251, "longitude": -122.43696}, "transactions": ["delivery", "pickup"], "price": "$$", "location": {"address1": "312 Divisadero St", "address2": "", "address3": null, "city": "San Francisco", "zip_code": "94117", "country": "US", "state": "CA", "display_address": ["312 Divisadero St", "San Francisco, CA 94117"]}, "phone": "+14155526881", "display_phone": "(415) 552-6881", "distance": 1292.4569284214758}, {"id": "nmxDOuxnfKi7f-oCUK4aYg", "alias": "h\u1ed9i-an-1608-san-francisco-2", "name": "H\u1ed9i An 1608", "image_url": "https://s3-media3.fl.yelpcdn.com/bphoto/s15qVjc3NvKbmt8s9Gc8LQ/o.jpg", "is_closed": false, "url": "https://www.yelp.com/biz/h%E1%BB%99i-an-1608-san-francisco-2?adjust_creative=Klanz-jboxl2XzqrjP6LLw&utm_campaign=yelp_api_v3&utm_medium=api_v3_business_search&utm_source=Klanz-jboxl2XzqrjP6LLw", "review_count": 97, "categories": [{"alias": "vietnamese", "title": "Vietnamese"}], "rating": 4.0, "coordinates": {"latitude": 37.79177766405874, "longitude": -122.4207245625652}, "transactions": ["delivery", "pickup", "restaurant_reservation"], "location": {"address1": "1608 Polk St", "address2": "", "address3": null, "city": "San Francisco", "zip_code": "94109", "country": "US", "state": "CA", "display_address": ["1608 Polk St", "San Francisco, CA 94109"]}, "phone": "+14158888870", "display_phone": "(415) 888-8870", "distance": 3701.1411554557358}, {"id": "aud84H-NpMx3opWPtLX-vg", "alias": "bourbon-and-branch-san-francisco", "name": "Bourbon & Branch", "image_url": "https://s3-media4.fl.yelpcdn.com/bphoto/3bNt1EquRx99QRhsjzf8Ww/o.jpg", "is_closed": false, "url": "https://www.yelp.com/biz/bourbon-and-branch-san-francisco?adjust_creative=Klanz-jboxl2XzqrjP6LLw&utm_campaign=yelp_api_v3&utm_medium=api_v3_business_search&utm_source=Klanz-jboxl2XzqrjP6LLw", "review_count": 3137, "categories": [{"alias": "speakeasies", "title": "Speakeasies"}, {"alias": "libraries", "title": "Libraries"}], "rating": 4.0, "coordinates": {"latitude": 37.78592, "longitude": -122.41336}, "transactions": ["restaurant_reservation"], "price": "$$$", "location": {"address1": "501 Jones St", "address2": "", "address3": "", "city": "San Francisco", "zip_code": "94102", "country": "US", "state": "CA", "display_address": ["501 Jones St", "San Francisco, CA 94102"]}, "phone": "+14153461735", "display_phone": "(415) 346-1735", "distance": 3452.0066376689438}, {"id": "wb17yCMbjgDOqaGwTVLeVQ", "alias": "tara-indian-cuisine-san-francisco", "name": "Tara Indian Cuisine", "image_url": "https://s3-media2.fl.yelpcdn.com/bphoto/Fk3d7PAlPyCHEGVAQ4AA_Q/o.jpg", "is_closed": false, "url": "https://www.yelp.com/biz/tara-indian-cuisine-san-francisco?adjust_creative=Klanz-jboxl2XzqrjP6LLw&utm_campaign=yelp_api_v3&utm_medium=api_v3_business_search&utm_source=Klanz-jboxl2XzqrjP6LLw", "review_count": 402, "categories": [{"alias": "indpak", "title": "Indian"}], "rating": 4.0, "coordinates": {"latitude": 37.7654084, "longitude": -122.4312271}, "transactions": ["delivery", "pickup"], "price": "$$", "location": {"address1": "2217 Market St", "address2": "", "address3": "", "city": "San Francisco", "zip_code": "94114", "country": "US", "state": "CA", "display_address": ["2217 Market St", "San Francisco, CA 94114"]}, "phone": "+14158616655", "display_phone": "(415) 861-6655", "distance": 659.748806053751}, {"id": "UpXkkAMbb7LAMh2g7Xwddg", "alias": "hopscotch-oakland", "name": "Hopscotch", "image_url": "https://s3-media1.fl.yelpcdn.com/bphoto/Zuse5tAw_Xv4IChAXPSMlQ/o.jpg", "is_closed": false, "url": "https://www.yelp.com/biz/hopscotch-oakland?adjust_creative=Klanz-jboxl2XzqrjP6LLw&utm_campaign=yelp_api_v3&utm_medium=api_v3_business_search&utm_source=Klanz-jboxl2XzqrjP6LLw", "review_count": 1562, "categories": [{"alias": "newamerican", "title": "American (New)"}, {"alias": "venues", "title": "Venues & Event Spaces"}, {"alias": "breakfast_brunch", "title": "Breakfast & Brunch"}], "rating": 4.0, "coordinates": {"latitude": 37.80919, "longitude": -122.27316}, "transactions": ["delivery"], "price": "$$", "location": {"address1": "1915 San Pablo Ave", "address2": "", "address3": "", "city": "Oakland", "zip_code": "94612", "country": "US", "state": "CA", "display_address": ["1915 San Pablo Ave", "Oakland, CA 94612"]}, "phone": "+15107886217", "display_phone": "(510) 788-6217", "distance": 15326.5943395036}, {"id": "7hi9bFJQyiMDqaW8fcSLDQ", "alias": "etcetera-wine-bar-san-francisco-3", "name": "Etcetera Wine Bar", "image_url": "https://s3-media3.fl.yelpcdn.com/bphoto/WLt20EEM2pDf8jyjLXsx7Q/o.jpg", "is_closed": false, "url": "https://www.yelp.com/biz/etcetera-wine-bar-san-francisco-3?adjust_creative=Klanz-jboxl2XzqrjP6LLw&utm_campaign=yelp_api_v3&utm_medium=api_v3_business_search&utm_source=Klanz-jboxl2XzqrjP6LLw", "review_count": 408, "categories": [{"alias": "wine_bars", "title": "Wine Bars"}, {"alias": "newamerican", "title": "American (New)"}, {"alias": "tapasmallplates", "title": "Tapas/Small Plates"}], "rating": 4.0, "coordinates": {"latitude": 37.7603074881786, "longitude": -122.421310350638}, "transactions": ["delivery", "pickup"], "price": "$$", "location": {"address1": "795 Valencia St", "address2": "", "address3": "", "city": "San Francisco", "zip_code": "94110", "country": "US", "state": "CA", "display_address": ["795 Valencia St", "San Francisco, CA 94110"]}, "phone": "+14159265477", "display_phone": "(415) 926-5477", "distance": 1332.2714741997831}, {"id": "MVBVTAG2iJL_BX0sqWAmFg", "alias": "taco-bell-san-francisco-22", "name": "Taco Bell", "image_url": "https://s3-media1.fl.yelpcdn.com/bphoto/_P_mfXiqiM02ZwgDBKrnZg/o.jpg", "is_closed": false, "url": "https://www.yelp.com/biz/taco-bell-san-francisco-22?adjust_creative=Klanz-jboxl2XzqrjP6LLw&utm_campaign=yelp_api_v3&utm_medium=api_v3_business_search&utm_source=Klanz-jboxl2XzqrjP6LLw", "review_count": 265, "categories": [{"alias": "mexican", "title": "Mexican"}, {"alias": "hotdogs", "title": "Fast Food"}], "rating": 2.5, "coordinates": {"latitude": 37.778622, "longitude": -122.392791}, "transactions": ["delivery"], "price": "$", "location": {"address1": "710 Third Street", "address2": "", "address3": "", "city": "San Francisco", "zip_code": "94107", "country": "US", "state": "CA", "display_address": ["710 Third Street", "San Francisco, CA 94107"]}, "phone": "+14159791587", "display_phone": "(415) 979-1587", "distance": 4313.696803924027}, {"id": "lbH9iQJM4wwgPQI2RL1oPg", "alias": "the-tipsy-pig-san-francisco-2", "name": "The Tipsy Pig", "image_url": "https://s3-media2.fl.yelpcdn.com/bphoto/7JsgD5t41JiNomrCcbpvPw/o.jpg", "is_closed": false, "url": "https://www.yelp.com/biz/the-tipsy-pig-san-francisco-2?adjust_creative=Klanz-jboxl2XzqrjP6LLw&utm_campaign=yelp_api_v3&utm_medium=api_v3_business_search&utm_source=Klanz-jboxl2XzqrjP6LLw", "review_count": 1599, "categories": [{"alias": "gastropubs", "title": "Gastropubs"}, {"alias": "bars", "title": "Bars"}, {"alias": "newamerican", "title": "American (New)"}], "rating": 3.5, "coordinates": {"latitude": 37.800265985505, "longitude": -122.44008192485}, "transactions": ["delivery", "restaurant_reservation"], "price": "$$", "location": {"address1": "2231 Chestnut St", "address2": "", "address3": "", "city": "San Francisco", "zip_code": "94123", "country": "US", "state": "CA", "display_address": ["2231 Chestnut St", "San Francisco, CA 94123"]}, "phone": "+14152922300", "display_phone": "(415) 292-2300", "distance": 4389.001030987915}, {"id": "XhbkZ-5nUJ3bRy7uKPx7iQ", "alias": "mr-szechuan-san-francisco", "name": "Mr Szechuan", "image_url": "https://s3-media3.fl.yelpcdn.com/bphoto/lFs0UWLYhefpDnmKRWTOAQ/o.jpg", "is_closed": false, "url": "https://www.yelp.com/biz/mr-szechuan-san-francisco?adjust_creative=Klanz-jboxl2XzqrjP6LLw&utm_campaign=yelp_api_v3&utm_medium=api_v3_business_search&utm_source=Klanz-jboxl2XzqrjP6LLw", "review_count": 378, "categories": [{"alias": "chinese", "title": "Chinese"}, {"alias": "bubbletea", "title": "Bubble Tea"}, {"alias": "shavedice", "title": "Shaved Ice"}], "rating": 4.5, "coordinates": {"latitude": 37.74331, "longitude": -122.47544}, "transactions": ["delivery", "pickup"], "price": "$$", "location": {"address1": "890 Taraval St", "address2": null, "address3": "", "city": "San Francisco", "zip_code": "94116", "country": "US", "state": "CA", "display_address": ["890 Taraval St", "San Francisco, CA 94116"]}, "phone": "+14157538788", "display_phone": "(415) 753-8788", "distance": 3950.3726208624685}, {"id": "4-pWX0F9mi_VlN1IAxweSQ", "alias": "park-tavern-san-francisco", "name": "Park Tavern", "image_url": "https://s3-media1.fl.yelpcdn.com/bphoto/p20pdvywl90dwCYg5sgylg/o.jpg", "is_closed": false, "url": "https://www.yelp.com/biz/park-tavern-san-francisco?adjust_creative=Klanz-jboxl2XzqrjP6LLw&utm_campaign=yelp_api_v3&utm_medium=api_v3_business_search&utm_source=Klanz-jboxl2XzqrjP6LLw", "review_count": 1589, "categories": [{"alias": "newamerican", "title": "American (New)"}, {"alias": "breakfast_brunch", "title": "Breakfast & Brunch"}, {"alias": "gastropubs", "title": "Gastropubs"}], "rating": 4.0, "coordinates": {"latitude": 37.80113, "longitude": -122.409}, "transactions": ["delivery"], "price": "$$$", "location": {"address1": "1652 Stockton St", "address2": "", "address3": "", "city": "San Francisco", "zip_code": "94133", "country": "US", "state": "CA", "display_address": ["1652 Stockton St", "San Francisco, CA 94133"]}, "phone": "+14159897300", "display_phone": "(415) 989-7300", "distance": 5070.870745551253}, {"id": "bD9oSfgoygPFW3Po4rZeZg", "alias": "mandarin-house-sf-san-francisco", "name": "Mandarin House SF", "image_url": "https://s3-media1.fl.yelpcdn.com/bphoto/asbahh4wvYVnQkjajeVz5g/o.jpg", "is_closed": false, "url": "https://www.yelp.com/biz/mandarin-house-sf-san-francisco?adjust_creative=Klanz-jboxl2XzqrjP6LLw&utm_campaign=yelp_api_v3&utm_medium=api_v3_business_search&utm_source=Klanz-jboxl2XzqrjP6LLw", "review_count": 186, "categories": [{"alias": "chinese", "title": "Chinese"}], "rating": 3.5, "coordinates": {"latitude": 37.74153, "longitude": -122.4228}, "transactions": ["delivery", "pickup"], "price": "$$", "location": {"address1": "3452 Mission St", "address2": "", "address3": "", "city": "San Francisco", "zip_code": "94110", "country": "US", "state": "CA", "display_address": ["3452 Mission St", "San Francisco, CA 94110"]}, "phone": "+14152826898", "display_phone": "(415) 282-6898", "distance": 2465.217080402038}, {"id": "yC5ATYRQah7MjeTiRsGcvA", "alias": "dinosaurs-san-francisco-4", "name": "Dinosaurs", "image_url": "https://s3-media1.fl.yelpcdn.com/bphoto/sGCK8gDo7DhzG3NbsiRSbg/o.jpg", "is_closed": false, "url": "https://www.yelp.com/biz/dinosaurs-san-francisco-4?adjust_creative=Klanz-jboxl2XzqrjP6LLw&utm_campaign=yelp_api_v3&utm_medium=api_v3_business_search&utm_source=Klanz-jboxl2XzqrjP6LLw", "review_count": 929, "categories": [{"alias": "vietnamese", "title": "Vietnamese"}, {"alias": "sandwiches", "title": "Sandwiches"}], "rating": 4.0, "coordinates": {"latitude": 37.764452, "longitude": -122.431978}, "transactions": ["delivery", "pickup"], "price": "$", "location": {"address1": "2275 Market St", "address2": "", "address3": "", "city": "San Francisco", "zip_code": "94114", "country": "US", "state": "CA", "display_address": ["2275 Market St", "San Francisco, CA 94114"]}, "phone": "+14155031421", "display_phone": "(415) 503-1421", "distance": 557.127397879167}, {"id": "5zIbUhiM1L71YKPylYAk_g", "alias": "rumors-san-francisco-4", "name": "Rumors", "image_url": "https://s3-media2.fl.yelpcdn.com/bphoto/IshMwdXgJk_BVZuuhV9-0A/o.jpg", "is_closed": false, "url": "https://www.yelp.com/biz/rumors-san-francisco-4?adjust_creative=Klanz-jboxl2XzqrjP6LLw&utm_campaign=yelp_api_v3&utm_medium=api_v3_business_search&utm_source=Klanz-jboxl2XzqrjP6LLw", "review_count": 266, "categories": [{"alias": "sportsbars", "title": "Sports Bars"}, {"alias": "tradamerican", "title": "American (Traditional)"}, {"alias": "chicken_wings", "title": "Chicken Wings"}], "rating": 4.0, "coordinates": {"latitude": 37.7754681, "longitude": -122.4066365}, "transactions": ["delivery", "pickup"], "price": "$$", "location": {"address1": "398 7th St", "address2": "", "address3": "", "city": "San Francisco", "zip_code": "94103", "country": "US", "state": "CA", "display_address": ["398 7th St", "San Francisco, CA 94103"]}, "phone": "+14157419691", "display_phone": "(415) 741-9691", "distance": 3080.647207463874}], "total": 5500, "region": {"center": {"longitude": -122.43644714355469, "latitude": 37.76089938976322}}}