{"businesses": [{"id": "x29tzG5M7VbZhpG1jcREKQ", "alias": "cafe-de-casa-san-francisco-3", "name": "Cafe de Casa", "image_url": "https://s3-media3.fl.yelpcdn.com/bphoto/Y2Nf-w5BfjvsI5xJfi8XIA/o.jpg", "is_closed": false, "url": "https://www.yelp.com/biz/cafe-de-casa-san-francisco-3?adjust_creative=Klanz-jboxl2XzqrjP6LLw&utm_campaign=yelp_api_v3&utm_medium=api_v3_business_search&utm_source=Klanz-jboxl2XzqrjP6LLw", "review_count": 476, "categories": [{"alias": "coffee", "title": "Coffee & Tea"}, {"alias": "brazilian", "title": "Brazilian"}, {"alias": "gluten_free", "title": "Gluten-Free"}], "rating": 4.5, "coordinates": {"latitude": 37.8061099, "longitude": -122.41892}, "transactions": ["pickup", "delivery"], "price": "$$", "location": {"address1": "2701 Leavenworth St", "address2": null, "address3": "", "city": "San Francisco", "zip_code": "94133", "country": "US", "state": "CA", "display_address": ["2701 Leavenworth St", "San Francisco, CA 94133"]}, "phone": "+14153451055", "display_phone": "(415) 345-1055", "distance": 5255.301571218139}, {"id": "Z9mIWDhxX3Bdow8fF-LJAg", "alias": "pianofight-san-francisco", "name": "PianoFight", "image_url": "https://s3-media1.fl.yelpcdn.com/bphoto/jnrn_s_6sv4fAEw6B4tdRQ/o.jpg", "is_closed": false, "url": "https://www.yelp.com/biz/pianofight-san-francisco?adjust_creative=Klanz-jboxl2XzqrjP6LLw&utm_campaign=yelp_api_v3&utm_medium=api_v3_business_search&utm_source=Klanz-jboxl2XzqrjP6LLw", "review_count": 203, "categories": [{"alias": "bars", "title": "Bars"}, {"alias": "newamerican", "title": "American (New)"}, {"alias": "theater", "title": "Performing Arts"}], "rating": 4.5, "coordinates": {"latitude": 37.7838704221414, "longitude": -122.410740837442}, "transactions": [], "price": "$$", "location": {"address1": "144 Taylor St", "address2": "", "address3": "", "city": "San Francisco", "zip_code": "94102", "country": "US", "state": "CA", "display_address": ["144 Taylor St", "San Francisco, CA 94102"]}, "phone": "+14158163691", "display_phone": "(415) 816-3691", "distance": 3410.1703157346524}, {"id": "T9gojhwwpn8JHXxkHsKAxQ", "alias": "leatherneck-steakhouse-san-francisco-3", "name": "Leatherneck Steakhouse", "image_url": "https://s3-media4.fl.yelpcdn.com/bphoto/-jTuvHX18_iYCvLqUruSyw/o.jpg", "is_closed": false, "url": "https://www.yelp.com/biz/leatherneck-steakhouse-san-francisco-3?adjust_creative=Klanz-jboxl2XzqrjP6LLw&utm_campaign=yelp_api_v3&utm_medium=api_v3_business_search&utm_source=Klanz-jboxl2XzqrjP6LLw", "review_count": 322, "categories": [{"alias": "steak", "title": "Steakhouses"}], "rating": 4.0, "coordinates": {"latitude": 37.78884276167233, "longitude": -122.41047360213801}, "transactions": ["delivery"], "price": "$$$", "location": {"address1": "609 Sutter St", "address2": "", "address3": "The Marines Memorial Club and Hotel", "city": "San Francisco", "zip_code": "94102", "country": "US", "state": "CA", "display_address": ["609 Sutter St", "The Marines Memorial Club and Hotel", "San Francisco, CA 94102"]}, "phone": "+14156736672", "display_phone": "(415) 673-6672", "distance": 3855.618153621675}, {"id": "iXjbvsGyhGttLRaV6shP1g", "alias": "credo-san-francisco", "name": "Credo", "image_url": "https://s3-media2.fl.yelpcdn.com/bphoto/d2VgkaGA_qWkJ1Z6ugbibA/o.jpg", "is_closed": false, "url": "https://www.yelp.com/biz/credo-san-francisco?adjust_creative=Klanz-jboxl2XzqrjP6LLw&utm_campaign=yelp_api_v3&utm_medium=api_v3_business_search&utm_source=Klanz-jboxl2XzqrjP6LLw", "review_count": 887, "categories": [{"alias": "italian", "title": "Italian"}], "rating": 4.0, "coordinates": {"latitude": 37.79217, "longitude": -122.40202}, "transactions": ["pickup", "delivery"], "price": "$$$", "location": {"address1": "360 Pine St", "address2": "", "address3": "", "city": "San Francisco", "zip_code": "94104", "country": "US", "state": "CA", "display_address": ["360 Pine St", "San Francisco, CA 94104"]}, "phone": "+14156930360", "display_phone": "(415) 693-0360", "distance": 4606.040252816923}, {"id": "d2pGXHPCt4bp2inO6CPBCA", "alias": "butter-love-bakeshop-san-francisco-2", "name": "Butter Love Bakeshop", "image_url": "https://s3-media2.fl.yelpcdn.com/bphoto/iSzfany1invnnx0eMEQQ4A/o.jpg", "is_closed": false, "url": "https://www.yelp.com/biz/butter-love-bakeshop-san-francisco-2?adjust_creative=Klanz-jboxl2XzqrjP6LLw&utm_campaign=yelp_api_v3&utm_medium=api_v3_business_search&utm_source=Klanz-jboxl2XzqrjP6LLw", "review_count": 183, "categories": [{"alias": "desserts", "title": "Desserts"}, {"alias": "bakeries", "title": "Bakeries"}], "rating": 4.5, "coordinates": {"latitude": 37.7754, "longitude": -122.49873}, "transactions": [], "price": "$$", "location": {"address1": "3717 Balboa St", "address2": "", "address3": "", "city": "San Francisco", "zip_code": "94121", "country": "US", "state": "CA", "display_address": ["3717 Balboa St", "San Francisco, CA 94121"]}, "phone": "+14157026344", "display_phone": "(415) 702-6344", "distance": 5711.57377190821}, {"id": "VzlVF1yc_BboRwwqJcvkxg", "alias": "mymy-san-francisco-4", "name": "Mymy", "image_url": "https://s3-media1.fl.yelpcdn.com/bphoto/t557N_-DpB9lxl7lfWd56Q/o.jpg", "is_closed": false, "url": "https://www.yelp.com/biz/mymy-san-francisco-4?adjust_creative=Klanz-jboxl2XzqrjP6LLw&utm_campaign=yelp_api_v3&utm_medium=api_v3_business_search&utm_source=Klanz-jboxl2XzqrjP6LLw", "review_count": 1884, "categories": [{"alias": "breakfast_brunch", "title": "Breakfast & Brunch"}, {"alias": "cafes", "title": "Cafes"}], "rating": 4.0, "coordinates": {"latitude": 37.7909400620458, "longitude": -122.419269534168}, "transactions": ["pickup", "delivery"], "price": "$$", "location": {"address1": "1500 California St", "address2": "", "address3": "", "city": "San Francisco", "zip_code": "94109", "country": "US", "state": "CA", "display_address": ["1500 California St", "San Francisco, CA 94109"]}, "phone": "+14158007466", "display_phone": "(415) 800-7466", "distance": 3665.69941440124}, {"id": "ahp9lXGmNIH0sCz5zI86Cw", "alias": "aquitaine-san-francisco-3", "name": "Aquitaine", "image_url": "https://s3-media1.fl.yelpcdn.com/bphoto/TtduFjPY-zo4Py7ZSwpPFg/o.jpg", "is_closed": false, "url": "https://www.yelp.com/biz/aquitaine-san-francisco-3?adjust_creative=Klanz-jboxl2XzqrjP6LLw&utm_campaign=yelp_api_v3&utm_medium=api_v3_business_search&utm_source=Klanz-jboxl2XzqrjP6LLw", "review_count": 331, "categories": [{"alias": "wine_bars", "title": "Wine Bars"}, {"alias": "french", "title": "French"}], "rating": 4.0, "coordinates": {"latitude": 37.7667584, "longitude": -122.4290376}, "transactions": [], "price": "$$", "location": {"address1": "216 Church Street", "address2": "", "address3": "", "city": "San Francisco", "zip_code": "94114", "country": "US", "state": "CA", "display_address": ["216 Church Street", "San Francisco, CA 94114"]}, "phone": "+14156587863", "display_phone": "(415) 658-7863", "distance": 930.0809092062458}, {"id": "tKmqlKWOMMiU8pn0gLliXA", "alias": "flores-san-francisco", "name": "Flores", "image_url": "https://s3-media3.fl.yelpcdn.com/bphoto/zcXf5H14-zautn9q2-XxHw/o.jpg", "is_closed": false, "url": "https://www.yelp.com/biz/flores-san-francisco?adjust_creative=Klanz-jboxl2XzqrjP6LLw&utm_campaign=yelp_api_v3&utm_medium=api_v3_business_search&utm_source=Klanz-jboxl2XzqrjP6LLw", "review_count": 734, "categories": [{"alias": "mexican", "title": "Mexican"}, {"alias": "cocktailbars", "title": "Cocktail Bars"}, {"alias": "breakfast_brunch", "title": "Breakfast & Brunch"}], "rating": 4.0, "coordinates": {"latitude": 37.7976161048577, "longitude": -122.432580590249}, "transactions": ["delivery", "restaurant_reservation"], "price": "$$", "location": {"address1": "2030 Union St", "address2": null, "address3": "", "city": "San Francisco", "zip_code": "94123", "country": "US", "state": "CA", "display_address": ["2030 Union St", "San Francisco, CA 94123"]}, "phone": "+14157962926", "display_phone": "(415) 796-2926", "distance": 4096.825382245225}, {"id": "D9XAV5LglKogbZc5vOrLEg", "alias": "asiento-san-francisco", "name": "Asiento", "image_url": "https://s3-media2.fl.yelpcdn.com/bphoto/6CVEnTcUdNLHBwhG3eQC-Q/o.jpg", "is_closed": false, "url": "https://www.yelp.com/biz/asiento-san-francisco?adjust_creative=Klanz-jboxl2XzqrjP6LLw&utm_campaign=yelp_api_v3&utm_medium=api_v3_business_search&utm_source=Klanz-jboxl2XzqrjP6LLw", "review_count": 365, "categories": [{"alias": "tapas", "title": "Tapas Bars"}, {"alias": "cocktailbars", "title": "Cocktail Bars"}, {"alias": "burgers", "title": "Burgers"}], "rating": 4.0, "coordinates": {"latitude": 37.7577015, "longitude": -122.4094529}, "transactions": [], "price": "$$", "location": {"address1": "2730 21st St", "address2": "", "address3": "", "city": "San Francisco", "zip_code": "94110", "country": "US", "state": "CA", "display_address": ["2730 21st St", "San Francisco, CA 94110"]}, "phone": "+14158293375", "display_phone": "(415) 829-3375", "distance": 2399.5446126217726}, {"id": "_D1qFP--QnNBSVOGvjfp2g", "alias": "floris-san-francisco-2", "name": "Flori's", "image_url": "https://s3-media4.fl.yelpcdn.com/bphoto/QIosbyfBP6eIL_JQX9_9Jg/o.jpg", "is_closed": false, "url": "https://www.yelp.com/biz/floris-san-francisco-2?adjust_creative=Klanz-jboxl2XzqrjP6LLw&utm_campaign=yelp_api_v3&utm_medium=api_v3_business_search&utm_source=Klanz-jboxl2XzqrjP6LLw", "review_count": 31, "categories": [{"alias": "latin", "title": "Latin American"}, {"alias": "wine_bars", "title": "Wine Bars"}, {"alias": "breakfast_brunch", "title": "Breakfast & Brunch"}], "rating": 5.0, "coordinates": {"latitude": 37.79748, "longitude": -122.42339}, "transactions": ["pickup", "delivery", "restaurant_reservation"], "price": "$$", "location": {"address1": "2360 Van Ness Ave", "address2": null, "address3": "", "city": "San Francisco", "zip_code": "94109", "country": "US", "state": "CA", "display_address": ["2360 Van Ness Ave", "San Francisco, CA 94109"]}, "phone": "+14157570493", "display_phone": "(415) 757-0493", "distance": 4229.317583340222}, {"id": "Ei3hIQpYq9j-F1WhzurFLA", "alias": "luchos-san-francisco-2", "name": "Lucho's", "image_url": "https://s3-media2.fl.yelpcdn.com/bphoto/gyDTKgEtt6aHEmitQt675Q/o.jpg", "is_closed": false, "url": "https://www.yelp.com/biz/luchos-san-francisco-2?adjust_creative=Klanz-jboxl2XzqrjP6LLw&utm_campaign=yelp_api_v3&utm_medium=api_v3_business_search&utm_source=Klanz-jboxl2XzqrjP6LLw", "review_count": 322, "categories": [{"alias": "breakfast_brunch", "title": "Breakfast & Brunch"}, {"alias": "mexican", "title": "Mexican"}, {"alias": "newamerican", "title": "American (New)"}], "rating": 4.5, "coordinates": {"latitude": 37.73193, "longitude": -122.47434}, "transactions": ["delivery"], "price": "$$", "location": {"address1": "2675 Ocean Ave", "address2": null, "address3": "", "city": "San Francisco", "zip_code": "94132", "country": "US", "state": "CA", "display_address": ["2675 Ocean Ave", "San Francisco, CA 94132"]}, "phone": "+14153477416", "display_phone": "(415) 347-7416", "distance": 4636.554910062207}, {"id": "Cs5DX-6syMfiJ1rACSRDVQ", "alias": "blackbird-san-francisco", "name": "Blackbird", "image_url": "https://s3-media2.fl.yelpcdn.com/bphoto/yD5jZ2uVW7sG3kZyAfKlBg/o.jpg", "is_closed": false, "url": "https://www.yelp.com/biz/blackbird-san-francisco?adjust_creative=Klanz-jboxl2XzqrjP6LLw&utm_campaign=yelp_api_v3&utm_medium=api_v3_business_search&utm_source=Klanz-jboxl2XzqrjP6LLw", "review_count": 688, "categories": [{"alias": "bars", "title": "Bars"}, {"alias": "venues", "title": "Venues & Event Spaces"}], "rating": 4.0, "coordinates": {"latitude": 37.7673552796685, "longitude": -122.429470070463}, "transactions": [], "price": "$$", "location": {"address1": "2124 Market St", "address2": "", "address3": "", "city": "San Francisco", "zip_code": "94114", "country": "US", "state": "CA", "display_address": ["2124 Market St", "San Francisco, CA 94114"]}, "phone": "+14158725310", "display_phone": "(415) 872-5310", "distance": 944.1798213653689}, {"id": "2E9O-p-lp587aOMnpLepkQ", "alias": "jijime-san-francisco-8", "name": "JIJIME", "image_url": "https://s3-media2.fl.yelpcdn.com/bphoto/KjLJyW5REgYcnF88nH21IQ/o.jpg", "is_closed": false, "url": "https://www.yelp.com/biz/jijime-san-francisco-8?adjust_creative=Klanz-jboxl2XzqrjP6LLw&utm_campaign=yelp_api_v3&utm_medium=api_v3_business_search&utm_source=Klanz-jboxl2XzqrjP6LLw", "review_count": 416, "categories": [{"alias": "korean", "title": "Korean"}, {"alias": "asianfusion", "title": "Asian Fusion"}, {"alias": "ramen", "title": "Ramen"}], "rating": 4.5, "coordinates": {"latitude": 37.7806549278456, "longitude": -122.478949574806}, "transactions": ["pickup", "delivery"], "price": "$$", "location": {"address1": "5524 Geary Blvd", "address2": "", "address3": null, "city": "San Francisco", "zip_code": "94121", "country": "US", "state": "CA", "display_address": ["5524 Geary Blvd", "San Francisco, CA 94121"]}, "phone": "+14152215353", "display_phone": "(415) 221-5353", "distance": 4333.781775165417}, {"id": "tS2ka1uSjwo7jdWIWDpuCw", "alias": "new-taraval-cafe-san-francisco", "name": "New Taraval Cafe", "image_url": "https://s3-media3.fl.yelpcdn.com/bphoto/pvVLNvq76EX30hgWfWZl5g/o.jpg", "is_closed": false, "url": "https://www.yelp.com/biz/new-taraval-cafe-san-francisco?adjust_creative=Klanz-jboxl2XzqrjP6LLw&utm_campaign=yelp_api_v3&utm_medium=api_v3_business_search&utm_source=Klanz-jboxl2XzqrjP6LLw", "review_count": 553, "categories": [{"alias": "breakfast_brunch", "title": "Breakfast & Brunch"}, {"alias": "diners", "title": "Diners"}, {"alias": "cafes", "title": "Cafes"}], "rating": 4.5, "coordinates": {"latitude": 37.74310182353412, "longitude": -122.47775128530064}, "transactions": ["delivery"], "price": "$", "location": {"address1": "1054 Taraval St", "address2": "", "address3": "", "city": "San Francisco", "zip_code": "94116", "country": "US", "state": "CA", "display_address": ["1054 Taraval St", "San Francisco, CA 94116"]}, "phone": "+14157313816", "display_phone": "(415) 731-3816", "distance": 4135.624413856863}, {"id": "L1JU0hDv1k2Od3s9Glp-IQ", "alias": "dumpling-baby-china-bistro-san-francisco-4", "name": "Dumpling Baby China Bistro", "image_url": "https://s3-media1.fl.yelpcdn.com/bphoto/zgWxZHKUZZf648QamhB34Q/o.jpg", "is_closed": false, "url": "https://www.yelp.com/biz/dumpling-baby-china-bistro-san-francisco-4?adjust_creative=Klanz-jboxl2XzqrjP6LLw&utm_campaign=yelp_api_v3&utm_medium=api_v3_business_search&utm_source=Klanz-jboxl2XzqrjP6LLw", "review_count": 128, "categories": [{"alias": "chinese", "title": "Chinese"}, {"alias": "asianfusion", "title": "Asian Fusion"}], "rating": 4.5, "coordinates": {"latitude": 37.781031, "longitude": -122.459886}, "transactions": [], "location": {"address1": "3751 Geary Blvd", "address2": null, "address3": "", "city": "San Francisco", "zip_code": "94118", "country": "US", "state": "CA", "display_address": ["3751 Geary Blvd", "San Francisco, CA 94118"]}, "phone": "+14155928232", "display_phone": "(415) 592-8232", "distance": 3044.0962096709827}, {"id": "15WWZVhyETkK-eVRuto1nQ", "alias": "guilin-rice-noodles-house-san-francisco", "name": "Guilin Rice Noodles House", "image_url": "https://s3-media1.fl.yelpcdn.com/bphoto/TgUMdd4MeL7H1iMu4lDNRg/o.jpg", "is_closed": false, "url": "https://www.yelp.com/biz/guilin-rice-noodles-house-san-francisco?adjust_creative=Klanz-jboxl2XzqrjP6LLw&utm_campaign=yelp_api_v3&utm_medium=api_v3_business_search&utm_source=Klanz-jboxl2XzqrjP6LLw", "review_count": 86, "categories": [{"alias": "noodles", "title": "Noodles"}], "rating": 4.0, "coordinates": {"latitude": 37.7429, "longitude": -122.47586}, "transactions": ["pickup", "delivery"], "price": "$$", "location": {"address1": "901 Taraval St", "address2": "", "address3": null, "city": "San Francisco", "zip_code": "94116", "country": "US", "state": "CA", "display_address": ["901 Taraval St", "San Francisco, CA 94116"]}, "phone": "+14156812988", "display_phone": "(415) 681-2988", "distance": 4000.28442677684}, {"id": "yuj03JWlXC9GSjucBBnwew", "alias": "beluga-san-francisco", "name": "Beluga", "image_url": "https://s3-media4.fl.yelpcdn.com/bphoto/HJ-d8ui8Wx3ocC7Yl_ZaZw/o.jpg", "is_closed": false, "url": "https://www.yelp.com/biz/beluga-san-francisco?adjust_creative=Klanz-jboxl2XzqrjP6LLw&utm_campaign=yelp_api_v3&utm_medium=api_v3_business_search&utm_source=Klanz-jboxl2XzqrjP6LLw", "review_count": 16, "categories": [{"alias": "russian", "title": "Russian"}, {"alias": "venues", "title": "Venues & Event Spaces"}, {"alias": "mediterranean", "title": "Mediterranean"}], "rating": 4.5, "coordinates": {"latitude": 37.78015, "longitude": -122.47659}, "transactions": ["delivery"], "price": "$$$$", "location": {"address1": "5323 Geary Blvd", "address2": "", "address3": "", "city": "San Francisco", "zip_code": "94121", "country": "US", "state": "CA", "display_address": ["5323 Geary Blvd", "San Francisco, CA 94121"]}, "phone": "+14153793903", "display_phone": "(415) 379-3903", "distance": 4131.202713474742}, {"id": "kKVCVJVVNFae6KA1X5FWew", "alias": "portofino-san-francisco", "name": "Portofino", "image_url": "https://s3-media2.fl.yelpcdn.com/bphoto/4qNWD_1g9_q7q0_9oMMmaA/o.jpg", "is_closed": false, "url": "https://www.yelp.com/biz/portofino-san-francisco?adjust_creative=Klanz-jboxl2XzqrjP6LLw&utm_campaign=yelp_api_v3&utm_medium=api_v3_business_search&utm_source=Klanz-jboxl2XzqrjP6LLw", "review_count": 211, "categories": [{"alias": "seafood", "title": "Seafood"}, {"alias": "salad", "title": "Salad"}, {"alias": "sandwiches", "title": "Sandwiches"}], "rating": 4.5, "coordinates": {"latitude": 37.7990847322348, "longitude": -122.407166666667}, "transactions": [], "location": {"address1": "1318 Grant Ave", "address2": "", "address3": null, "city": "San Francisco", "zip_code": "94133", "country": "US", "state": "CA", "display_address": ["1318 Grant Ave", "San Francisco, CA 94133"]}, "phone": "+14154005776", "display_phone": "(415) 400-5776", "distance": 4964.9321679323375}, {"id": "eBxkmr-hJ2KgpZQzEO3ArQ", "alias": "han-il-kwan-san-francisco", "name": "Han Il Kwan", "image_url": "https://s3-media3.fl.yelpcdn.com/bphoto/-VavsGmn9Ls7J-hkh6BI6Q/o.jpg", "is_closed": false, "url": "https://www.yelp.com/biz/han-il-kwan-san-francisco?adjust_creative=Klanz-jboxl2XzqrjP6LLw&utm_campaign=yelp_api_v3&utm_medium=api_v3_business_search&utm_source=Klanz-jboxl2XzqrjP6LLw", "review_count": 1721, "categories": [{"alias": "korean", "title": "Korean"}, {"alias": "bbq", "title": "Barbeque"}], "rating": 4.0, "coordinates": {"latitude": 37.776719, "longitude": -122.478278}, "transactions": ["delivery"], "price": "$$", "location": {"address1": "1802 Balboa St", "address2": "", "address3": "", "city": "San Francisco", "zip_code": "94121", "country": "US", "state": "CA", "display_address": ["1802 Balboa St", "San Francisco, CA 94121"]}, "phone": "+14157524447", "display_phone": "(415) 752-4447", "distance": 4075.974642511673}, {"id": "iVjyGjcwqAnHvTExVpxVlw", "alias": "chomp-n-swig-san-francisco", "name": "Chomp N' Swig", "image_url": "https://s3-media1.fl.yelpcdn.com/bphoto/kYBJFEfBEdw7a0n3ygTZIQ/o.jpg", "is_closed": false, "url": "https://www.yelp.com/biz/chomp-n-swig-san-francisco?adjust_creative=Klanz-jboxl2XzqrjP6LLw&utm_campaign=yelp_api_v3&utm_medium=api_v3_business_search&utm_source=Klanz-jboxl2XzqrjP6LLw", "review_count": 395, "categories": [{"alias": "sandwiches", "title": "Sandwiches"}, {"alias": "beerbar", "title": "Beer Bar"}, {"alias": "breakfast_brunch", "title": "Breakfast & Brunch"}], "rating": 4.5, "coordinates": {"latitude": 37.78024, "longitude": -122.47526}, "transactions": ["pickup", "delivery"], "price": "$$", "location": {"address1": "5203 Geary Blvd", "address2": null, "address3": "", "city": "San Francisco", "zip_code": "94118", "country": "US", "state": "CA", "display_address": ["5203 Geary Blvd", "San Francisco, CA 94118"]}, "phone": "+16282802463", "display_phone": "(628) 280-2463", "distance": 4035.4856214504016}, {"id": "5Ok8ARq5ITYLoDuAIzchVQ", "alias": "besharam-san-francisco", "name": "Besharam", "image_url": "https://s3-media2.fl.yelpcdn.com/bphoto/FF5V8Rixq2oa539UdZPJmA/o.jpg", "is_closed": false, "url": "https://www.yelp.com/biz/besharam-san-francisco?adjust_creative=Klanz-jboxl2XzqrjP6LLw&utm_campaign=yelp_api_v3&utm_medium=api_v3_business_search&utm_source=Klanz-jboxl2XzqrjP6LLw", "review_count": 279, "categories": [{"alias": "indpak", "title": "Indian"}, {"alias": "vegetarian", "title": "Vegetarian"}], "rating": 4.0, "coordinates": {"latitude": 37.75419470439168, "longitude": -122.38973528066063}, "transactions": ["pickup", "delivery"], "price": "$$", "location": {"address1": "1275 Minnesota St", "address2": "", "address3": null, "city": "San Francisco", "zip_code": "94107", "country": "US", "state": "CA", "display_address": ["1275 Minnesota St", "San Francisco, CA 94107"]}, "phone": "+14155807662", "display_phone": "(415) 580-7662", "distance": 4173.640207909668}, {"id": "smceLM-VDB5jkILB6OSSvg", "alias": "bambinos-ristorante-san-francisco", "name": "Bambino's Ristrorante", "image_url": "https://s3-media3.fl.yelpcdn.com/bphoto/7ttnzyuXmXoGO1Q8-RRZvA/o.jpg", "is_closed": false, "url": "https://www.yelp.com/biz/bambinos-ristorante-san-francisco?adjust_creative=Klanz-jboxl2XzqrjP6LLw&utm_campaign=yelp_api_v3&utm_medium=api_v3_business_search&utm_source=Klanz-jboxl2XzqrjP6LLw", "review_count": 586, "categories": [{"alias": "pizza", "title": "Pizza"}, {"alias": "breakfast_brunch", "title": "Breakfast & Brunch"}, {"alias": "italian", "title": "Italian"}], "rating": 4.0, "coordinates": {"latitude": 37.76512, "longitude": -122.45011}, "transactions": ["pickup", "delivery"], "price": "$$", "location": {"address1": "945 Cole St", "address2": "", "address3": "", "city": "San Fransico", "zip_code": "94117", "country": "US", "state": "CA", "display_address": ["945 Cole St", "San Fransico, CA 94117"]}, "phone": "+14157311343", "display_phone": "(415) 731-1343", "distance": 1285.6480875901623}, {"id": "SGRmnarrNuVEsAjYdEoA0w", "alias": "el-farolito-san-francisco-2", "name": "El Farolito", "image_url": "https://s3-media2.fl.yelpcdn.com/bphoto/kYemXiMcYje-Da7AjPtWcg/o.jpg", "is_closed": false, "url": "https://www.yelp.com/biz/el-farolito-san-francisco-2?adjust_creative=Klanz-jboxl2XzqrjP6LLw&utm_campaign=yelp_api_v3&utm_medium=api_v3_business_search&utm_source=Klanz-jboxl2XzqrjP6LLw", "review_count": 5102, "categories": [{"alias": "mexican", "title": "Mexican"}], "rating": 4.0, "coordinates": {"latitude": 37.75265, "longitude": -122.41812}, "transactions": ["delivery"], "price": "$", "location": {"address1": "2779 Mission St", "address2": "", "address3": "", "city": "San Francisco", "zip_code": "94110", "country": "US", "state": "CA", "display_address": ["2779 Mission St", "San Francisco, CA 94110"]}, "phone": "+14158247877", "display_phone": "(415) 824-7877", "distance": 1845.9442151607977}, {"id": "Qr0dBKxCtWWUr9bJ74aWQA", "alias": "little-delhi-san-francisco", "name": "Little Delhi", "image_url": "https://s3-media1.fl.yelpcdn.com/bphoto/CfvU68fhM_dcwyNz_RIt9A/o.jpg", "is_closed": false, "url": "https://www.yelp.com/biz/little-delhi-san-francisco?adjust_creative=Klanz-jboxl2XzqrjP6LLw&utm_campaign=yelp_api_v3&utm_medium=api_v3_business_search&utm_source=Klanz-jboxl2XzqrjP6LLw", "review_count": 1997, "categories": [{"alias": "indpak", "title": "Indian"}], "rating": 4.0, "coordinates": {"latitude": 37.78428753872273, "longitude": -122.40914997881393}, "transactions": ["pickup", "delivery"], "price": "$$", "location": {"address1": "83 Eddy St", "address2": "", "address3": "", "city": "San Francisco", "zip_code": "94102", "country": "US", "state": "CA", "display_address": ["83 Eddy St", "San Francisco, CA 94102"]}, "phone": "+14153983173", "display_phone": "(415) 398-3173", "distance": 3538.3228984565512}, {"id": "fGj7q3Qro-Efk7t-IVnpXQ", "alias": "woodhouse-fish-san-francisco", "name": "Woodhouse Fish", "image_url": "https://s3-media2.fl.yelpcdn.com/bphoto/I6EALc4j8IzWBtWMIwcp-A/o.jpg", "is_closed": false, "url": "https://www.yelp.com/biz/woodhouse-fish-san-francisco?adjust_creative=Klanz-jboxl2XzqrjP6LLw&utm_campaign=yelp_api_v3&utm_medium=api_v3_business_search&utm_source=Klanz-jboxl2XzqrjP6LLw", "review_count": 1737, "categories": [{"alias": "seafood", "title": "Seafood"}, {"alias": "fishnchips", "title": "Fish & Chips"}, {"alias": "sandwiches", "title": "Sandwiches"}], "rating": 4.0, "coordinates": {"latitude": 37.7676615910331, "longitude": -122.42844209075}, "transactions": ["delivery"], "price": "$$", "location": {"address1": "2073 Market St", "address2": null, "address3": "", "city": "San Francisco", "zip_code": "94114", "country": "US", "state": "CA", "display_address": ["2073 Market St", "San Francisco, CA 94114"]}, "phone": "+14154372722", "display_phone": "(415) 437-2722", "distance": 1029.8261039633505}, {"id": "NTYS9lYlvFUUQn96Qymy4A", "alias": "izumiya-san-francisco-2", "name": "IZUMIYA", "image_url": "https://s3-media4.fl.yelpcdn.com/bphoto/pvBvhCa8hABPngtkStjBSQ/o.jpg", "is_closed": false, "url": "https://www.yelp.com/biz/izumiya-san-francisco-2?adjust_creative=Klanz-jboxl2XzqrjP6LLw&utm_campaign=yelp_api_v3&utm_medium=api_v3_business_search&utm_source=Klanz-jboxl2XzqrjP6LLw", "review_count": 82, "categories": [{"alias": "comfortfood", "title": "Comfort Food"}, {"alias": "noodles", "title": "Noodles"}, {"alias": "teppanyaki", "title": "Teppanyaki"}], "rating": 4.0, "coordinates": {"latitude": 37.784977, "longitude": -122.431763}, "transactions": ["pickup", "delivery"], "price": "$$", "location": {"address1": "1581 Webster St", "address2": "Ste 270", "address3": "", "city": "San Francisco", "zip_code": "94115", "country": "US", "state": "CA", "display_address": ["1581 Webster St", "Ste 270", "San Francisco, CA 94115"]}, "phone": "+14154416867", "display_phone": "(415) 441-6867", "distance": 2717.1759329403035}, {"id": "NACoDXfK-JFPQYAa8MiCpA", "alias": "san-francisco-brewing-san-francisco-4", "name": "San Francisco Brewing", "image_url": "https://s3-media1.fl.yelpcdn.com/bphoto/7J5Zq2_K1sCuFUyXo6LeXA/o.jpg", "is_closed": false, "url": "https://www.yelp.com/biz/san-francisco-brewing-san-francisco-4?adjust_creative=Klanz-jboxl2XzqrjP6LLw&utm_campaign=yelp_api_v3&utm_medium=api_v3_business_search&utm_source=Klanz-jboxl2XzqrjP6LLw", "review_count": 333, "categories": [{"alias": "breweries", "title": "Breweries"}, {"alias": "sportsbars", "title": "Sports Bars"}], "rating": 3.5, "coordinates": {"latitude": 37.80569458716262, "longitude": -122.42309385061282}, "transactions": [], "price": "$$", "location": {"address1": "3150 Polk St", "address2": "", "address3": "", "city": "San Francisco", "zip_code": "94109", "country": "US", "state": "CA", "display_address": ["3150 Polk St", "San Francisco, CA 94109"]}, "phone": "+14154842337", "display_phone": "(415) 484-2337", "distance": 5117.362263747504}, {"id": "Zx_VDLeaFdnMFkGyorDZtQ", "alias": "st-francis-fountain-san-francisco", "name": "St. Francis Fountain", "image_url": "https://s3-media4.fl.yelpcdn.com/bphoto/KyugiHYEnAnbrETjm-WihA/o.jpg", "is_closed": false, "url": "https://www.yelp.com/biz/st-francis-fountain-san-francisco?adjust_creative=Klanz-jboxl2XzqrjP6LLw&utm_campaign=yelp_api_v3&utm_medium=api_v3_business_search&utm_source=Klanz-jboxl2XzqrjP6LLw", "review_count": 1206, "categories": [{"alias": "breakfast_brunch", "title": "Breakfast & Brunch"}, {"alias": "sandwiches", "title": "Sandwiches"}, {"alias": "burgers", "title": "Burgers"}], "rating": 4.0, "coordinates": {"latitude": 37.7527199, "longitude": -122.40834}, "transactions": ["pickup", "delivery"], "price": "$$", "location": {"address1": "2801 24th St", "address2": "", "address3": "", "city": "San Francisco", "zip_code": "94110", "country": "US", "state": "CA", "display_address": ["2801 24th St", "San Francisco, CA 94110"]}, "phone": "+14158264200", "display_phone": "(415) 826-4200", "distance": 2630.9119046690516}, {"id": "XAIuCODMY4aFeBnpYZArdw", "alias": "beijing-tokyo-bistro-san-francisco", "name": "Beijing Tokyo Bistro", "image_url": "https://s3-media1.fl.yelpcdn.com/bphoto/EOHhZBT8a3JW7PPl3eHUpw/o.jpg", "is_closed": false, "url": "https://www.yelp.com/biz/beijing-tokyo-bistro-san-francisco?adjust_creative=Klanz-jboxl2XzqrjP6LLw&utm_campaign=yelp_api_v3&utm_medium=api_v3_business_search&utm_source=Klanz-jboxl2XzqrjP6LLw", "review_count": 16, "categories": [{"alias": "chinese", "title": "Chinese"}, {"alias": "japanese", "title": "Japanese"}], "rating": 4.5, "coordinates": {"latitude": 37.78834106855354, "longitude": -122.4402103}, "transactions": ["pickup", "delivery"], "location": {"address1": "2786 California St", "address2": null, "address3": null, "city": "San Francisco", "zip_code": "94115", "country": "US", "state": "CA", "display_address": ["2786 California St", "San Francisco, CA 94115"]}, "phone": "+14159210188", "display_phone": "(415) 921-0188", "distance": 3069.2452293244555}, {"id": "yQxW5sK7n7T5JDoPBY2QCQ", "alias": "fior-d-italia-san-francisco-4", "name": "Fior d'Italia", "image_url": "https://s3-media4.fl.yelpcdn.com/bphoto/k1LkjWhY8yDPIj9x07Ezbw/o.jpg", "is_closed": false, "url": "https://www.yelp.com/biz/fior-d-italia-san-francisco-4?adjust_creative=Klanz-jboxl2XzqrjP6LLw&utm_campaign=yelp_api_v3&utm_medium=api_v3_business_search&utm_source=Klanz-jboxl2XzqrjP6LLw", "review_count": 604, "categories": [{"alias": "italian", "title": "Italian"}, {"alias": "wine_bars", "title": "Wine Bars"}], "rating": 4.0, "coordinates": {"latitude": 37.80427, "longitude": -122.4136}, "transactions": ["pickup", "restaurant_reservation"], "price": "$$", "location": {"address1": "2237 Mason St", "address2": null, "address3": "", "city": "San Francisco", "zip_code": "94133", "country": "US", "state": "CA", "display_address": ["2237 Mason St", "San Francisco, CA 94133"]}, "phone": "+14159861886", "display_phone": "(415) 986-1886", "distance": 5227.479415765903}, {"id": "RNaJMLxqrRgxFwsCptDHnw", "alias": "eagle-cafe-san-francisco-6", "name": "Eagle Cafe", "image_url": "https://s3-media3.fl.yelpcdn.com/bphoto/d7dnyh8sItGdigyQNhjG_Q/o.jpg", "is_closed": false, "url": "https://www.yelp.com/biz/eagle-cafe-san-francisco-6?adjust_creative=Klanz-jboxl2XzqrjP6LLw&utm_campaign=yelp_api_v3&utm_medium=api_v3_business_search&utm_source=Klanz-jboxl2XzqrjP6LLw", "review_count": 135, "categories": [{"alias": "newamerican", "title": "American (New)"}, {"alias": "seafood", "title": "Seafood"}], "rating": 4.0, "coordinates": {"latitude": 37.8087806352976, "longitude": -122.410323630059}, "transactions": [], "price": "$$", "location": {"address1": "The Embarcadero", "address2": "Bldg A, Level 2", "address3": null, "city": "San Francisco", "zip_code": "94133", "country": "US", "state": "CA", "display_address": ["The Embarcadero", "Bldg A, Level 2", "San Francisco, CA 94133"]}, "phone": "+14154841282", "display_phone": "(415) 484-1282", "distance": 5798.001545575536}, {"id": "7ZCuoFL4bmDY0Eh3bIZ2Jw", "alias": "balboa-cafe-san-francisco", "name": "Balboa Cafe", "image_url": "https://s3-media3.fl.yelpcdn.com/bphoto/A2QfgJsw7RQCZLMsQszLwg/o.jpg", "is_closed": false, "url": "https://www.yelp.com/biz/balboa-cafe-san-francisco?adjust_creative=Klanz-jboxl2XzqrjP6LLw&utm_campaign=yelp_api_v3&utm_medium=api_v3_business_search&utm_source=Klanz-jboxl2XzqrjP6LLw", "review_count": 674, "categories": [{"alias": "bars", "title": "Bars"}, {"alias": "newamerican", "title": "American (New)"}, {"alias": "burgers", "title": "Burgers"}], "rating": 3.5, "coordinates": {"latitude": 37.7988179773092, "longitude": -122.43610274295915}, "transactions": ["delivery"], "price": "$$", "location": {"address1": "3199 Fillmore St", "address2": "", "address3": "", "city": "San Francisco", "zip_code": "94123", "country": "US", "state": "CA", "display_address": ["3199 Fillmore St", "San Francisco, CA 94123"]}, "phone": "+14159213944", "display_phone": "(415) 921-3944", "distance": 4216.458523302357}, {"id": "yD9-WrXijc_grVmi_zkCfQ", "alias": "hinata-san-francisco", "name": "Hinata", "image_url": "https://s3-media2.fl.yelpcdn.com/bphoto/L9-kFO3pQfZXd8Pk-iaoHQ/o.jpg", "is_closed": false, "url": "https://www.yelp.com/biz/hinata-san-francisco?adjust_creative=Klanz-jboxl2XzqrjP6LLw&utm_campaign=yelp_api_v3&utm_medium=api_v3_business_search&utm_source=Klanz-jboxl2XzqrjP6LLw", "review_count": 631, "categories": [{"alias": "sushi", "title": "Sushi Bars"}, {"alias": "japanese", "title": "Japanese"}], "rating": 4.5, "coordinates": {"latitude": 37.78324, "longitude": -122.42048}, "transactions": ["restaurant_reservation"], "price": "$$$$", "location": {"address1": "810 Van Ness Ave", "address2": null, "address3": "", "city": "San Francisco", "zip_code": "94109", "country": "US", "state": "CA", "display_address": ["810 Van Ness Ave", "San Francisco, CA 94109"]}, "phone": "+14158298291", "display_phone": "(415) 829-8291", "distance": 2833.377489987141}, {"id": "pgO1Q4cEh4u_MZT5hQ4y_w", "alias": "karaweik-burmese-cuisine-san-francisco", "name": "Karaweik Burmese Cuisine", "image_url": "https://s3-media1.fl.yelpcdn.com/bphoto/cY7YJXAq4Oml9TKLHZ3-iw/o.jpg", "is_closed": false, "url": "https://www.yelp.com/biz/karaweik-burmese-cuisine-san-francisco?adjust_creative=Klanz-jboxl2XzqrjP6LLw&utm_campaign=yelp_api_v3&utm_medium=api_v3_business_search&utm_source=Klanz-jboxl2XzqrjP6LLw", "review_count": 182, "categories": [{"alias": "burmese", "title": "Burmese"}, {"alias": "noodles", "title": "Noodles"}, {"alias": "salad", "title": "Salad"}], "rating": 4.5, "coordinates": {"latitude": 37.79991, "longitude": -122.43804}, "transactions": ["pickup", "delivery"], "price": "$$", "location": {"address1": "3317 Steiner St", "address2": null, "address3": "", "city": "San Francisco", "zip_code": "94123", "country": "US", "state": "CA", "display_address": ["3317 Steiner St", "San Francisco, CA 94123"]}, "phone": "+14159221892", "display_phone": "(415) 922-1892", "distance": 4343.241161400187}, {"id": "Ec4Lr71PxCnWjuI7NVnWOA", "alias": "the-blarney-stone-san-francisco", "name": "The Blarney Stone", "image_url": "https://s3-media4.fl.yelpcdn.com/bphoto/HiPOKWWRPmJRD2VF4Pa3hw/o.jpg", "is_closed": false, "url": "https://www.yelp.com/biz/the-blarney-stone-san-francisco?adjust_creative=Klanz-jboxl2XzqrjP6LLw&utm_campaign=yelp_api_v3&utm_medium=api_v3_business_search&utm_source=Klanz-jboxl2XzqrjP6LLw", "review_count": 241, "categories": [{"alias": "pubs", "title": "Pubs"}, {"alias": "irish", "title": "Irish"}], "rating": 4.0, "coordinates": {"latitude": 37.7799073580146, "longitude": -122.479920387268}, "transactions": ["delivery"], "price": "$", "location": {"address1": "5625 Geary Blvd", "address2": "", "address3": "", "city": "San Francisco", "zip_code": "94121", "country": "US", "state": "CA", "display_address": ["5625 Geary Blvd", "San Francisco, CA 94121"]}, "phone": "+14153869914", "display_phone": "(415) 386-9914", "distance": 4366.732030148395}, {"id": "ZektwaE58QDyjz8uBlGurg", "alias": "k-elements-bbq-san-francisco-3", "name": "K-Elements BBQ", "image_url": "https://s3-media3.fl.yelpcdn.com/bphoto/BXXrWqgawTmR9YKi3LG4bA/o.jpg", "is_closed": false, "url": "https://www.yelp.com/biz/k-elements-bbq-san-francisco-3?adjust_creative=Klanz-jboxl2XzqrjP6LLw&utm_campaign=yelp_api_v3&utm_medium=api_v3_business_search&utm_source=Klanz-jboxl2XzqrjP6LLw", "review_count": 701, "categories": [{"alias": "korean", "title": "Korean"}, {"alias": "bbq", "title": "Barbeque"}, {"alias": "asianfusion", "title": "Asian Fusion"}], "rating": 4.0, "coordinates": {"latitude": 37.78227, "longitude": -122.48244}, "transactions": ["delivery", "pickup"], "price": "$$", "location": {"address1": "2140 Clement St", "address2": "", "address3": null, "city": "San Francisco", "zip_code": "94121", "country": "US", "state": "CA", "display_address": ["2140 Clement St", "San Francisco, CA 94121"]}, "phone": "+14157801629", "display_phone": "(415) 780-1629", "distance": 4699.030548477603}, {"id": "31zg60iIhzLDCYYIeNAS-w", "alias": "almadura-san-francisco", "name": "Almadura", "image_url": "https://s3-media1.fl.yelpcdn.com/bphoto/E0FUTaJy1YVCxaPyfxsH5g/o.jpg", "is_closed": false, "url": "https://www.yelp.com/biz/almadura-san-francisco?adjust_creative=Klanz-jboxl2XzqrjP6LLw&utm_campaign=yelp_api_v3&utm_medium=api_v3_business_search&utm_source=Klanz-jboxl2XzqrjP6LLw", "review_count": 2, "categories": [{"alias": "tapasmallplates", "title": "Tapas/Small Plates"}, {"alias": "burgers", "title": "Burgers"}], "rating": 5.0, "coordinates": {"latitude": 37.789602378597856, "longitude": -122.41420409420785}, "transactions": [], "location": {"address1": "1022 Bush St", "address2": null, "address3": "", "city": "San Francisco", "zip_code": "94109", "country": "US", "state": "CA", "display_address": ["1022 Bush St", "San Francisco, CA 94109"]}, "phone": "+14158171100", "display_phone": "(415) 817-1100", "distance": 3742.766880108882}, {"id": "8bySDwY9OU-DWaZebUR7vg", "alias": "roccos-caf\u00e9-san-francisco-3", "name": "Rocco's Caf\u00e9", "image_url": "https://s3-media4.fl.yelpcdn.com/bphoto/ZUGZqVh2HKrEBqFMecZhDg/o.jpg", "is_closed": false, "url": "https://www.yelp.com/biz/roccos-caf%C3%A9-san-francisco-3?adjust_creative=Klanz-jboxl2XzqrjP6LLw&utm_campaign=yelp_api_v3&utm_medium=api_v3_business_search&utm_source=Klanz-jboxl2XzqrjP6LLw", "review_count": 1033, "categories": [{"alias": "italian", "title": "Italian"}, {"alias": "tradamerican", "title": "American (Traditional)"}, {"alias": "breakfast_brunch", "title": "Breakfast & Brunch"}], "rating": 4.0, "coordinates": {"latitude": 37.7759552001953, "longitude": -122.40845489502}, "transactions": ["pickup", "delivery", "restaurant_reservation"], "price": "$$", "location": {"address1": "1131 Folsom St", "address2": "", "address3": "", "city": "San Francisco", "zip_code": "94103", "country": "US", "state": "CA", "display_address": ["1131 Folsom St", "San Francisco, CA 94103"]}, "phone": "+14155540522", "display_phone": "(415) 554-0522", "distance": 2976.8890608284028}, {"id": "c9VZtF34xQBdazi8k-YIMA", "alias": "the-italian-homemade-company-san-francisco-7", "name": "The Italian Homemade Company", "image_url": "https://s3-media2.fl.yelpcdn.com/bphoto/tfNd2tQemul1ibkedvORqQ/o.jpg", "is_closed": false, "url": "https://www.yelp.com/biz/the-italian-homemade-company-san-francisco-7?adjust_creative=Klanz-jboxl2XzqrjP6LLw&utm_campaign=yelp_api_v3&utm_medium=api_v3_business_search&utm_source=Klanz-jboxl2XzqrjP6LLw", "review_count": 266, "categories": [{"alias": "italian", "title": "Italian"}], "rating": 4.0, "coordinates": {"latitude": 37.774414, "longitude": -122.420937}, "transactions": ["pickup", "delivery"], "price": "$$", "location": {"address1": "1 Franklin St", "address2": null, "address3": null, "city": "San Francisco", "zip_code": "94102", "country": "US", "state": "CA", "display_address": ["1 Franklin St", "San Francisco, CA 94102"]}, "phone": "+14157570877", "display_phone": "(415) 757-0877", "distance": 2029.0278018177096}, {"id": "0xK5-OyMdF5F3jftPngCaw", "alias": "napa-valley-burger-company-sausalito", "name": "Napa Valley Burger Company", "image_url": "https://s3-media2.fl.yelpcdn.com/bphoto/HNmZ9DgY5-D2odvyCdW_aw/o.jpg", "is_closed": false, "url": "https://www.yelp.com/biz/napa-valley-burger-company-sausalito?adjust_creative=Klanz-jboxl2XzqrjP6LLw&utm_campaign=yelp_api_v3&utm_medium=api_v3_business_search&utm_source=Klanz-jboxl2XzqrjP6LLw", "review_count": 905, "categories": [{"alias": "newamerican", "title": "American (New)"}, {"alias": "burgers", "title": "Burgers"}, {"alias": "salad", "title": "Salad"}], "rating": 4.0, "coordinates": {"latitude": 37.855457, "longitude": -122.479023}, "transactions": ["delivery"], "price": "$$", "location": {"address1": "670 Bridgeway", "address2": "", "address3": "", "city": "Sausalito", "zip_code": "94965", "country": "US", "state": "CA", "display_address": ["670 Bridgeway", "Sausalito, CA 94965"]}, "phone": "+14153321454", "display_phone": "(415) 332-1454", "distance": 11159.794644080072}, {"id": "uCvVetBZHmlVPzVrNmQTnw", "alias": "barneys-gourmet-hamburgers-san-francisco-2", "name": "Barney's Gourmet Hamburgers", "image_url": "https://s3-media3.fl.yelpcdn.com/bphoto/1cw69B_RtH9Dgf8M6bZA1A/o.jpg", "is_closed": false, "url": "https://www.yelp.com/biz/barneys-gourmet-hamburgers-san-francisco-2?adjust_creative=Klanz-jboxl2XzqrjP6LLw&utm_campaign=yelp_api_v3&utm_medium=api_v3_business_search&utm_source=Klanz-jboxl2XzqrjP6LLw", "review_count": 859, "categories": [{"alias": "burgers", "title": "Burgers"}, {"alias": "salad", "title": "Salad"}, {"alias": "tradamerican", "title": "American (Traditional)"}], "rating": 3.0, "coordinates": {"latitude": 37.7515, "longitude": -122.43501}, "transactions": ["pickup", "delivery"], "price": "$$", "location": {"address1": "4138 24th St", "address2": "", "address3": "", "city": "San Francisco", "zip_code": "94114", "country": "US", "state": "CA", "display_address": ["4138 24th St", "San Francisco, CA 94114"]}, "phone": "+14152827770", "display_phone": "(415) 282-7770", "distance": 1056.871881369593}, {"id": "FDi2dELjM0T_Es8Ka-C6gQ", "alias": "luce-san-francisco", "name": "Luce", "image_url": "https://s3-media1.fl.yelpcdn.com/bphoto/KiQER8sdkAqbnNrdUaqg7A/o.jpg", "is_closed": false, "url": "https://www.yelp.com/biz/luce-san-francisco?adjust_creative=Klanz-jboxl2XzqrjP6LLw&utm_campaign=yelp_api_v3&utm_medium=api_v3_business_search&utm_source=Klanz-jboxl2XzqrjP6LLw", "review_count": 767, "categories": [{"alias": "newamerican", "title": "American (New)"}, {"alias": "wine_bars", "title": "Wine Bars"}, {"alias": "breakfast_brunch", "title": "Breakfast & Brunch"}], "rating": 4.0, "coordinates": {"latitude": 37.7820272648854, "longitude": -122.404410839081}, "transactions": ["delivery"], "price": "$$$", "location": {"address1": "888 Howard St", "address2": "", "address3": "", "city": "San Francisco", "zip_code": "94103", "country": "US", "state": "CA", "display_address": ["888 Howard St", "San Francisco, CA 94103"]}, "phone": "+14156166566", "display_phone": "(415) 616-6566", "distance": 3667.1749940644486}, {"id": "BiTX6BWh3u24HwcrsipI8w", "alias": "taqueria-los-mayas-san-francisco", "name": "Taqueria Los Mayas", "image_url": "https://s3-media2.fl.yelpcdn.com/bphoto/FubroVzNvm5lsFGLOm2EvA/o.jpg", "is_closed": false, "url": "https://www.yelp.com/biz/taqueria-los-mayas-san-francisco?adjust_creative=Klanz-jboxl2XzqrjP6LLw&utm_campaign=yelp_api_v3&utm_medium=api_v3_business_search&utm_source=Klanz-jboxl2XzqrjP6LLw", "review_count": 439, "categories": [{"alias": "tacos", "title": "Tacos"}, {"alias": "newmexican", "title": "New Mexican Cuisine"}], "rating": 4.0, "coordinates": {"latitude": 37.7828267189761, "longitude": -122.462883666158}, "transactions": ["pickup", "delivery"], "price": "$$", "location": {"address1": "331 Clement St", "address2": "", "address3": null, "city": "San Francisco", "zip_code": "94118", "country": "US", "state": "CA", "display_address": ["331 Clement St", "San Francisco, CA 94118"]}, "phone": "+14155482800", "display_phone": "(415) 548-2800", "distance": 3368.0984920588307}, {"id": "MbzmHmgqD3UqrJ7eQBn_Kg", "alias": "queens-san-francisco-2", "name": "Queens", "image_url": "https://s3-media4.fl.yelpcdn.com/bphoto/HmWxmbp72a949MbJXGeI1g/o.jpg", "is_closed": false, "url": "https://www.yelp.com/biz/queens-san-francisco-2?adjust_creative=Klanz-jboxl2XzqrjP6LLw&utm_campaign=yelp_api_v3&utm_medium=api_v3_business_search&utm_source=Klanz-jboxl2XzqrjP6LLw", "review_count": 53, "categories": [{"alias": "delis", "title": "Delis"}, {"alias": "korean", "title": "Korean"}, {"alias": "beer_and_wine", "title": "Beer, Wine & Spirits"}], "rating": 4.5, "coordinates": {"latitude": 37.76526, "longitude": -122.46672}, "transactions": [], "price": "$$", "location": {"address1": "1235 9th Ave", "address2": null, "address3": "", "city": "San Francisco", "zip_code": "94122", "country": "US", "state": "CA", "display_address": ["1235 9th Ave", "San Francisco, CA 94122"]}, "phone": "+14157029382", "display_phone": "(415) 702-9382", "distance": 2710.7433449057694}, {"id": "tE1iZfdyB6UwqupnQ5a1Gw", "alias": "ls-caffe-san-francisco", "name": "L's Caffe", "image_url": "https://s3-media2.fl.yelpcdn.com/bphoto/eLdUpB2NltuPGIhUOGdhmw/o.jpg", "is_closed": false, "url": "https://www.yelp.com/biz/ls-caffe-san-francisco?adjust_creative=Klanz-jboxl2XzqrjP6LLw&utm_campaign=yelp_api_v3&utm_medium=api_v3_business_search&utm_source=Klanz-jboxl2XzqrjP6LLw", "review_count": 259, "categories": [{"alias": "coffee", "title": "Coffee & Tea"}, {"alias": "sandwiches", "title": "Sandwiches"}, {"alias": "bagels", "title": "Bagels"}], "rating": 4.5, "coordinates": {"latitude": 37.7525444030762, "longitude": -122.40958404541}, "transactions": ["pickup", "delivery"], "price": "$", "location": {"address1": "2871 24th St", "address2": "", "address3": "", "city": "San Francisco", "zip_code": "94110", "country": "US", "state": "CA", "display_address": ["2871 24th St", "San Francisco, CA 94110"]}, "phone": "+14152060274", "display_phone": "(415) 206-0274", "distance": 2531.497374594673}, {"id": "7Q3QIZz5UX-JSTSKKkRqDg", "alias": "waterbar-san-francisco", "name": "Waterbar", "image_url": "https://s3-media3.fl.yelpcdn.com/bphoto/BIBqsJx21CiRGktoKt8WQA/o.jpg", "is_closed": false, "url": "https://www.yelp.com/biz/waterbar-san-francisco?adjust_creative=Klanz-jboxl2XzqrjP6LLw&utm_campaign=yelp_api_v3&utm_medium=api_v3_business_search&utm_source=Klanz-jboxl2XzqrjP6LLw", "review_count": 3364, "categories": [{"alias": "seafood", "title": "Seafood"}, {"alias": "newamerican", "title": "American (New)"}, {"alias": "raw_food", "title": "Live/Raw Food"}], "rating": 3.5, "coordinates": {"latitude": 37.7904941686413, "longitude": -122.389039464859}, "transactions": ["pickup", "delivery"], "price": "$$$", "location": {"address1": "399 The Embarcadero", "address2": "", "address3": "", "city": "San Francisco", "zip_code": "94105", "country": "US", "state": "CA", "display_address": ["399 The Embarcadero", "San Francisco, CA 94105"]}, "phone": "+14152849922", "display_phone": "(415) 284-9922", "distance": 5309.457960542874}, {"id": "kUxtjTa2vCSWQvr00YwxQw", "alias": "kazan-san-francisco", "name": "Kazan", "image_url": "https://s3-media3.fl.yelpcdn.com/bphoto/YFjJ96YGoB-U2j0GFpZ7UQ/o.jpg", "is_closed": false, "url": "https://www.yelp.com/biz/kazan-san-francisco?adjust_creative=Klanz-jboxl2XzqrjP6LLw&utm_campaign=yelp_api_v3&utm_medium=api_v3_business_search&utm_source=Klanz-jboxl2XzqrjP6LLw", "review_count": 508, "categories": [{"alias": "japanese", "title": "Japanese"}, {"alias": "sushi", "title": "Sushi Bars"}, {"alias": "soup", "title": "Soup"}], "rating": 4.5, "coordinates": {"latitude": 37.752694, "longitude": -122.408469}, "transactions": ["delivery"], "price": "$$", "location": {"address1": "2809 24th St", "address2": "", "address3": "", "city": "San Francisco", "zip_code": "94110", "country": "US", "state": "CA", "display_address": ["2809 24th St", "San Francisco, CA 94110"]}, "phone": "+14152822001", "display_phone": "(415) 282-2001", "distance": 2622.6059855964513}, {"id": "0LJsX2X0kvVtP9GFD1DXkg", "alias": "inle-burmese-cuisine-san-francisco", "name": "Inle Burmese Cuisine", "image_url": "https://s3-media1.fl.yelpcdn.com/bphoto/AqpY6Vk10DNPlYE5dtoONA/o.jpg", "is_closed": false, "url": "https://www.yelp.com/biz/inle-burmese-cuisine-san-francisco?adjust_creative=Klanz-jboxl2XzqrjP6LLw&utm_campaign=yelp_api_v3&utm_medium=api_v3_business_search&utm_source=Klanz-jboxl2XzqrjP6LLw", "review_count": 133, "categories": [{"alias": "burmese", "title": "Burmese"}, {"alias": "noodles", "title": "Noodles"}, {"alias": "soup", "title": "Soup"}], "rating": 4.0, "coordinates": {"latitude": 37.75022, "longitude": -122.42757}, "transactions": ["pickup", "delivery", "restaurant_reservation"], "price": "$$", "location": {"address1": "1298 Church St", "address2": "", "address3": null, "city": "San Francisco", "zip_code": "94114", "country": "US", "state": "CA", "display_address": ["1298 Church St", "San Francisco, CA 94114"]}, "phone": "+14153747378", "display_phone": "(415) 374-7378", "distance": 1420.9862024770366}, {"id": "gI7sj-7oCcLuufz0EeLQ1w", "alias": "fenikkusu-san-francisco", "name": "Fenikkusu", "image_url": "https://s3-media4.fl.yelpcdn.com/bphoto/kMMAEmbV2oYXpVtMBQqlWQ/o.jpg", "is_closed": false, "url": "https://www.yelp.com/biz/fenikkusu-san-francisco?adjust_creative=Klanz-jboxl2XzqrjP6LLw&utm_campaign=yelp_api_v3&utm_medium=api_v3_business_search&utm_source=Klanz-jboxl2XzqrjP6LLw", "review_count": 83, "categories": [{"alias": "japanese", "title": "Japanese"}, {"alias": "tapasmallplates", "title": "Tapas/Small Plates"}], "rating": 4.5, "coordinates": {"latitude": 37.754826, "longitude": -122.422957}, "transactions": ["delivery"], "location": {"address1": "1009 Guerrero St", "address2": null, "address3": "", "city": "San Francisco", "zip_code": "94110", "country": "US", "state": "CA", "display_address": ["1009 Guerrero St", "San Francisco, CA 94110"]}, "phone": "+14159238600", "display_phone": "(415) 923-8600", "distance": 1369.5021798945072}, {"id": "J7Xcb2OvLjQO9QBcX3ORnQ", "alias": "golden-gate-bistro-richmond", "name": "Golden Gate Bistro", "image_url": "https://s3-media3.fl.yelpcdn.com/bphoto/YDlYXkq2LjH547uLHRXrNg/o.jpg", "is_closed": false, "url": "https://www.yelp.com/biz/golden-gate-bistro-richmond?adjust_creative=Klanz-jboxl2XzqrjP6LLw&utm_campaign=yelp_api_v3&utm_medium=api_v3_business_search&utm_source=Klanz-jboxl2XzqrjP6LLw", "review_count": 74, "categories": [{"alias": "breakfast_brunch", "title": "Breakfast & Brunch"}, {"alias": "pizza", "title": "Pizza"}, {"alias": "tradamerican", "title": "American (Traditional)"}], "rating": 4.5, "coordinates": {"latitude": 37.92161, "longitude": -122.36147}, "transactions": ["pickup", "delivery"], "price": "$$", "location": {"address1": "803 Wright Ave", "address2": "Ste 101", "address3": null, "city": "Richmond", "zip_code": "94804", "country": "US", "state": "CA", "display_address": ["803 Wright Ave", "Ste 101", "Richmond, CA 94804"]}, "phone": "+15103746393", "display_phone": "(510) 374-6393", "distance": 19048.01671267388}], "total": 5500, "region": {"center": {"longitude": -122.43644714355469, "latitude": 37.76089938976322}}}