{"businesses": [{"id": "6CPZjj1kPYpj2aWMVcslTA", "alias": "tenglong-chinese-restaurant-san-francisco", "name": "Tenglong Chinese Restaurant", "image_url": "https://s3-media2.fl.yelpcdn.com/bphoto/jjhIVArJhGdf2GGcryO3tw/o.jpg", "is_closed": false, "url": "https://www.yelp.com/biz/tenglong-chinese-restaurant-san-francisco?adjust_creative=Klanz-jboxl2XzqrjP6LLw&utm_campaign=yelp_api_v3&utm_medium=api_v3_business_search&utm_source=Klanz-jboxl2XzqrjP6LLw", "review_count": 248, "categories": [{"alias": "chinese", "title": "Chinese"}], "rating": 4.0, "coordinates": {"latitude": 37.783409, "longitude": -122.461522}, "transactions": ["delivery", "pickup"], "price": "$$", "location": {"address1": "208 Clement St", "address2": "", "address3": "", "city": "San Francisco", "zip_code": "94118", "country": "US", "state": "CA", "display_address": ["208 Clement St", "San Francisco, CA 94118"]}, "phone": "+14156663515", "display_phone": "(415) 666-3515", "distance": 3334.9810646465767}, {"id": "L1JU0hDv1k2Od3s9Glp-IQ", "alias": "dumpling-baby-china-bistro-san-francisco-4", "name": "Dumpling Baby China Bistro", "image_url": "https://s3-media1.fl.yelpcdn.com/bphoto/zgWxZHKUZZf648QamhB34Q/o.jpg", "is_closed": false, "url": "https://www.yelp.com/biz/dumpling-baby-china-bistro-san-francisco-4?adjust_creative=Klanz-jboxl2XzqrjP6LLw&utm_campaign=yelp_api_v3&utm_medium=api_v3_business_search&utm_source=Klanz-jboxl2XzqrjP6LLw", "review_count": 128, "categories": [{"alias": "chinese", "title": "Chinese"}, {"alias": "asianfusion", "title": "Asian Fusion"}], "rating": 4.5, "coordinates": {"latitude": 37.781031, "longitude": -122.459886}, "transactions": [], "location": {"address1": "3751 Geary Blvd", "address2": null, "address3": "", "city": "San Francisco", "zip_code": "94118", "country": "US", "state": "CA", "display_address": ["3751 Geary Blvd", "San Francisco, CA 94118"]}, "phone": "+14155928232", "display_phone": "(415) 592-8232", "distance": 3044.0962096709827}, {"id": "ufEYEDMaaoiFAxw81IlBAw", "alias": "empero-taste-san-francisco", "name": "Empero Taste", "image_url": "https://s3-media3.fl.yelpcdn.com/bphoto/fh3h5-4uYlte3mSJSUgohg/o.jpg", "is_closed": false, "url": "https://www.yelp.com/biz/empero-taste-san-francisco?adjust_creative=Klanz-jboxl2XzqrjP6LLw&utm_campaign=yelp_api_v3&utm_medium=api_v3_business_search&utm_source=Klanz-jboxl2XzqrjP6LLw", "review_count": 254, "categories": [{"alias": "chinese", "title": "Chinese"}], "rating": 3.5, "coordinates": {"latitude": 37.77567, "longitude": -122.50241}, "transactions": ["delivery"], "price": "$$", "location": {"address1": "4052 Balboa St", "address2": "", "address3": "", "city": "San Francisco", "zip_code": "94121", "country": "US", "state": "CA", "display_address": ["4052 Balboa St", "San Francisco, CA 94121"]}, "phone": "+14158763298", "display_phone": "(415) 876-3298", "distance": 6034.703939974744}, {"id": "SAFRM460dH7LHqYVAdoWgA", "alias": "yank-sing-san-francisco-2", "name": "Yank Sing", "image_url": "https://s3-media1.fl.yelpcdn.com/bphoto/dtiHRBSC7P_yQq1ZPWVQ0g/o.jpg", "is_closed": false, "url": "https://www.yelp.com/biz/yank-sing-san-francisco-2?adjust_creative=Klanz-jboxl2XzqrjP6LLw&utm_campaign=yelp_api_v3&utm_medium=api_v3_business_search&utm_source=Klanz-jboxl2XzqrjP6LLw", "review_count": 2644, "categories": [{"alias": "dimsum", "title": "Dim Sum"}, {"alias": "cantonese", "title": "Cantonese"}], "rating": 3.5, "coordinates": {"latitude": 37.7927224142545, "longitude": -122.39312659859}, "transactions": ["delivery", "pickup"], "price": "$$$", "location": {"address1": "101 Spear St", "address2": "", "address3": "", "city": "San Francisco", "zip_code": "94105", "country": "US", "state": "CA", "display_address": ["101 Spear St", "San Francisco, CA 94105"]}, "phone": "+14157811111", "display_phone": "(415) 781-1111", "distance": 5197.842163575449}, {"id": "DSHzsZwazLD6g4Ot17A3iQ", "alias": "dim-sum-club-san-francisco-3", "name": "Dim Sum Club", "image_url": "https://s3-media1.fl.yelpcdn.com/bphoto/sWhZZ4Xrd5jIh3EP_G2PUA/o.jpg", "is_closed": false, "url": "https://www.yelp.com/biz/dim-sum-club-san-francisco-3?adjust_creative=Klanz-jboxl2XzqrjP6LLw&utm_campaign=yelp_api_v3&utm_medium=api_v3_business_search&utm_source=Klanz-jboxl2XzqrjP6LLw", "review_count": 119, "categories": [{"alias": "dimsum", "title": "Dim Sum"}, {"alias": "seafood", "title": "Seafood"}, {"alias": "cantonese", "title": "Cantonese"}], "rating": 4.0, "coordinates": {"latitude": 37.74224411177974, "longitude": -122.49033528220909}, "transactions": ["pickup", "delivery", "restaurant_reservation"], "price": "$$", "location": {"address1": "2237 Taraval St", "address2": "", "address3": null, "city": "San Francisco", "zip_code": "94116", "country": "US", "state": "CA", "display_address": ["2237 Taraval St", "San Francisco, CA 94116"]}, "phone": "+14155928938", "display_phone": "(415) 592-8938", "distance": 5171.994253476306}, {"id": "XhbkZ-5nUJ3bRy7uKPx7iQ", "alias": "mr-szechuan-san-francisco", "name": "Mr Szechuan", "image_url": "https://s3-media3.fl.yelpcdn.com/bphoto/lFs0UWLYhefpDnmKRWTOAQ/o.jpg", "is_closed": false, "url": "https://www.yelp.com/biz/mr-szechuan-san-francisco?adjust_creative=Klanz-jboxl2XzqrjP6LLw&utm_campaign=yelp_api_v3&utm_medium=api_v3_business_search&utm_source=Klanz-jboxl2XzqrjP6LLw", "review_count": 378, "categories": [{"alias": "chinese", "title": "Chinese"}, {"alias": "bubbletea", "title": "Bubble Tea"}, {"alias": "shavedice", "title": "Shaved Ice"}], "rating": 4.5, "coordinates": {"latitude": 37.74331, "longitude": -122.47544}, "transactions": ["pickup", "delivery"], "price": "$$", "location": {"address1": "890 Taraval St", "address2": null, "address3": "", "city": "San Francisco", "zip_code": "94116", "country": "US", "state": "CA", "display_address": ["890 Taraval St", "San Francisco, CA 94116"]}, "phone": "+14157538788", "display_phone": "(415) 753-8788", "distance": 3950.3726208624685}, {"id": "02wUJF0661zMeXLgArujlg", "alias": "united-dumplings-san-francisco", "name": "United Dumplings", "image_url": "https://s3-media3.fl.yelpcdn.com/bphoto/MSuw9bIgigzqNSFoza_2BA/o.jpg", "is_closed": false, "url": "https://www.yelp.com/biz/united-dumplings-san-francisco?adjust_creative=Klanz-jboxl2XzqrjP6LLw&utm_campaign=yelp_api_v3&utm_medium=api_v3_business_search&utm_source=Klanz-jboxl2XzqrjP6LLw", "review_count": 251, "categories": [{"alias": "chinese", "title": "Chinese"}, {"alias": "asianfusion", "title": "Asian Fusion"}, {"alias": "noodles", "title": "Noodles"}], "rating": 4.5, "coordinates": {"latitude": 37.739223, "longitude": -122.416008}, "transactions": ["delivery", "pickup"], "price": "$$", "location": {"address1": "525 Cortland Ave", "address2": null, "address3": null, "city": "San Francisco", "zip_code": "94110", "country": "US", "state": "CA", "display_address": ["525 Cortland Ave", "San Francisco, CA 94110"]}, "phone": "+14156587363", "display_phone": "(415) 658-7363", "distance": 3003.4004661663594}, {"id": "1mdyJN3GkeJNEn51EnzYbQ", "alias": "terra-cotta-warrior-san-francisco", "name": "Terra Cotta Warrior", "image_url": "https://s3-media3.fl.yelpcdn.com/bphoto/3bQRTEBxlVribNWjrwRMTg/o.jpg", "is_closed": false, "url": "https://www.yelp.com/biz/terra-cotta-warrior-san-francisco?adjust_creative=Klanz-jboxl2XzqrjP6LLw&utm_campaign=yelp_api_v3&utm_medium=api_v3_business_search&utm_source=Klanz-jboxl2XzqrjP6LLw", "review_count": 611, "categories": [{"alias": "chinese", "title": "Chinese"}, {"alias": "noodles", "title": "Noodles"}, {"alias": "burgers", "title": "Burgers"}], "rating": 4.0, "coordinates": {"latitude": 37.76102, "longitude": -122.489581}, "transactions": ["delivery"], "price": "$$", "location": {"address1": "2555 Judah St", "address2": "", "address3": "", "city": "San Francisco", "zip_code": "94122", "country": "US", "state": "CA", "display_address": ["2555 Judah St", "San Francisco, CA 94122"]}, "phone": "+14156813288", "display_phone": "(415) 681-3288", "distance": 4670.886246953901}, {"id": "JREYfwKDluLFE4MjzAoaNg", "alias": "ming-yuan-restaurant-daly-city", "name": "Ming Yuan Restaurant", "image_url": "https://s3-media1.fl.yelpcdn.com/bphoto/s9Fc5cOS-HCtujefV4oDUg/o.jpg", "is_closed": false, "url": "https://www.yelp.com/biz/ming-yuan-restaurant-daly-city?adjust_creative=Klanz-jboxl2XzqrjP6LLw&utm_campaign=yelp_api_v3&utm_medium=api_v3_business_search&utm_source=Klanz-jboxl2XzqrjP6LLw", "review_count": 87, "categories": [{"alias": "dimsum", "title": "Dim Sum"}, {"alias": "seafood", "title": "Seafood"}], "rating": 3.0, "coordinates": {"latitude": 37.697108, "longitude": -122.484652}, "transactions": ["delivery", "pickup"], "price": "$$", "location": {"address1": "209 Southgate Ave", "address2": "", "address3": null, "city": "Daly City", "zip_code": "94015", "country": "US", "state": "CA", "display_address": ["209 Southgate Ave", "Daly City, CA 94015"]}, "phone": "+16507558800", "display_phone": "(650) 755-8800", "distance": 8262.676307982782}, {"id": "DceTpSF9RJ9PBvfX-_EImQ", "alias": "shandong-restaurant-oakland", "name": "Shandong Restaurant", "image_url": "https://s3-media2.fl.yelpcdn.com/bphoto/Suj414J80yiiAcAhbPBPcA/o.jpg", "is_closed": false, "url": "https://www.yelp.com/biz/shandong-restaurant-oakland?adjust_creative=Klanz-jboxl2XzqrjP6LLw&utm_campaign=yelp_api_v3&utm_medium=api_v3_business_search&utm_source=Klanz-jboxl2XzqrjP6LLw", "review_count": 3260, "categories": [{"alias": "chinese", "title": "Chinese"}, {"alias": "seafood", "title": "Seafood"}, {"alias": "noodles", "title": "Noodles"}], "rating": 4.0, "coordinates": {"latitude": 37.800607171031, "longitude": -122.26986193448}, "transactions": ["delivery", "pickup"], "price": "$$", "location": {"address1": "328 10th St", "address2": "Ste 101", "address3": "", "city": "Oakland", "zip_code": "94607", "country": "US", "state": "CA", "display_address": ["328 10th St", "Ste 101", "Oakland, CA 94607"]}, "phone": "+15108392299", "display_phone": "(510) 839-2299", "distance": 15291.487509071872}, {"id": "XAYwAF_83becwNnSJDFkpA", "alias": "dumpling-house-san-francisco", "name": "Dumpling House", "image_url": "https://s3-media2.fl.yelpcdn.com/bphoto/DNfqq1zYxbJ-gsalml7wng/o.jpg", "is_closed": false, "url": "https://www.yelp.com/biz/dumpling-house-san-francisco?adjust_creative=Klanz-jboxl2XzqrjP6LLw&utm_campaign=yelp_api_v3&utm_medium=api_v3_business_search&utm_source=Klanz-jboxl2XzqrjP6LLw", "review_count": 283, "categories": [{"alias": "dimsum", "title": "Dim Sum"}, {"alias": "asianfusion", "title": "Asian Fusion"}], "rating": 4.5, "coordinates": {"latitude": 37.763552, "longitude": -122.432762}, "transactions": ["pickup", "delivery"], "price": "$$", "location": {"address1": "335 Noe St", "address2": "", "address3": null, "city": "San Francisco", "zip_code": "94114", "country": "US", "state": "CA", "display_address": ["335 Noe St", "San Francisco, CA 94114"]}, "phone": "+14158292789", "display_phone": "(415) 829-2789", "distance": 436.04221561234874}, {"id": "2FuVuO6uJUviM1QAawlAPA", "alias": "aceking-bbq-san-francisco-3", "name": "Aceking BBQ", "image_url": "https://s3-media1.fl.yelpcdn.com/bphoto/I9nCEW8-89DINNnlrOWZMA/o.jpg", "is_closed": false, "url": "https://www.yelp.com/biz/aceking-bbq-san-francisco-3?adjust_creative=Klanz-jboxl2XzqrjP6LLw&utm_campaign=yelp_api_v3&utm_medium=api_v3_business_search&utm_source=Klanz-jboxl2XzqrjP6LLw", "review_count": 85, "categories": [{"alias": "chinese", "title": "Chinese"}, {"alias": "bbq", "title": "Barbeque"}], "rating": 4.0, "coordinates": {"latitude": 37.78254, "longitude": -122.47891}, "transactions": ["pickup", "delivery", "restaurant_reservation"], "price": "$", "location": {"address1": "1820 Clement St", "address2": null, "address3": "", "city": "San Francisco", "zip_code": "94121", "country": "US", "state": "CA", "display_address": ["1820 Clement St", "San Francisco, CA 94121"]}, "phone": "+14158649374", "display_phone": "(415) 864-9374", "distance": 4437.758303813769}, {"id": "sW7WYYrHEvR8yEYxautAgQ", "alias": "mission-chinese-food-san-francisco-4", "name": "Mission Chinese Food", "image_url": "https://s3-media4.fl.yelpcdn.com/bphoto/kA6Vf3NDSEmY9vz2ISpHmg/o.jpg", "is_closed": false, "url": "https://www.yelp.com/biz/mission-chinese-food-san-francisco-4?adjust_creative=Klanz-jboxl2XzqrjP6LLw&utm_campaign=yelp_api_v3&utm_medium=api_v3_business_search&utm_source=Klanz-jboxl2XzqrjP6LLw", "review_count": 2356, "categories": [{"alias": "chinese", "title": "Chinese"}], "rating": 3.5, "coordinates": {"latitude": 37.761204, "longitude": -122.4195}, "transactions": ["delivery", "pickup"], "price": "$$", "location": {"address1": "2234 Mission St", "address2": "", "address3": "Lung Shan Restaurant", "city": "San Francisco", "zip_code": "94110", "country": "US", "state": "CA", "display_address": ["2234 Mission St", "Lung Shan Restaurant", "San Francisco, CA 94110"]}, "phone": "+14158632800", "display_phone": "(415) 863-2800", "distance": 1490.1649772630597}, {"id": "l7FgB0X6a-eM0U_M9pvMUA", "alias": "noriega-cafe-san-francisco", "name": "Noriega Cafe", "image_url": "https://s3-media4.fl.yelpcdn.com/bphoto/nx3Y31NHEkJ2NOxX6mWDtw/o.jpg", "is_closed": false, "url": "https://www.yelp.com/biz/noriega-cafe-san-francisco?adjust_creative=Klanz-jboxl2XzqrjP6LLw&utm_campaign=yelp_api_v3&utm_medium=api_v3_business_search&utm_source=Klanz-jboxl2XzqrjP6LLw", "review_count": 47, "categories": [{"alias": "chinese", "title": "Chinese"}, {"alias": "seafood", "title": "Seafood"}, {"alias": "noodles", "title": "Noodles"}], "rating": 3.5, "coordinates": {"latitude": 37.75406, "longitude": -122.47728}, "transactions": ["delivery", "pickup"], "location": {"address1": "1245 Noriega St", "address2": null, "address3": "", "city": "San Francisco", "zip_code": "94122", "country": "US", "state": "CA", "display_address": ["1245 Noriega St", "San Francisco, CA 94122"]}, "phone": "+14157026218", "display_phone": "(415) 702-6218", "distance": 3672.504900007411}, {"id": "sAh7HSFXR9qnuH3kT3koeQ", "alias": "cheung-hing-san-francisco", "name": "Cheung Hing", "image_url": "https://s3-media2.fl.yelpcdn.com/bphoto/RJwJa8AuNKkygdbSyij6dQ/o.jpg", "is_closed": false, "url": "https://www.yelp.com/biz/cheung-hing-san-francisco?adjust_creative=Klanz-jboxl2XzqrjP6LLw&utm_campaign=yelp_api_v3&utm_medium=api_v3_business_search&utm_source=Klanz-jboxl2XzqrjP6LLw", "review_count": 707, "categories": [{"alias": "chinese", "title": "Chinese"}, {"alias": "bbq", "title": "Barbeque"}], "rating": 4.0, "coordinates": {"latitude": 37.75343, "longitude": -122.48892}, "transactions": ["delivery"], "price": "$$", "location": {"address1": "2339 Noriega St", "address2": "", "address3": "", "city": "San Francisco", "zip_code": "94122", "country": "US", "state": "CA", "display_address": ["2339 Noriega St", "San Francisco, CA 94122"]}, "phone": "+14156653271", "display_phone": "(415) 665-3271", "distance": 4687.781230552379}, {"id": "q22kIfCuND7shr9vkOmwnQ", "alias": "fang-san-francisco-2", "name": "Fang", "image_url": "https://s3-media3.fl.yelpcdn.com/bphoto/0EqBLDrBrbKSbf3vLTIpYg/o.jpg", "is_closed": false, "url": "https://www.yelp.com/biz/fang-san-francisco-2?adjust_creative=Klanz-jboxl2XzqrjP6LLw&utm_campaign=yelp_api_v3&utm_medium=api_v3_business_search&utm_source=Klanz-jboxl2XzqrjP6LLw", "review_count": 1657, "categories": [{"alias": "chinese", "title": "Chinese"}, {"alias": "asianfusion", "title": "Asian Fusion"}], "rating": 3.5, "coordinates": {"latitude": 37.78579, "longitude": -122.39987}, "transactions": ["delivery", "pickup"], "price": "$$", "location": {"address1": "660 Howard St", "address2": "", "address3": "", "city": "San Francisco", "zip_code": "94105", "country": "US", "state": "CA", "display_address": ["660 Howard St", "San Francisco, CA 94105"]}, "phone": "+14157778568", "display_phone": "(415) 777-8568", "distance": 4242.21586452734}, {"id": "UGKNNQ6bjL-ZttHSdZISfA", "alias": "blackwood-san-francisco-3", "name": "Blackwood", "image_url": "https://s3-media3.fl.yelpcdn.com/bphoto/4J7kmKdrkZjb48WRxzx4TQ/o.jpg", "is_closed": false, "url": "https://www.yelp.com/biz/blackwood-san-francisco-3?adjust_creative=Klanz-jboxl2XzqrjP6LLw&utm_campaign=yelp_api_v3&utm_medium=api_v3_business_search&utm_source=Klanz-jboxl2XzqrjP6LLw", "review_count": 1897, "categories": [{"alias": "thai", "title": "Thai"}, {"alias": "breakfast_brunch", "title": "Breakfast & Brunch"}, {"alias": "asianfusion", "title": "Asian Fusion"}], "rating": 4.0, "coordinates": {"latitude": 37.800591, "longitude": -122.438832}, "transactions": ["delivery", "pickup", "restaurant_reservation"], "price": "$$", "location": {"address1": "2150 Chestnut St", "address2": "", "address3": "", "city": "San Francisco", "zip_code": "94123", "country": "US", "state": "CA", "display_address": ["2150 Chestnut St", "San Francisco, CA 94123"]}, "phone": "+14159319663", "display_phone": "(415) 931-9663", "distance": 4418.474572931308}, {"id": "qsJYVZCxZNWMjMyMlsGl5A", "alias": "new-fortune-restaurant-san-francisco", "name": "New Fortune Restaurant", "image_url": "https://s3-media2.fl.yelpcdn.com/bphoto/19pyI0QVUSIkaFZp5jXg8g/o.jpg", "is_closed": false, "url": "https://www.yelp.com/biz/new-fortune-restaurant-san-francisco?adjust_creative=Klanz-jboxl2XzqrjP6LLw&utm_campaign=yelp_api_v3&utm_medium=api_v3_business_search&utm_source=Klanz-jboxl2XzqrjP6LLw", "review_count": 126, "categories": [{"alias": "chinese", "title": "Chinese"}], "rating": 4.5, "coordinates": {"latitude": 37.79335, "longitude": -122.40801}, "transactions": ["delivery", "pickup"], "price": "$", "location": {"address1": "815 Stockton St", "address2": "", "address3": null, "city": "San Francisco", "zip_code": "94108", "country": "US", "state": "CA", "display_address": ["815 Stockton St", "San Francisco, CA 94108"]}, "phone": "+14156587306", "display_phone": "(415) 658-7306", "distance": 4390.420173203169}, {"id": "kvrQecqdGvnuVICMstZJmA", "alias": "dumpling-home-san-francisco", "name": "Dumpling Home", "image_url": "https://s3-media3.fl.yelpcdn.com/bphoto/GAjBPEXegP9_JilXDXpLpg/o.jpg", "is_closed": false, "url": "https://www.yelp.com/biz/dumpling-home-san-francisco?adjust_creative=Klanz-jboxl2XzqrjP6LLw&utm_campaign=yelp_api_v3&utm_medium=api_v3_business_search&utm_source=Klanz-jboxl2XzqrjP6LLw", "review_count": 385, "categories": [{"alias": "dimsum", "title": "Dim Sum"}, {"alias": "noodles", "title": "Noodles"}, {"alias": "asianfusion", "title": "Asian Fusion"}], "rating": 4.5, "coordinates": {"latitude": 37.775830550017254, "longitude": -122.4226361}, "transactions": ["pickup", "delivery"], "price": "$$", "location": {"address1": "298 Gough St", "address2": "", "address3": null, "city": "San Francisco", "zip_code": "94102", "country": "US", "state": "CA", "display_address": ["298 Gough St", "San Francisco, CA 94102"]}, "phone": "+14155031666", "display_phone": "(415) 503-1666", "distance": 2056.7497118286074}, {"id": "kn2iEL0S3UOPkdV4Cdtbyg", "alias": "koi-palace-daly-city", "name": "Koi Palace", "image_url": "https://s3-media3.fl.yelpcdn.com/bphoto/bR9LsB0PxLqaptqbfj6wQQ/o.jpg", "is_closed": false, "url": "https://www.yelp.com/biz/koi-palace-daly-city?adjust_creative=Klanz-jboxl2XzqrjP6LLw&utm_campaign=yelp_api_v3&utm_medium=api_v3_business_search&utm_source=Klanz-jboxl2XzqrjP6LLw", "review_count": 3410, "categories": [{"alias": "seafood", "title": "Seafood"}, {"alias": "cantonese", "title": "Cantonese"}], "rating": 3.5, "coordinates": {"latitude": 37.6659927368164, "longitude": -122.466835021973}, "transactions": ["pickup", "delivery", "restaurant_reservation"], "price": "$$", "location": {"address1": "365 Gellert Blvd", "address2": "", "address3": "", "city": "Daly City", "zip_code": "94015", "country": "US", "state": "CA", "display_address": ["365 Gellert Blvd", "Daly City, CA 94015"]}, "phone": "+16509929000", "display_phone": "(650) 992-9000", "distance": 10878.338858014722}, {"id": "XarlPaCUzwPfif0-TJe3Pw", "alias": "golden-coast-restaurant-san-francisco-2", "name": "Golden Coast Restaurant", "image_url": "https://s3-media1.fl.yelpcdn.com/bphoto/0yXdMhEZj572GciPQgeNLQ/o.jpg", "is_closed": false, "url": "https://www.yelp.com/biz/golden-coast-restaurant-san-francisco-2?adjust_creative=Klanz-jboxl2XzqrjP6LLw&utm_campaign=yelp_api_v3&utm_medium=api_v3_business_search&utm_source=Klanz-jboxl2XzqrjP6LLw", "review_count": 113, "categories": [{"alias": "dimsum", "title": "Dim Sum"}, {"alias": "seafood", "title": "Seafood"}, {"alias": "cantonese", "title": "Cantonese"}], "rating": 3.0, "coordinates": {"latitude": 37.724714, "longitude": -122.458907}, "transactions": ["delivery", "pickup"], "price": "$$", "location": {"address1": "1540 Ocean Ave", "address2": "", "address3": null, "city": "San Francisco", "zip_code": "94112", "country": "US", "state": "CA", "display_address": ["1540 Ocean Ave", "San Francisco, CA 94112"]}, "phone": "+14155871698", "display_phone": "(415) 587-1698", "distance": 4482.1544965968105}, {"id": "7UO9ZSGbm1X6GkezeJeyFg", "alias": "orchids-cafe-san-francisco-5", "name": "Orchids Cafe", "image_url": "https://s3-media4.fl.yelpcdn.com/bphoto/nDQ6wjrxX-RZkHRBzz0hKw/o.jpg", "is_closed": false, "url": "https://www.yelp.com/biz/orchids-cafe-san-francisco-5?adjust_creative=Klanz-jboxl2XzqrjP6LLw&utm_campaign=yelp_api_v3&utm_medium=api_v3_business_search&utm_source=Klanz-jboxl2XzqrjP6LLw", "review_count": 163, "categories": [{"alias": "chinese", "title": "Chinese"}, {"alias": "hkcafe", "title": "Hong Kong Style Cafe"}], "rating": 4.0, "coordinates": {"latitude": 37.72311, "longitude": -122.45369}, "transactions": ["delivery", "pickup"], "price": "$$", "location": {"address1": "1031 Ocean Ave", "address2": "", "address3": null, "city": "San Francisco", "zip_code": "94112", "country": "US", "state": "CA", "display_address": ["1031 Ocean Ave", "San Francisco, CA 94112"]}, "phone": "+14153338668", "display_phone": "(415) 333-8668", "distance": 4466.7296848014075}, {"id": "pknqZiaDbSNFUnJrOpkKcw", "alias": "hakka-restaurant-san-francisco", "name": "Hakka Restaurant", "image_url": "https://s3-media2.fl.yelpcdn.com/bphoto/cdpjbTQnb_vIj1j7XYSO0Q/o.jpg", "is_closed": false, "url": "https://www.yelp.com/biz/hakka-restaurant-san-francisco?adjust_creative=Klanz-jboxl2XzqrjP6LLw&utm_campaign=yelp_api_v3&utm_medium=api_v3_business_search&utm_source=Klanz-jboxl2XzqrjP6LLw", "review_count": 459, "categories": [{"alias": "chinese", "title": "Chinese"}], "rating": 3.5, "coordinates": {"latitude": 37.7732009887695, "longitude": -122.505920410156}, "transactions": ["delivery", "pickup"], "price": "$$", "location": {"address1": "4401 Cabrillo St", "address2": "", "address3": "", "city": "San Francisco", "zip_code": "94121", "country": "US", "state": "CA", "display_address": ["4401 Cabrillo St", "San Francisco, CA 94121"]}, "phone": "+14158766898", "display_phone": "(415) 876-6898", "distance": 6260.21287902557}, {"id": "VPXezwmTETrwitrzj9BZPA", "alias": "dumpling-time-san-francisco", "name": "Dumpling Time", "image_url": "https://s3-media4.fl.yelpcdn.com/bphoto/d492DJLRg7-HyZgPpyeGhQ/o.jpg", "is_closed": false, "url": "https://www.yelp.com/biz/dumpling-time-san-francisco?adjust_creative=Klanz-jboxl2XzqrjP6LLw&utm_campaign=yelp_api_v3&utm_medium=api_v3_business_search&utm_source=Klanz-jboxl2XzqrjP6LLw", "review_count": 2302, "categories": [{"alias": "dimsum", "title": "Dim Sum"}, {"alias": "asianfusion", "title": "Asian Fusion"}], "rating": 4.0, "coordinates": {"latitude": 37.7697533, "longitude": -122.4022546}, "transactions": ["pickup", "delivery"], "price": "$$", "location": {"address1": "11 Division St", "address2": "", "address3": null, "city": "San Francisco", "zip_code": "94103", "country": "US", "state": "CA", "display_address": ["11 Division St", "San Francisco, CA 94103"]}, "phone": "+14155254797", "display_phone": "(415) 525-4797", "distance": 3151.2428912681967}, {"id": "_az0NrGR-v9P-xtKoE45CA", "alias": "new-jumbo-seafood-restaurant-san-francisco", "name": "New Jumbo Seafood Restaurant", "image_url": "https://s3-media2.fl.yelpcdn.com/bphoto/lhdiR0c4nZpmg2Imp1b6Vg/o.jpg", "is_closed": false, "url": "https://www.yelp.com/biz/new-jumbo-seafood-restaurant-san-francisco?adjust_creative=Klanz-jboxl2XzqrjP6LLw&utm_campaign=yelp_api_v3&utm_medium=api_v3_business_search&utm_source=Klanz-jboxl2XzqrjP6LLw", "review_count": 243, "categories": [{"alias": "seafood", "title": "Seafood"}, {"alias": "cantonese", "title": "Cantonese"}], "rating": 2.5, "coordinates": {"latitude": 37.75432, "longitude": -122.48032}, "transactions": [], "price": "$$", "location": {"address1": "1532 Noriega St", "address2": "", "address3": "", "city": "San Francisco", "zip_code": "94122", "country": "US", "state": "CA", "display_address": ["1532 Noriega St", "San Francisco, CA 94122"]}, "phone": "+14156811800", "display_phone": "(415) 681-1800", "distance": 3926.5866049300676}, {"id": "-Wei8JiA-RBzuSnO_9X0FQ", "alias": "rooster-and-rice-san-francisco-4", "name": "Rooster & Rice", "image_url": "https://s3-media2.fl.yelpcdn.com/bphoto/zpBunisFjuyLrLU9XUaFVg/o.jpg", "is_closed": false, "url": "https://www.yelp.com/biz/rooster-and-rice-san-francisco-4?adjust_creative=Klanz-jboxl2XzqrjP6LLw&utm_campaign=yelp_api_v3&utm_medium=api_v3_business_search&utm_source=Klanz-jboxl2XzqrjP6LLw", "review_count": 481, "categories": [{"alias": "chickenshop", "title": "Chicken Shop"}, {"alias": "thai", "title": "Thai"}], "rating": 4.5, "coordinates": {"latitude": 37.7979011997338, "longitude": -122.436055409297}, "transactions": ["delivery", "pickup"], "price": "$$", "location": {"address1": "2211 Filbert St", "address2": null, "address3": "", "city": "San Francisco", "zip_code": "94123", "country": "US", "state": "CA", "display_address": ["2211 Filbert St", "San Francisco, CA 94123"]}, "phone": "+14157763647", "display_phone": "(415) 776-3647", "distance": 4114.553018985324}, {"id": "sp4Axlo-ddvYpl8xUeUsVw", "alias": "lime-tree-southeast-asian-kitchen-san-francisco", "name": "Lime Tree Southeast Asian Kitchen", "image_url": "https://s3-media1.fl.yelpcdn.com/bphoto/8owih7ncLfWLmlHuBDVvOg/o.jpg", "is_closed": false, "url": "https://www.yelp.com/biz/lime-tree-southeast-asian-kitchen-san-francisco?adjust_creative=Klanz-jboxl2XzqrjP6LLw&utm_campaign=yelp_api_v3&utm_medium=api_v3_business_search&utm_source=Klanz-jboxl2XzqrjP6LLw", "review_count": 1538, "categories": [{"alias": "malaysian", "title": "Malaysian"}, {"alias": "indonesian", "title": "Indonesian"}, {"alias": "noodles", "title": "Noodles"}], "rating": 4.0, "coordinates": {"latitude": 37.764337, "longitude": -122.462736}, "transactions": ["delivery"], "price": "$$", "location": {"address1": "450 Irving St", "address2": "", "address3": "", "city": "San Francisco", "zip_code": "94122", "country": "US", "state": "CA", "display_address": ["450 Irving St", "San Francisco, CA 94122"]}, "phone": "+14156651415", "display_phone": "(415) 665-1415", "distance": 2342.336660707331}, {"id": "R7QrC8pX9luLd5cx3Fzl3A", "alias": "eight-immortals-restaurant-san-francisco", "name": "Eight Immortals Restaurant", "image_url": "https://s3-media2.fl.yelpcdn.com/bphoto/yw6O6bjoG5b8GpNdKsQ3dw/o.jpg", "is_closed": false, "url": "https://www.yelp.com/biz/eight-immortals-restaurant-san-francisco?adjust_creative=Klanz-jboxl2XzqrjP6LLw&utm_campaign=yelp_api_v3&utm_medium=api_v3_business_search&utm_source=Klanz-jboxl2XzqrjP6LLw", "review_count": 389, "categories": [{"alias": "chinese", "title": "Chinese"}], "rating": 3.5, "coordinates": {"latitude": 37.74254, "longitude": -122.48165}, "transactions": ["delivery", "pickup"], "price": "$", "location": {"address1": "1433 Taraval St", "address2": "", "address3": "", "city": "San Francisco", "zip_code": "94116", "country": "US", "state": "CA", "display_address": ["1433 Taraval St", "San Francisco, CA 94116"]}, "phone": "+14157315515", "display_phone": "(415) 731-5515", "distance": 4465.241928859346}, {"id": "kTLg9WzrJIujIYWKcYBGSw", "alias": "oriental-seafood-restaurant-san-francisco", "name": "Oriental Seafood Restaurant", "image_url": "https://s3-media4.fl.yelpcdn.com/bphoto/m0HPZyxQv9tIgy3SEb_lNw/o.jpg", "is_closed": false, "url": "https://www.yelp.com/biz/oriental-seafood-restaurant-san-francisco?adjust_creative=Klanz-jboxl2XzqrjP6LLw&utm_campaign=yelp_api_v3&utm_medium=api_v3_business_search&utm_source=Klanz-jboxl2XzqrjP6LLw", "review_count": 190, "categories": [{"alias": "chinese", "title": "Chinese"}, {"alias": "seafood", "title": "Seafood"}], "rating": 3.0, "coordinates": {"latitude": 37.7538375854492, "longitude": -122.49072265625}, "transactions": ["pickup"], "price": "$", "location": {"address1": "2520 Noriega St", "address2": "", "address3": "", "city": "San Francisco", "zip_code": "94122", "country": "US", "state": "CA", "display_address": ["2520 Noriega St", "San Francisco, CA 94122"]}, "phone": "+14156618808", "display_phone": "(415) 661-8808", "distance": 4849.378425288153}, {"id": "k7otKOlL-1gmrmbMzl4M7w", "alias": "old-pier-hot-pot-san-francisco", "name": "Old Pier Hot Pot", "image_url": "https://s3-media4.fl.yelpcdn.com/bphoto/-Gs862RKY7_cVa6VmorzVw/o.jpg", "is_closed": false, "url": "https://www.yelp.com/biz/old-pier-hot-pot-san-francisco?adjust_creative=Klanz-jboxl2XzqrjP6LLw&utm_campaign=yelp_api_v3&utm_medium=api_v3_business_search&utm_source=Klanz-jboxl2XzqrjP6LLw", "review_count": 30, "categories": [{"alias": "chinese", "title": "Chinese"}, {"alias": "hotpot", "title": "Hot Pot"}, {"alias": "bbq", "title": "Barbeque"}], "rating": 4.0, "coordinates": {"latitude": 37.74285871579847, "longitude": -122.47738477136205}, "transactions": [], "price": "$$", "location": {"address1": "1033 Taraval St", "address2": null, "address3": "", "city": "San Francisco", "zip_code": "94116", "country": "US", "state": "CA", "display_address": ["1033 Taraval St", "San Francisco, CA 94116"]}, "phone": "+14157026378", "display_phone": "(415) 702-6378", "distance": 4120.456848196365}, {"id": "f7plDqr6Dfu-Vbo-0JBmcw", "alias": "kung-food-san-francisco", "name": "Kung Food", "image_url": "https://s3-media3.fl.yelpcdn.com/bphoto/O-cDmAmhL_MHRjMxDhEzVg/o.jpg", "is_closed": false, "url": "https://www.yelp.com/biz/kung-food-san-francisco?adjust_creative=Klanz-jboxl2XzqrjP6LLw&utm_campaign=yelp_api_v3&utm_medium=api_v3_business_search&utm_source=Klanz-jboxl2XzqrjP6LLw", "review_count": 610, "categories": [{"alias": "chinese", "title": "Chinese"}], "rating": 4.0, "coordinates": {"latitude": 37.7776557732483, "longitude": -122.438782954299}, "transactions": ["delivery", "pickup"], "price": "$$", "location": {"address1": "1615 McAllister St", "address2": "", "address3": "", "city": "San Francisco", "zip_code": "94115", "country": "US", "state": "CA", "display_address": ["1615 McAllister St", "San Francisco, CA 94115"]}, "phone": "+14156736688", "display_phone": "(415) 673-6688", "distance": 1874.5005246163232}, {"id": "XQLmEdXoMzOpffwoFaBtaQ", "alias": "kitchen-story-san-francisco", "name": "Kitchen Story", "image_url": "https://s3-media3.fl.yelpcdn.com/bphoto/XIhdtd0fB2P_v_qhh1hWbg/o.jpg", "is_closed": false, "url": "https://www.yelp.com/biz/kitchen-story-san-francisco?adjust_creative=Klanz-jboxl2XzqrjP6LLw&utm_campaign=yelp_api_v3&utm_medium=api_v3_business_search&utm_source=Klanz-jboxl2XzqrjP6LLw", "review_count": 3653, "categories": [{"alias": "breakfast_brunch", "title": "Breakfast & Brunch"}, {"alias": "asianfusion", "title": "Asian Fusion"}, {"alias": "newamerican", "title": "American (New)"}], "rating": 4.0, "coordinates": {"latitude": 37.7642352, "longitude": -122.4306936}, "transactions": ["pickup", "delivery", "restaurant_reservation"], "price": "$$", "location": {"address1": "3499 16th St", "address2": "", "address3": "", "city": "San Francisco", "zip_code": "94114", "country": "US", "state": "CA", "display_address": ["3499 16th St", "San Francisco, CA 94114"]}, "phone": "+14155254905", "display_phone": "(415) 525-4905", "distance": 624.4353688015374}, {"id": "tYU0M2jW7FIjzRHJ3nAUVw", "alias": "the-crew-san-francisco", "name": "The Crew", "image_url": "https://s3-media4.fl.yelpcdn.com/bphoto/DOO1lYoNSGdbdhjlYaE0OA/o.jpg", "is_closed": false, "url": "https://www.yelp.com/biz/the-crew-san-francisco?adjust_creative=Klanz-jboxl2XzqrjP6LLw&utm_campaign=yelp_api_v3&utm_medium=api_v3_business_search&utm_source=Klanz-jboxl2XzqrjP6LLw", "review_count": 486, "categories": [{"alias": "korean", "title": "Korean"}, {"alias": "bbq", "title": "Barbeque"}], "rating": 4.0, "coordinates": {"latitude": 37.7543406605787, "longitude": -122.478169364418}, "transactions": ["delivery"], "price": "$$", "location": {"address1": "1330 Noriega St", "address2": "", "address3": "", "city": "San Francisco", "zip_code": "94122", "country": "US", "state": "CA", "display_address": ["1330 Noriega St", "San Francisco, CA 94122"]}, "phone": "+14156658548", "display_phone": "(415) 665-8548", "distance": 3739.6654482868444}, {"id": "IPpQnGDJVApDEM5A93txtw", "alias": "mandalay-san-francisco", "name": "Mandalay", "image_url": "https://s3-media1.fl.yelpcdn.com/bphoto/VIOT0RQcIZY35C4ICyTo6w/o.jpg", "is_closed": false, "url": "https://www.yelp.com/biz/mandalay-san-francisco?adjust_creative=Klanz-jboxl2XzqrjP6LLw&utm_campaign=yelp_api_v3&utm_medium=api_v3_business_search&utm_source=Klanz-jboxl2XzqrjP6LLw", "review_count": 2247, "categories": [{"alias": "burmese", "title": "Burmese"}, {"alias": "asianfusion", "title": "Asian Fusion"}], "rating": 4.0, "coordinates": {"latitude": 37.7851484, "longitude": -122.4643918}, "transactions": ["pickup", "delivery", "restaurant_reservation"], "price": "$$", "location": {"address1": "4348 California St", "address2": "", "address3": "", "city": "San Francisco", "zip_code": "94118", "country": "US", "state": "CA", "display_address": ["4348 California St", "San Francisco, CA 94118"]}, "phone": "+14153863896", "display_phone": "(415) 386-3896", "distance": 3650.8622623600268}, {"id": "DMWoU9-aRw78JTfspcdEeQ", "alias": "imperial-garden-seafood-restaurant-san-francisco", "name": "Imperial Garden Seafood Restaurant", "image_url": "https://s3-media2.fl.yelpcdn.com/bphoto/jRUGJOnLBMQgC_EM5nyZzA/o.jpg", "is_closed": false, "url": "https://www.yelp.com/biz/imperial-garden-seafood-restaurant-san-francisco?adjust_creative=Klanz-jboxl2XzqrjP6LLw&utm_campaign=yelp_api_v3&utm_medium=api_v3_business_search&utm_source=Klanz-jboxl2XzqrjP6LLw", "review_count": 203, "categories": [{"alias": "dimsum", "title": "Dim Sum"}], "rating": 2.5, "coordinates": {"latitude": 37.72845899999835, "longitude": -122.40408902331406}, "transactions": ["delivery", "pickup"], "price": "$$", "location": {"address1": "2626 San Bruno Ave", "address2": "", "address3": "", "city": "San Francisco", "zip_code": "94134", "country": "US", "state": "CA", "display_address": ["2626 San Bruno Ave", "San Francisco, CA 94134"]}, "phone": "+14154689333", "display_phone": "(415) 468-9333", "distance": 4594.21198684527}, {"id": "6LfqlrbkpjZt83bEMZWq7A", "alias": "asiasf-san-francisco", "name": "AsiaSF", "image_url": "https://s3-media3.fl.yelpcdn.com/bphoto/j0EMMcvTEdawrdqI4iihJA/o.jpg", "is_closed": false, "url": "https://www.yelp.com/biz/asiasf-san-francisco?adjust_creative=Klanz-jboxl2XzqrjP6LLw&utm_campaign=yelp_api_v3&utm_medium=api_v3_business_search&utm_source=Klanz-jboxl2XzqrjP6LLw", "review_count": 1848, "categories": [{"alias": "asianfusion", "title": "Asian Fusion"}, {"alias": "danceclubs", "title": "Dance Clubs"}], "rating": 4.0, "coordinates": {"latitude": 37.77503, "longitude": -122.41281}, "transactions": [], "price": "$$$", "location": {"address1": "201 9th St", "address2": "", "address3": "", "city": "San Francisco", "zip_code": "94103", "country": "US", "state": "CA", "display_address": ["201 9th St", "San Francisco, CA 94103"]}, "phone": "+14152552742", "display_phone": "(415) 255-2742", "distance": 2602.0372193877624}, {"id": "C0whbbQhUMBv8X-Mmtqrcg", "alias": "house-of-nanking-san-francisco", "name": "House of Nanking", "image_url": "https://s3-media2.fl.yelpcdn.com/bphoto/YC61C4rA43FQkROtkflXdQ/o.jpg", "is_closed": false, "url": "https://www.yelp.com/biz/house-of-nanking-san-francisco?adjust_creative=Klanz-jboxl2XzqrjP6LLw&utm_campaign=yelp_api_v3&utm_medium=api_v3_business_search&utm_source=Klanz-jboxl2XzqrjP6LLw", "review_count": 3540, "categories": [{"alias": "dimsum", "title": "Dim Sum"}, {"alias": "cantonese", "title": "Cantonese"}, {"alias": "noodles", "title": "Noodles"}], "rating": 3.5, "coordinates": {"latitude": 37.79649, "longitude": -122.405392}, "transactions": ["delivery", "pickup"], "price": "$$", "location": {"address1": "919 Kearny St", "address2": "", "address3": "", "city": "San Francisco", "zip_code": "94133", "country": "US", "state": "CA", "display_address": ["919 Kearny St", "San Francisco, CA 94133"]}, "phone": "+14154211429", "display_phone": "(415) 421-1429", "distance": 4807.385841415553}, {"id": "z9CN58fSrA46ggyb6OnCnQ", "alias": "thanh-long-san-francisco", "name": "Thanh Long", "image_url": "https://s3-media3.fl.yelpcdn.com/bphoto/GmQdyVpGOPf8ZwRhXz3xnA/o.jpg", "is_closed": false, "url": "https://www.yelp.com/biz/thanh-long-san-francisco?adjust_creative=Klanz-jboxl2XzqrjP6LLw&utm_campaign=yelp_api_v3&utm_medium=api_v3_business_search&utm_source=Klanz-jboxl2XzqrjP6LLw", "review_count": 2853, "categories": [{"alias": "seafood", "title": "Seafood"}, {"alias": "vietnamese", "title": "Vietnamese"}], "rating": 4.0, "coordinates": {"latitude": 37.76017, "longitude": -122.50609}, "transactions": ["delivery", "restaurant_reservation"], "price": "$$$", "location": {"address1": "4101 Judah St", "address2": "", "address3": "", "city": "San Francisco", "zip_code": "94122", "country": "US", "state": "CA", "display_address": ["4101 Judah St", "San Francisco, CA 94122"]}, "phone": "+14156651146", "display_phone": "(415) 665-1146", "distance": 6122.71458423659}, {"id": "DQy0uYB0kym-s3oZZRxs5Q", "alias": "house-of-pancakes-san-francisco", "name": "House Of Pancakes", "image_url": "https://s3-media2.fl.yelpcdn.com/bphoto/CHvyn0MpiORsCtvHvm1sEw/o.jpg", "is_closed": false, "url": "https://www.yelp.com/biz/house-of-pancakes-san-francisco?adjust_creative=Klanz-jboxl2XzqrjP6LLw&utm_campaign=yelp_api_v3&utm_medium=api_v3_business_search&utm_source=Klanz-jboxl2XzqrjP6LLw", "review_count": 1062, "categories": [{"alias": "noodles", "title": "Noodles"}, {"alias": "taiwanese", "title": "Taiwanese"}, {"alias": "pancakes", "title": "Pancakes"}], "rating": 4.0, "coordinates": {"latitude": 37.742904, "longitude": -122.476349}, "transactions": ["delivery"], "price": "$$", "location": {"address1": "937 Taraval St", "address2": "", "address3": "", "city": "San Francisco", "zip_code": "94116", "country": "US", "state": "CA", "display_address": ["937 Taraval St", "San Francisco, CA 94116"]}, "phone": "+14156818388", "display_phone": "(415) 681-8388", "distance": 4038.6592544518016}, {"id": "3FVDiicTfIHUXSaCqCX3hg", "alias": "mama-liangs-san-francisco-2", "name": "Mama Liang's", "image_url": "https://s3-media1.fl.yelpcdn.com/bphoto/WvOv5nxxzjcNjTZFBb4STw/o.jpg", "is_closed": false, "url": "https://www.yelp.com/biz/mama-liangs-san-francisco-2?adjust_creative=Klanz-jboxl2XzqrjP6LLw&utm_campaign=yelp_api_v3&utm_medium=api_v3_business_search&utm_source=Klanz-jboxl2XzqrjP6LLw", "review_count": 14, "categories": [{"alias": "taiwanese", "title": "Taiwanese"}, {"alias": "noodles", "title": "Noodles"}], "rating": 4.5, "coordinates": {"latitude": 37.7766548, "longitude": -122.4025289}, "transactions": ["delivery"], "location": {"address1": "60 Morris St", "address2": null, "address3": "", "city": "San Francisco", "zip_code": "94107", "country": "US", "state": "CA", "display_address": ["60 Morris St", "San Francisco, CA 94107"]}, "phone": "", "display_phone": "", "distance": 3457.9903326407057}, {"id": "o8mLw7SrcTPis4NcvLzsOw", "alias": "good-luck-dim-sum-san-francisco", "name": "Good Luck Dim Sum", "image_url": "https://s3-media2.fl.yelpcdn.com/bphoto/0MHyVmfexqpHOlLBAtXFDQ/o.jpg", "is_closed": false, "url": "https://www.yelp.com/biz/good-luck-dim-sum-san-francisco?adjust_creative=Klanz-jboxl2XzqrjP6LLw&utm_campaign=yelp_api_v3&utm_medium=api_v3_business_search&utm_source=Klanz-jboxl2XzqrjP6LLw", "review_count": 1752, "categories": [{"alias": "dimsum", "title": "Dim Sum"}], "rating": 4.0, "coordinates": {"latitude": 37.7830772399902, "longitude": -122.46720123291}, "transactions": ["delivery"], "price": "$", "location": {"address1": "736 Clement St", "address2": "", "address3": "", "city": "San Francisco", "zip_code": "94118", "country": "US", "state": "CA", "display_address": ["736 Clement St", "San Francisco, CA 94118"]}, "phone": "+14153863388", "display_phone": "(415) 386-3388", "distance": 3659.3062390592895}, {"id": "XAIuCODMY4aFeBnpYZArdw", "alias": "beijing-tokyo-bistro-san-francisco", "name": "Beijing Tokyo Bistro", "image_url": "https://s3-media1.fl.yelpcdn.com/bphoto/EOHhZBT8a3JW7PPl3eHUpw/o.jpg", "is_closed": false, "url": "https://www.yelp.com/biz/beijing-tokyo-bistro-san-francisco?adjust_creative=Klanz-jboxl2XzqrjP6LLw&utm_campaign=yelp_api_v3&utm_medium=api_v3_business_search&utm_source=Klanz-jboxl2XzqrjP6LLw", "review_count": 16, "categories": [{"alias": "chinese", "title": "Chinese"}, {"alias": "japanese", "title": "Japanese"}], "rating": 4.5, "coordinates": {"latitude": 37.78834106855354, "longitude": -122.4402103}, "transactions": ["delivery", "pickup"], "location": {"address1": "2786 California St", "address2": null, "address3": null, "city": "San Francisco", "zip_code": "94115", "country": "US", "state": "CA", "display_address": ["2786 California St", "San Francisco, CA 94115"]}, "phone": "+14159210188", "display_phone": "(415) 921-0188", "distance": 3069.2452293244555}, {"id": "FEYkROTrZpjWo3VmGTC3dQ", "alias": "szechuan-cuisine-san-francisco-15", "name": "Szechuan Cuisine", "image_url": "https://s3-media1.fl.yelpcdn.com/bphoto/2Be70S-Vexy3vOHBC7yx3w/o.jpg", "is_closed": false, "url": "https://www.yelp.com/biz/szechuan-cuisine-san-francisco-15?adjust_creative=Klanz-jboxl2XzqrjP6LLw&utm_campaign=yelp_api_v3&utm_medium=api_v3_business_search&utm_source=Klanz-jboxl2XzqrjP6LLw", "review_count": 409, "categories": [{"alias": "szechuan", "title": "Szechuan"}, {"alias": "noodles", "title": "Noodles"}, {"alias": "soup", "title": "Soup"}], "rating": 4.0, "coordinates": {"latitude": 37.7636943071254, "longitude": -122.478669355226}, "transactions": ["pickup", "delivery"], "price": "$$", "location": {"address1": "1920 Irving St", "address2": null, "address3": "", "city": "San Francisco", "zip_code": "94122", "country": "US", "state": "CA", "display_address": ["1920 Irving St", "San Francisco, CA 94122"]}, "phone": "+14156618322", "display_phone": "(415) 661-8322", "distance": 3724.57246804166}, {"id": "q2EbLD93gEO5uXXx7Pk3bw", "alias": "benu-san-francisco-4", "name": "Benu", "image_url": "https://s3-media2.fl.yelpcdn.com/bphoto/NuJWvKMyw-PA6AtQvEOJGw/o.jpg", "is_closed": false, "url": "https://www.yelp.com/biz/benu-san-francisco-4?adjust_creative=Klanz-jboxl2XzqrjP6LLw&utm_campaign=yelp_api_v3&utm_medium=api_v3_business_search&utm_source=Klanz-jboxl2XzqrjP6LLw", "review_count": 1107, "categories": [{"alias": "newamerican", "title": "American (New)"}, {"alias": "wine_bars", "title": "Wine Bars"}, {"alias": "seafood", "title": "Seafood"}], "rating": 4.5, "coordinates": {"latitude": 37.785402, "longitude": -122.399068}, "transactions": ["delivery", "pickup"], "price": "$$$$", "location": {"address1": "22 Hawthorne St", "address2": "", "address3": "", "city": "San Francisco", "zip_code": "94105", "country": "US", "state": "CA", "display_address": ["22 Hawthorne St", "San Francisco, CA 94105"]}, "phone": "+14156854860", "display_phone": "(415) 685-4860", "distance": 4268.123760656363}, {"id": "Rc8CGVjeE9eB3KZzcsKlCQ", "alias": "spices-san-francisco-6", "name": "Spices", "image_url": "https://s3-media4.fl.yelpcdn.com/bphoto/BXGfR4wZscEyCM10XheWiw/o.jpg", "is_closed": false, "url": "https://www.yelp.com/biz/spices-san-francisco-6?adjust_creative=Klanz-jboxl2XzqrjP6LLw&utm_campaign=yelp_api_v3&utm_medium=api_v3_business_search&utm_source=Klanz-jboxl2XzqrjP6LLw", "review_count": 256, "categories": [{"alias": "szechuan", "title": "Szechuan"}, {"alias": "hotpot", "title": "Hot Pot"}], "rating": 4.0, "coordinates": {"latitude": 37.7832, "longitude": -122.46461}, "transactions": ["pickup", "delivery", "restaurant_reservation"], "price": "$$", "location": {"address1": "291 6th Ave", "address2": "", "address3": null, "city": "San Francisco", "zip_code": "94118", "country": "US", "state": "CA", "display_address": ["291 6th Ave", "San Francisco, CA 94118"]}, "phone": "+14157528885", "display_phone": "(415) 752-8885", "distance": 3503.5278328267264}, {"id": "yD9-WrXijc_grVmi_zkCfQ", "alias": "hinata-san-francisco", "name": "Hinata", "image_url": "https://s3-media2.fl.yelpcdn.com/bphoto/L9-kFO3pQfZXd8Pk-iaoHQ/o.jpg", "is_closed": false, "url": "https://www.yelp.com/biz/hinata-san-francisco?adjust_creative=Klanz-jboxl2XzqrjP6LLw&utm_campaign=yelp_api_v3&utm_medium=api_v3_business_search&utm_source=Klanz-jboxl2XzqrjP6LLw", "review_count": 631, "categories": [{"alias": "sushi", "title": "Sushi Bars"}, {"alias": "japanese", "title": "Japanese"}], "rating": 4.5, "coordinates": {"latitude": 37.78324, "longitude": -122.42048}, "transactions": ["restaurant_reservation"], "price": "$$$$", "location": {"address1": "810 Van Ness Ave", "address2": null, "address3": "", "city": "San Francisco", "zip_code": "94109", "country": "US", "state": "CA", "display_address": ["810 Van Ness Ave", "San Francisco, CA 94109"]}, "phone": "+14158298291", "display_phone": "(415) 829-8291", "distance": 2833.377489987141}, {"id": "ey_UUXdDMUoO77QIF6SGaQ", "alias": "mensho-tokyo-sf-san-francisco", "name": "Mensho Tokyo SF", "image_url": "https://s3-media4.fl.yelpcdn.com/bphoto/4L3t1-0-tI0h4CC_NgLoMA/o.jpg", "is_closed": false, "url": "https://www.yelp.com/biz/mensho-tokyo-sf-san-francisco?adjust_creative=Klanz-jboxl2XzqrjP6LLw&utm_campaign=yelp_api_v3&utm_medium=api_v3_business_search&utm_source=Klanz-jboxl2XzqrjP6LLw", "review_count": 2447, "categories": [{"alias": "ramen", "title": "Ramen"}, {"alias": "noodles", "title": "Noodles"}], "rating": 4.0, "coordinates": {"latitude": 37.78686, "longitude": -122.41439}, "transactions": ["delivery"], "price": "$$", "location": {"address1": "672 Geary St", "address2": "", "address3": "", "city": "San Francisco", "zip_code": "94102", "country": "US", "state": "CA", "display_address": ["672 Geary St", "San Francisco, CA 94102"]}, "phone": "+14158008345", "display_phone": "(415) 800-8345", "distance": 3467.786025856827}, {"id": "cwm7FvtHKKeKoe1VPi5biQ", "alias": "grand-palace-restaurant-south-san-francisco", "name": "Grand Palace Restaurant", "image_url": "https://s3-media3.fl.yelpcdn.com/bphoto/6NMWCSbROav2KHbXECehhw/o.jpg", "is_closed": false, "url": "https://www.yelp.com/biz/grand-palace-restaurant-south-san-francisco?adjust_creative=Klanz-jboxl2XzqrjP6LLw&utm_campaign=yelp_api_v3&utm_medium=api_v3_business_search&utm_source=Klanz-jboxl2XzqrjP6LLw", "review_count": 807, "categories": [{"alias": "dimsum", "title": "Dim Sum"}, {"alias": "seafood", "title": "Seafood"}, {"alias": "cantonese", "title": "Cantonese"}], "rating": 3.5, "coordinates": {"latitude": 37.655179, "longitude": -122.411585}, "transactions": ["delivery", "pickup", "restaurant_reservation"], "price": "$$", "location": {"address1": "359 Grand Ave", "address2": "", "address3": "", "city": "South San Francisco", "zip_code": "94080", "country": "US", "state": "CA", "display_address": ["359 Grand Ave", "South San Francisco, CA 94080"]}, "phone": "+16508721000", "display_phone": "(650) 872-1000", "distance": 11956.776615163077}, {"id": "zEO6_VcwjjmtHsoaaQKg-w", "alias": "begoni-bistro-san-francisco-2", "name": "Begoni Bistro", "image_url": "https://s3-media3.fl.yelpcdn.com/bphoto/X530Hgca4cpP7GirHrrmAA/o.jpg", "is_closed": false, "url": "https://www.yelp.com/biz/begoni-bistro-san-francisco-2?adjust_creative=Klanz-jboxl2XzqrjP6LLw&utm_campaign=yelp_api_v3&utm_medium=api_v3_business_search&utm_source=Klanz-jboxl2XzqrjP6LLw", "review_count": 821, "categories": [{"alias": "dimsum", "title": "Dim Sum"}, {"alias": "cantonese", "title": "Cantonese"}, {"alias": "wine_bars", "title": "Wine Bars"}], "rating": 4.0, "coordinates": {"latitude": 37.7960017591324, "longitude": -122.405549436808}, "transactions": ["pickup", "restaurant_reservation"], "price": "$$", "location": {"address1": "615 Jackson St", "address2": "", "address3": "", "city": "San Francisco", "zip_code": "94133", "country": "US", "state": "CA", "display_address": ["615 Jackson St", "San Francisco, CA 94133"]}, "phone": "+14157570120", "display_phone": "(415) 757-0120", "distance": 4754.883176891509}, {"id": "EvuiVFHTcVXFgnBO4JdP2Q", "alias": "dumpling-time-thrive-city-san-francisco-2", "name": "Dumpling Time Thrive City", "image_url": "https://s3-media3.fl.yelpcdn.com/bphoto/4LWrFjT_f4CAcJxg3_Ejfw/o.jpg", "is_closed": false, "url": "https://www.yelp.com/biz/dumpling-time-thrive-city-san-francisco-2?adjust_creative=Klanz-jboxl2XzqrjP6LLw&utm_campaign=yelp_api_v3&utm_medium=api_v3_business_search&utm_source=Klanz-jboxl2XzqrjP6LLw", "review_count": 158, "categories": [{"alias": "noodles", "title": "Noodles"}, {"alias": "dimsum", "title": "Dim Sum"}], "rating": 4.0, "coordinates": {"latitude": 37.76755759980343, "longitude": -122.38888510104297}, "transactions": ["pickup", "delivery"], "price": "$$", "location": {"address1": "191 Warriors Way", "address2": "Ste 101", "address3": null, "city": "San Francisco", "zip_code": "94158", "country": "US", "state": "CA", "display_address": ["191 Warriors Way", "Ste 101", "San Francisco, CA 94158"]}, "phone": "+14157570252", "display_phone": "(415) 757-0252", "distance": 4245.923818643516}], "total": 1800, "region": {"center": {"longitude": -122.43644714355469, "latitude": 37.76089938976322}}}