{"businesses": [{"id": "PFk6k_hEGG0n6_FAJSm9EQ", "alias": "woodhouse-fish-company-san-francisco-3", "name": "Woodhouse Fish Company", "image_url": "https://s3-media1.fl.yelpcdn.com/bphoto/ylk0187IT8kgwr-fIPz7RA/o.jpg", "is_closed": false, "url": "https://www.yelp.com/biz/woodhouse-fish-company-san-francisco-3?adjust_creative=Klanz-jboxl2XzqrjP6LLw&utm_campaign=yelp_api_v3&utm_medium=api_v3_business_search&utm_source=Klanz-jboxl2XzqrjP6LLw", "review_count": 2382, "categories": [{"alias": "seafood", "title": "Seafood"}, {"alias": "newamerican", "title": "American (New)"}], "rating": 4.0, "coordinates": {"latitude": 37.78742, "longitude": -122.43327}, "transactions": ["delivery"], "price": "$$", "location": {"address1": "1914 Fillmore St", "address2": "", "address3": "", "city": "San Francisco", "zip_code": "94115", "country": "US", "state": "CA", "display_address": ["1914 Fillmore St", "San Francisco, CA 94115"]}, "phone": "+14154372722", "display_phone": "(415) 437-2722", "distance": 2966.614164301847}, {"id": "9t3DWuROXOrvioDxG9R59A", "alias": "goemon-sushi-san-francisco-2", "name": "Goemon Sushi", "image_url": "https://s3-media1.fl.yelpcdn.com/bphoto/KQWa0taBVFzPN4oY83wT1A/o.jpg", "is_closed": false, "url": "https://www.yelp.com/biz/goemon-sushi-san-francisco-2?adjust_creative=Klanz-jboxl2XzqrjP6LLw&utm_campaign=yelp_api_v3&utm_medium=api_v3_business_search&utm_source=Klanz-jboxl2XzqrjP6LLw", "review_count": 275, "categories": [{"alias": "japanese", "title": "Japanese"}, {"alias": "sushi", "title": "Sushi Bars"}], "rating": 4.5, "coordinates": {"latitude": 37.76393, "longitude": -122.47438}, "transactions": ["delivery", "pickup"], "price": "$$", "location": {"address1": "1524 Irving St", "address2": "", "address3": null, "city": "San Francisco", "zip_code": "94122", "country": "US", "state": "CA", "display_address": ["1524 Irving St", "San Francisco, CA 94122"]}, "phone": "+14157425137", "display_phone": "(415) 742-5137", "distance": 3354.660795211291}, {"id": "x48EvP8_DC3DdntG5Jw1BQ", "alias": "cheung-hing-south-san-francisco", "name": "Cheung Hing", "image_url": "https://s3-media2.fl.yelpcdn.com/bphoto/-M-AZAX6qqfwgL7j-dq5QA/o.jpg", "is_closed": false, "url": "https://www.yelp.com/biz/cheung-hing-south-san-francisco?adjust_creative=Klanz-jboxl2XzqrjP6LLw&utm_campaign=yelp_api_v3&utm_medium=api_v3_business_search&utm_source=Klanz-jboxl2XzqrjP6LLw", "review_count": 251, "categories": [{"alias": "chinese", "title": "Chinese"}], "rating": 3.0, "coordinates": {"latitude": 37.65507, "longitude": -122.41111}, "transactions": ["delivery", "pickup"], "price": "$$", "location": {"address1": "333 Grand Ave", "address2": "", "address3": "", "city": "South San Francisco", "zip_code": "94080", "country": "US", "state": "CA", "display_address": ["333 Grand Ave", "South San Francisco, CA 94080"]}, "phone": "+16508721638", "display_phone": "(650) 872-1638", "distance": 11974.939600548587}, {"id": "Wo-ruLEoNLGNGG7gTv7LoA", "alias": "atami-sushi-bar-and-grill-san-francisco", "name": "Atami Sushi Bar & Grill", "image_url": "https://s3-media2.fl.yelpcdn.com/bphoto/_QKfZb8McVJo2DE2jNvZoA/o.jpg", "is_closed": false, "url": "https://www.yelp.com/biz/atami-sushi-bar-and-grill-san-francisco?adjust_creative=Klanz-jboxl2XzqrjP6LLw&utm_campaign=yelp_api_v3&utm_medium=api_v3_business_search&utm_source=Klanz-jboxl2XzqrjP6LLw", "review_count": 293, "categories": [{"alias": "sushi", "title": "Sushi Bars"}, {"alias": "japanese", "title": "Japanese"}], "rating": 4.0, "coordinates": {"latitude": 37.80107, "longitude": -122.42894}, "transactions": ["delivery"], "price": "$$", "location": {"address1": "1662 Lombard St", "address2": "#A", "address3": "", "city": "San Francisco", "zip_code": "94123", "country": "US", "state": "CA", "display_address": ["1662 Lombard St", "#A", "San Francisco, CA 94123"]}, "phone": "+14156141958", "display_phone": "(415) 614-1958", "distance": 4502.825396977343}, {"id": "0a22L8UI1KEy8-VxMnfqaQ", "alias": "darrens-cafe-san-francisco", "name": "Darren's Cafe", "image_url": "https://s3-media1.fl.yelpcdn.com/bphoto/9_woaPIDRzf6mmkEE7SIog/o.jpg", "is_closed": false, "url": "https://www.yelp.com/biz/darrens-cafe-san-francisco?adjust_creative=Klanz-jboxl2XzqrjP6LLw&utm_campaign=yelp_api_v3&utm_medium=api_v3_business_search&utm_source=Klanz-jboxl2XzqrjP6LLw", "review_count": 631, "categories": [{"alias": "vietnamese", "title": "Vietnamese"}, {"alias": "breakfast_brunch", "title": "Breakfast & Brunch"}, {"alias": "cafes", "title": "Cafes"}], "rating": 4.0, "coordinates": {"latitude": 37.80753, "longitude": -122.41587}, "transactions": ["delivery", "pickup"], "price": "$$", "location": {"address1": "2731 Taylor St", "address2": "", "address3": "", "city": "San Francisco", "zip_code": "94133", "country": "US", "state": "CA", "display_address": ["2731 Taylor St", "San Francisco, CA 94133"]}, "phone": "+14156733345", "display_phone": "(415) 673-3345", "distance": 5491.649964894458}, {"id": "cjfJOMF6hpE7bX0ESWdAEg", "alias": "sanraku-san-francisco-2", "name": "Sanraku", "image_url": "https://s3-media2.fl.yelpcdn.com/bphoto/yo8sm_wnaFXe4kT6LBwUag/o.jpg", "is_closed": false, "url": "https://www.yelp.com/biz/sanraku-san-francisco-2?adjust_creative=Klanz-jboxl2XzqrjP6LLw&utm_campaign=yelp_api_v3&utm_medium=api_v3_business_search&utm_source=Klanz-jboxl2XzqrjP6LLw", "review_count": 1774, "categories": [{"alias": "japanese", "title": "Japanese"}, {"alias": "sushi", "title": "Sushi Bars"}, {"alias": "asianfusion", "title": "Asian Fusion"}], "rating": 4.0, "coordinates": {"latitude": 37.7889513951509, "longitude": -122.41242887495}, "transactions": ["delivery", "restaurant_reservation"], "price": "$$", "location": {"address1": "704 Sutter St", "address2": "", "address3": "", "city": "San Francisco", "zip_code": "94109", "country": "US", "state": "CA", "display_address": ["704 Sutter St", "San Francisco, CA 94109"]}, "phone": "+14157710803", "display_phone": "(415) 771-0803", "distance": 3766.419072831803}, {"id": "fo1k7MGgo1rmhc8ox8z9ow", "alias": "little-hunan-restaurant-daly-city", "name": "Little Hunan Restaurant", "image_url": "https://s3-media1.fl.yelpcdn.com/bphoto/M5VngSEr26lLvxBr6bWbJw/o.jpg", "is_closed": false, "url": "https://www.yelp.com/biz/little-hunan-restaurant-daly-city?adjust_creative=Klanz-jboxl2XzqrjP6LLw&utm_campaign=yelp_api_v3&utm_medium=api_v3_business_search&utm_source=Klanz-jboxl2XzqrjP6LLw", "review_count": 120, "categories": [{"alias": "chinese", "title": "Chinese"}], "rating": 3.5, "coordinates": {"latitude": 37.707087, "longitude": -122.457285}, "transactions": ["delivery"], "price": "$", "location": {"address1": "6127 Mission St", "address2": "", "address3": "", "city": "Daly City", "zip_code": "94014", "country": "US", "state": "CA", "display_address": ["6127 Mission St", "Daly City, CA 94014"]}, "phone": "+14153333887", "display_phone": "(415) 333-3887", "distance": 6257.964436843515}, {"id": "EkpRKBWFI1C9w-7ZEQDW6A", "alias": "new-gold-medal-restaurant-oakland", "name": "New Gold Medal Restaurant", "image_url": "https://s3-media2.fl.yelpcdn.com/bphoto/GnDHR-19AoC7tKaMO3n3xA/o.jpg", "is_closed": false, "url": "https://www.yelp.com/biz/new-gold-medal-restaurant-oakland?adjust_creative=Klanz-jboxl2XzqrjP6LLw&utm_campaign=yelp_api_v3&utm_medium=api_v3_business_search&utm_source=Klanz-jboxl2XzqrjP6LLw", "review_count": 779, "categories": [{"alias": "chinese", "title": "Chinese"}], "rating": 3.5, "coordinates": {"latitude": 37.7994297, "longitude": -122.2722046}, "transactions": ["delivery", "pickup"], "price": "$$", "location": {"address1": "389 8th St", "address2": "", "address3": "", "city": "Oakland", "zip_code": "94607", "country": "US", "state": "CA", "display_address": ["389 8th St", "Oakland, CA 94607"]}, "phone": "+15104651940", "display_phone": "(510) 465-1940", "distance": 15054.452077177972}, {"id": "xalJwUiV9oMDCHCc6kZhqg", "alias": "ssal-san-francisco", "name": "SSAL", "image_url": "https://s3-media2.fl.yelpcdn.com/bphoto/r6a_K4ImxjPptB6A4daeJg/o.jpg", "is_closed": false, "url": "https://www.yelp.com/biz/ssal-san-francisco?adjust_creative=Klanz-jboxl2XzqrjP6LLw&utm_campaign=yelp_api_v3&utm_medium=api_v3_business_search&utm_source=Klanz-jboxl2XzqrjP6LLw", "review_count": 157, "categories": [{"alias": "korean", "title": "Korean"}], "rating": 4.5, "coordinates": {"latitude": 37.79728333, "longitude": -122.421945}, "transactions": ["delivery"], "price": "$$$$", "location": {"address1": "2226 Polk St", "address2": "", "address3": null, "city": "San Francisco", "zip_code": "94109", "country": "US", "state": "CA", "display_address": ["2226 Polk St", "San Francisco, CA 94109"]}, "phone": "+14158142704", "display_phone": "(415) 814-2704", "distance": 4250.389460185907}, {"id": "f6G4fFuwx_hQOMxvZPmqjw", "alias": "wayo-sushi-san-francisco", "name": "Wayo Sushi", "image_url": "https://s3-media3.fl.yelpcdn.com/bphoto/kUwmbbq_z0vDCm8HVOVcOA/o.jpg", "is_closed": false, "url": "https://www.yelp.com/biz/wayo-sushi-san-francisco?adjust_creative=Klanz-jboxl2XzqrjP6LLw&utm_campaign=yelp_api_v3&utm_medium=api_v3_business_search&utm_source=Klanz-jboxl2XzqrjP6LLw", "review_count": 721, "categories": [{"alias": "sushi", "title": "Sushi Bars"}, {"alias": "japanese", "title": "Japanese"}], "rating": 4.0, "coordinates": {"latitude": 37.788708, "longitude": -122.422174}, "transactions": ["delivery"], "price": "$$", "location": {"address1": "1407 Van Ness Ave", "address2": "", "address3": "", "city": "San Francisco", "zip_code": "94109", "country": "US", "state": "CA", "display_address": ["1407 Van Ness Ave", "San Francisco, CA 94109"]}, "phone": "+14154748369", "display_phone": "(415) 474-8369", "distance": 3336.9535510162386}, {"id": "A-Ti3UbPXIdxKgxqDm9_lQ", "alias": "diamond-heights-to-go-san-francisco-3", "name": "Diamond Heights To-Go", "image_url": "https://s3-media2.fl.yelpcdn.com/bphoto/u8s7tg3OGgC0RfS2u2sukw/o.jpg", "is_closed": false, "url": "https://www.yelp.com/biz/diamond-heights-to-go-san-francisco-3?adjust_creative=Klanz-jboxl2XzqrjP6LLw&utm_campaign=yelp_api_v3&utm_medium=api_v3_business_search&utm_source=Klanz-jboxl2XzqrjP6LLw", "review_count": 14, "categories": [{"alias": "chinese", "title": "Chinese"}], "rating": 3.0, "coordinates": {"latitude": 37.7442212, "longitude": -122.4391574}, "transactions": ["delivery", "pickup"], "location": {"address1": "5230 Diamond Heights Blvd", "address2": "Fl 1", "address3": "", "city": "San Francisco", "zip_code": "94131", "country": "US", "state": "CA", "display_address": ["5230 Diamond Heights Blvd", "Fl 1", "San Francisco, CA 94131"]}, "phone": "+14153048391", "display_phone": "(415) 304-8391", "distance": 1944.5501484851382}, {"id": "kjckqShnIlDeraGJM3Nw4w", "alias": "o-toro-sushi-san-francisco", "name": "O-Toro Sushi", "image_url": "https://s3-media1.fl.yelpcdn.com/bphoto/_PCyN7MmUF3D2WicLmvBmQ/o.jpg", "is_closed": false, "url": "https://www.yelp.com/biz/o-toro-sushi-san-francisco?adjust_creative=Klanz-jboxl2XzqrjP6LLw&utm_campaign=yelp_api_v3&utm_medium=api_v3_business_search&utm_source=Klanz-jboxl2XzqrjP6LLw", "review_count": 862, "categories": [{"alias": "japanese", "title": "Japanese"}, {"alias": "sushi", "title": "Sushi Bars"}], "rating": 4.0, "coordinates": {"latitude": 37.774921, "longitude": -122.422997}, "transactions": ["delivery", "pickup"], "price": "$$", "location": {"address1": "205 Oak St", "address2": "", "address3": "", "city": "San Francisco", "zip_code": "94102", "country": "US", "state": "CA", "display_address": ["205 Oak St", "San Francisco, CA 94102"]}, "phone": "+14155533986", "display_phone": "(415) 553-3986", "distance": 1956.686228824613}, {"id": "IOQE1WdjzYs4PL5YSOh6xg", "alias": "nari-san-francisco-3", "name": "Nari", "image_url": "https://s3-media3.fl.yelpcdn.com/bphoto/8o9ZhazByVmi4mTzCJZHcw/o.jpg", "is_closed": false, "url": "https://www.yelp.com/biz/nari-san-francisco-3?adjust_creative=Klanz-jboxl2XzqrjP6LLw&utm_campaign=yelp_api_v3&utm_medium=api_v3_business_search&utm_source=Klanz-jboxl2XzqrjP6LLw", "review_count": 209, "categories": [{"alias": "thai", "title": "Thai"}, {"alias": "wine_bars", "title": "Wine Bars"}, {"alias": "cocktailbars", "title": "Cocktail Bars"}], "rating": 4.0, "coordinates": {"latitude": 37.785429928840266, "longitude": -122.428277}, "transactions": ["delivery"], "price": "$$$", "location": {"address1": "1625 Post St", "address2": "", "address3": null, "city": "San Francisco", "zip_code": "94115", "country": "US", "state": "CA", "display_address": ["1625 Post St", "San Francisco, CA 94115"]}, "phone": "+14158686274", "display_phone": "(415) 868-6274", "distance": 2820.6100560747655}, {"id": "0LJsX2X0kvVtP9GFD1DXkg", "alias": "inle-burmese-cuisine-san-francisco", "name": "Inle Burmese Cuisine", "image_url": "https://s3-media1.fl.yelpcdn.com/bphoto/AqpY6Vk10DNPlYE5dtoONA/o.jpg", "is_closed": false, "url": "https://www.yelp.com/biz/inle-burmese-cuisine-san-francisco?adjust_creative=Klanz-jboxl2XzqrjP6LLw&utm_campaign=yelp_api_v3&utm_medium=api_v3_business_search&utm_source=Klanz-jboxl2XzqrjP6LLw", "review_count": 133, "categories": [{"alias": "burmese", "title": "Burmese"}, {"alias": "noodles", "title": "Noodles"}, {"alias": "soup", "title": "Soup"}], "rating": 4.0, "coordinates": {"latitude": 37.75022, "longitude": -122.42757}, "transactions": ["delivery", "pickup", "restaurant_reservation"], "price": "$$", "location": {"address1": "1298 Church St", "address2": "", "address3": null, "city": "San Francisco", "zip_code": "94114", "country": "US", "state": "CA", "display_address": ["1298 Church St", "San Francisco, CA 94114"]}, "phone": "+14153747378", "display_phone": "(415) 374-7378", "distance": 1420.9862024770366}, {"id": "tr15WgMHIC_W2gqBpuk3-A", "alias": "manna-san-francisco", "name": "Manna", "image_url": "https://s3-media3.fl.yelpcdn.com/bphoto/BYHzvvbJ8MQ615YKyRe8oQ/o.jpg", "is_closed": false, "url": "https://www.yelp.com/biz/manna-san-francisco?adjust_creative=Klanz-jboxl2XzqrjP6LLw&utm_campaign=yelp_api_v3&utm_medium=api_v3_business_search&utm_source=Klanz-jboxl2XzqrjP6LLw", "review_count": 1202, "categories": [{"alias": "korean", "title": "Korean"}], "rating": 4.0, "coordinates": {"latitude": 37.76384, "longitude": -122.46708}, "transactions": ["delivery"], "price": "$$", "location": {"address1": "845 Irving St", "address2": "", "address3": "", "city": "San Francisco", "zip_code": "94122", "country": "US", "state": "CA", "display_address": ["845 Irving St", "San Francisco, CA 94122"]}, "phone": "+14156655969", "display_phone": "(415) 665-5969", "distance": 2726.245198144492}, {"id": "TC4BOrU0m6ILZtPIuVTExA", "alias": "grand-hot-pot-lounge-san-francisco", "name": "Grand Hot Pot Lounge", "image_url": "https://s3-media2.fl.yelpcdn.com/bphoto/0U6cpbaodu_eiFv5i7Dg2A/o.jpg", "is_closed": false, "url": "https://www.yelp.com/biz/grand-hot-pot-lounge-san-francisco?adjust_creative=Klanz-jboxl2XzqrjP6LLw&utm_campaign=yelp_api_v3&utm_medium=api_v3_business_search&utm_source=Klanz-jboxl2XzqrjP6LLw", "review_count": 408, "categories": [{"alias": "hotpot", "title": "Hot Pot"}, {"alias": "szechuan", "title": "Szechuan"}], "rating": 3.5, "coordinates": {"latitude": 37.7810299, "longitude": -122.4573273}, "transactions": ["delivery", "pickup"], "price": "$$", "location": {"address1": "3565 Geary Blvd", "address2": "", "address3": "", "city": "San Francisco", "zip_code": "94118", "country": "US", "state": "CA", "display_address": ["3565 Geary Blvd", "San Francisco, CA 94118"]}, "phone": "+14153878989", "display_phone": "(415) 387-8989", "distance": 2894.5993497506283}, {"id": "VInn2fWYotPteuqbkkjU4A", "alias": "sushi-sho-el-cerrito", "name": "Sushi Sho", "image_url": "https://s3-media1.fl.yelpcdn.com/bphoto/Si6-cxL2a9HHI005qMjs0A/o.jpg", "is_closed": false, "url": "https://www.yelp.com/biz/sushi-sho-el-cerrito?adjust_creative=Klanz-jboxl2XzqrjP6LLw&utm_campaign=yelp_api_v3&utm_medium=api_v3_business_search&utm_source=Klanz-jboxl2XzqrjP6LLw", "review_count": 203, "categories": [{"alias": "sushi", "title": "Sushi Bars"}, {"alias": "japanese", "title": "Japanese"}], "rating": 4.0, "coordinates": {"latitude": 37.9128987, "longitude": -122.3100635}, "transactions": ["delivery", "restaurant_reservation"], "price": "$$$", "location": {"address1": "10749 San Pablo Ave", "address2": "", "address3": "", "city": "El Cerrito", "zip_code": "94530", "country": "US", "state": "CA", "display_address": ["10749 San Pablo Ave", "El Cerrito, CA 94530"]}, "phone": "+15105251800", "display_phone": "(510) 525-1800", "distance": 20219.83865531627}, {"id": "onxj8QSgnRaipMEKFomcYg", "alias": "tokyo-express-san-francisco-7", "name": "Tokyo Express", "image_url": "https://s3-media1.fl.yelpcdn.com/bphoto/dGjQJg0UMqZwNdabm3RzRw/o.jpg", "is_closed": false, "url": "https://www.yelp.com/biz/tokyo-express-san-francisco-7?adjust_creative=Klanz-jboxl2XzqrjP6LLw&utm_campaign=yelp_api_v3&utm_medium=api_v3_business_search&utm_source=Klanz-jboxl2XzqrjP6LLw", "review_count": 238, "categories": [{"alias": "sushi", "title": "Sushi Bars"}, {"alias": "japanese", "title": "Japanese"}], "rating": 3.5, "coordinates": {"latitude": 37.79388, "longitude": -122.404}, "transactions": ["pickup"], "price": "$$", "location": {"address1": "660 Sacramento St", "address2": "", "address3": "", "city": "San Francisco", "zip_code": "94111", "country": "US", "state": "CA", "display_address": ["660 Sacramento St", "San Francisco, CA 94111"]}, "phone": "+14159563040", "display_phone": "(415) 956-3040", "distance": 4639.866713455236}, {"id": "9Z9EETl8fZIP4s9KOHr5kg", "alias": "um-ma-san-francisco-3", "name": "Um Ma", "image_url": "https://s3-media2.fl.yelpcdn.com/bphoto/V_VPMhkg8-fKGi3C2AQdzA/o.jpg", "is_closed": false, "url": "https://www.yelp.com/biz/um-ma-san-francisco-3?adjust_creative=Klanz-jboxl2XzqrjP6LLw&utm_campaign=yelp_api_v3&utm_medium=api_v3_business_search&utm_source=Klanz-jboxl2XzqrjP6LLw", "review_count": 487, "categories": [{"alias": "korean", "title": "Korean"}, {"alias": "bbq", "title": "Barbeque"}], "rating": 4.0, "coordinates": {"latitude": 37.765498241972274, "longitude": -122.4661957}, "transactions": ["delivery", "pickup"], "price": "$$", "location": {"address1": "1220 9th Ave", "address2": "/ 60 Morris st. (Delivery only)", "address3": "", "city": "San Francisco", "zip_code": "94122", "country": "US", "state": "CA", "display_address": ["1220 9th Ave", "/ 60 Morris st. (Delivery only)", "San Francisco, CA 94122"]}, "phone": "+14155665777", "display_phone": "(415) 566-5777", "distance": 2664.5731650785783}, {"id": "QDZYP5JIVQdrhRv-Nmp0Xg", "alias": "shang-hai-kitchen-mill-valley", "name": "Shang Hai Kitchen", "image_url": "https://s3-media1.fl.yelpcdn.com/bphoto/_tZ59cpQrcxwIhbqHe9oAA/o.jpg", "is_closed": false, "url": "https://www.yelp.com/biz/shang-hai-kitchen-mill-valley?adjust_creative=Klanz-jboxl2XzqrjP6LLw&utm_campaign=yelp_api_v3&utm_medium=api_v3_business_search&utm_source=Klanz-jboxl2XzqrjP6LLw", "review_count": 76, "categories": [{"alias": "chinese", "title": "Chinese"}], "rating": 3.5, "coordinates": {"latitude": 37.88129, "longitude": -122.52509}, "transactions": ["delivery", "pickup"], "location": {"address1": "247 Shoreline Hwy", "address2": "Unit A6", "address3": null, "city": "Mill Valley", "zip_code": "94941", "country": "US", "state": "CA", "display_address": ["247 Shoreline Hwy", "Unit A6", "Mill Valley, CA 94941"]}, "phone": "+14153838888", "display_phone": "(415) 383-8888", "distance": 15477.855705196995}, {"id": "dux4vPcdrYfYQj44_8eV6Q", "alias": "china-live-signatures-san-francisco", "name": "China Live Signatures", "image_url": "https://s3-media4.fl.yelpcdn.com/bphoto/E_OrhBDxG6izMelmJLtN8w/o.jpg", "is_closed": false, "url": "https://www.yelp.com/biz/china-live-signatures-san-francisco?adjust_creative=Klanz-jboxl2XzqrjP6LLw&utm_campaign=yelp_api_v3&utm_medium=api_v3_business_search&utm_source=Klanz-jboxl2XzqrjP6LLw", "review_count": 2, "categories": [{"alias": "dimsum", "title": "Dim Sum"}, {"alias": "fooddeliveryservices", "title": "Food Delivery Services"}], "rating": 2.5, "coordinates": {"latitude": 37.79392, "longitude": -122.40094}, "transactions": ["delivery", "pickup"], "location": {"address1": "483 Sacramento St", "address2": null, "address3": null, "city": "San Francisco", "zip_code": "94111", "country": "US", "state": "CA", "display_address": ["483 Sacramento St", "San Francisco, CA 94111"]}, "phone": "+14159428304", "display_phone": "(415) 942-8304", "distance": 4821.2471466427505}, {"id": "PGOXqUQDznDNGNHbQMWQcg", "alias": "takara-sushi-san-francisco", "name": "Takara Sushi", "image_url": "https://s3-media2.fl.yelpcdn.com/bphoto/BaRpjTPiF2Em7lL4fAuq8Q/o.jpg", "is_closed": false, "url": "https://www.yelp.com/biz/takara-sushi-san-francisco?adjust_creative=Klanz-jboxl2XzqrjP6LLw&utm_campaign=yelp_api_v3&utm_medium=api_v3_business_search&utm_source=Klanz-jboxl2XzqrjP6LLw", "review_count": 324, "categories": [{"alias": "sushi", "title": "Sushi Bars"}, {"alias": "japanese", "title": "Japanese"}], "rating": 3.5, "coordinates": {"latitude": 37.76058, "longitude": -122.43684}, "transactions": ["delivery", "pickup"], "price": "$$", "location": {"address1": "4243 18th St", "address2": "", "address3": "", "city": "San Francisco", "zip_code": "94114", "country": "US", "state": "CA", "display_address": ["4243 18th St", "San Francisco, CA 94114"]}, "phone": "+14156267864", "display_phone": "(415) 626-7864", "distance": 42.382355296878444}, {"id": "29lhGyTOtiWGkLCWDJZZFg", "alias": "cha-ya-san-francisco-san-francisco-2", "name": "Cha-Ya San Francisco", "image_url": "https://s3-media2.fl.yelpcdn.com/bphoto/MNWfVHKGj83qq94DpK2X3g/o.jpg", "is_closed": false, "url": "https://www.yelp.com/biz/cha-ya-san-francisco-san-francisco-2?adjust_creative=Klanz-jboxl2XzqrjP6LLw&utm_campaign=yelp_api_v3&utm_medium=api_v3_business_search&utm_source=Klanz-jboxl2XzqrjP6LLw", "review_count": 1241, "categories": [{"alias": "japanese", "title": "Japanese"}, {"alias": "vegetarian", "title": "Vegetarian"}, {"alias": "vegan", "title": "Vegan"}], "rating": 4.0, "coordinates": {"latitude": 37.760753, "longitude": -122.421787}, "transactions": ["delivery"], "price": "$$", "location": {"address1": "762 Valencia St", "address2": "", "address3": "", "city": "San Francisco", "zip_code": "94110", "country": "US", "state": "CA", "display_address": ["762 Valencia St", "San Francisco, CA 94110"]}, "phone": "+14152527825", "display_phone": "(415) 252-7825", "distance": 1288.8423998336536}, {"id": "CYttYTEiQuhSfo3SEh79fA", "alias": "shizen-vegan-sushi-bar-and-izakaya-san-francisco", "name": "Shizen Vegan Sushi Bar & Izakaya", "image_url": "https://s3-media4.fl.yelpcdn.com/bphoto/-1BWnyjrsDmTmXH_3wZl_w/o.jpg", "is_closed": false, "url": "https://www.yelp.com/biz/shizen-vegan-sushi-bar-and-izakaya-san-francisco?adjust_creative=Klanz-jboxl2XzqrjP6LLw&utm_campaign=yelp_api_v3&utm_medium=api_v3_business_search&utm_source=Klanz-jboxl2XzqrjP6LLw", "review_count": 1868, "categories": [{"alias": "sushi", "title": "Sushi Bars"}, {"alias": "vegan", "title": "Vegan"}, {"alias": "izakaya", "title": "Izakaya"}], "rating": 4.5, "coordinates": {"latitude": 37.768326, "longitude": -122.421682}, "transactions": ["restaurant_reservation"], "price": "$$", "location": {"address1": "370 14th St", "address2": "", "address3": "", "city": "San Francisco", "zip_code": "94103", "country": "US", "state": "CA", "display_address": ["370 14th St", "San Francisco, CA 94103"]}, "phone": "+14156785767", "display_phone": "(415) 678-5767", "distance": 1538.3432029163725}, {"id": "34gRRbMBcR8LU2eWGpoZ9Q", "alias": "imperial-soup-\u7687\u5e1d\u6e6f-oakland-2", "name": "Imperial Soup \u7687\u5e1d\u6e6f", "image_url": "https://s3-media2.fl.yelpcdn.com/bphoto/7yI9I9HgXmWO88UVzhTZSw/o.jpg", "is_closed": false, "url": "https://www.yelp.com/biz/imperial-soup-%E7%9A%87%E5%B8%9D%E6%B9%AF-oakland-2?adjust_creative=Klanz-jboxl2XzqrjP6LLw&utm_campaign=yelp_api_v3&utm_medium=api_v3_business_search&utm_source=Klanz-jboxl2XzqrjP6LLw", "review_count": 171, "categories": [{"alias": "chinese", "title": "Chinese"}, {"alias": "soup", "title": "Soup"}], "rating": 4.5, "coordinates": {"latitude": 37.7990353, "longitude": -122.2716638}, "transactions": ["delivery", "pickup"], "price": "$$", "location": {"address1": "723 Webster St", "address2": "", "address3": "", "city": "Oakland", "zip_code": "94607", "country": "US", "state": "CA", "display_address": ["723 Webster St", "Oakland, CA 94607"]}, "phone": "+15108932288", "display_phone": "(510) 893-2288", "distance": 15084.715219203294}, {"id": "kK3mQIO-Jn0IgygUu-IYPA", "alias": "tastee-steam-kitchen-oakland", "name": "Tastee Steam Kitchen", "image_url": "https://s3-media2.fl.yelpcdn.com/bphoto/qnD7SPInGdmV8JZcXPHzOQ/o.jpg", "is_closed": false, "url": "https://www.yelp.com/biz/tastee-steam-kitchen-oakland?adjust_creative=Klanz-jboxl2XzqrjP6LLw&utm_campaign=yelp_api_v3&utm_medium=api_v3_business_search&utm_source=Klanz-jboxl2XzqrjP6LLw", "review_count": 245, "categories": [{"alias": "seafood", "title": "Seafood"}, {"alias": "hotpot", "title": "Hot Pot"}], "rating": 4.0, "coordinates": {"latitude": 37.8010318982971, "longitude": -122.269695885479}, "transactions": ["delivery", "pickup"], "price": "$$$", "location": {"address1": "329 11th St", "address2": "", "address3": null, "city": "Oakland", "zip_code": "94607", "country": "US", "state": "CA", "display_address": ["329 11th St", "Oakland, CA 94607"]}, "phone": "+15106280888", "display_phone": "(510) 628-0888", "distance": 15319.110135892162}, {"id": "4z8ySDFczYWgLk1jDyEpKw", "alias": "chef-hunan-san-francisco", "name": "Chef Hunan", "image_url": "https://s3-media2.fl.yelpcdn.com/bphoto/ZtLoaBhyddPQ6OUfxB56vQ/o.jpg", "is_closed": false, "url": "https://www.yelp.com/biz/chef-hunan-san-francisco?adjust_creative=Klanz-jboxl2XzqrjP6LLw&utm_campaign=yelp_api_v3&utm_medium=api_v3_business_search&utm_source=Klanz-jboxl2XzqrjP6LLw", "review_count": 55, "categories": [{"alias": "chinese", "title": "Chinese"}], "rating": 4.0, "coordinates": {"latitude": 37.72364, "longitude": -122.43525}, "transactions": [], "price": "$", "location": {"address1": "4661 Mission St", "address2": "", "address3": "", "city": "San Francisco", "zip_code": "94112", "country": "US", "state": "CA", "display_address": ["4661 Mission St", "San Francisco, CA 94112"]}, "phone": "+14153335588", "display_phone": "(415) 333-5588", "distance": 4138.958496260009}, {"id": "FBQ6sliYlWLw4xptg4tDvw", "alias": "new-dumpling-king-san-francisco-2", "name": "New Dumpling King", "image_url": "https://s3-media4.fl.yelpcdn.com/bphoto/8NaVSRlGV2wwpnV6qNVEyQ/o.jpg", "is_closed": false, "url": "https://www.yelp.com/biz/new-dumpling-king-san-francisco-2?adjust_creative=Klanz-jboxl2XzqrjP6LLw&utm_campaign=yelp_api_v3&utm_medium=api_v3_business_search&utm_source=Klanz-jboxl2XzqrjP6LLw", "review_count": 97, "categories": [{"alias": "chinese", "title": "Chinese"}], "rating": 4.0, "coordinates": {"latitude": 37.77559, "longitude": -122.49449}, "transactions": ["delivery", "pickup"], "price": "$$", "location": {"address1": "3319 Balboa St", "address2": null, "address3": "", "city": "San Francisco", "zip_code": "94121", "country": "US", "state": "CA", "display_address": ["3319 Balboa St", "San Francisco, CA 94121"]}, "phone": "+14153872088", "display_phone": "(415) 387-2088", "distance": 5361.488226076283}, {"id": "GXBykjrwWz936RrAQugEtA", "alias": "spicy-house-daly-city-2", "name": "Spicy House", "image_url": "https://s3-media2.fl.yelpcdn.com/bphoto/QvEVukw3RPo3mh6iMc6MRA/o.jpg", "is_closed": false, "url": "https://www.yelp.com/biz/spicy-house-daly-city-2?adjust_creative=Klanz-jboxl2XzqrjP6LLw&utm_campaign=yelp_api_v3&utm_medium=api_v3_business_search&utm_source=Klanz-jboxl2XzqrjP6LLw", "review_count": 46, "categories": [{"alias": "noodles", "title": "Noodles"}, {"alias": "szechuan", "title": "Szechuan"}], "rating": 4.5, "coordinates": {"latitude": 37.69918, "longitude": -122.46365}, "transactions": [], "price": "$$", "location": {"address1": "6811 Mission St", "address2": null, "address3": "", "city": "Daly City", "zip_code": "94014", "country": "US", "state": "CA", "display_address": ["6811 Mission St", "Daly City, CA 94014"]}, "phone": "+16509911188", "display_phone": "(650) 991-1188", "distance": 7267.578773052029}, {"id": "cvLRe9npuC_BfpjCavwurQ", "alias": "dumpling-kitchen-berkeley", "name": "Dumpling Kitchen", "image_url": "https://s3-media4.fl.yelpcdn.com/bphoto/DYfLbpuGXb7-7zIfuSHBUw/o.jpg", "is_closed": false, "url": "https://www.yelp.com/biz/dumpling-kitchen-berkeley?adjust_creative=Klanz-jboxl2XzqrjP6LLw&utm_campaign=yelp_api_v3&utm_medium=api_v3_business_search&utm_source=Klanz-jboxl2XzqrjP6LLw", "review_count": 71, "categories": [{"alias": "shanghainese", "title": "Shanghainese"}, {"alias": "dimsum", "title": "Dim Sum"}, {"alias": "noodles", "title": "Noodles"}], "rating": 4.0, "coordinates": {"latitude": 37.86818, "longitude": -122.25826}, "transactions": ["delivery", "pickup"], "price": "$$", "location": {"address1": "2517 Durant Ave", "address2": "Ste A", "address3": "", "city": "Berkeley", "zip_code": "94704", "country": "US", "state": "CA", "display_address": ["2517 Durant Ave", "Ste A", "Berkeley, CA 94704"]}, "phone": "+15108831811", "display_phone": "(510) 883-1811", "distance": 19681.45250532016}, {"id": "B0pqKpVQD-StiKURXfBkeg", "alias": "hing-lung-san-bruno-3", "name": "Hing Lung", "image_url": "https://s3-media1.fl.yelpcdn.com/bphoto/YMOz2Hm73VwdCuKtBv2LdA/o.jpg", "is_closed": false, "url": "https://www.yelp.com/biz/hing-lung-san-bruno-3?adjust_creative=Klanz-jboxl2XzqrjP6LLw&utm_campaign=yelp_api_v3&utm_medium=api_v3_business_search&utm_source=Klanz-jboxl2XzqrjP6LLw", "review_count": 237, "categories": [{"alias": "chinese", "title": "Chinese"}], "rating": 3.0, "coordinates": {"latitude": 37.63917953594149, "longitude": -122.42125736998062}, "transactions": ["delivery"], "price": "$$", "location": {"address1": "1230 El Camino Real", "address2": "Ste P", "address3": null, "city": "San Bruno", "zip_code": "94066", "country": "US", "state": "CA", "display_address": ["1230 El Camino Real", "Ste P", "San Bruno, CA 94066"]}, "phone": "+16508733088", "display_phone": "(650) 873-3088", "distance": 13600.432264110745}, {"id": "V9gDlxWoliCOkzsq_VX6Xw", "alias": "house-of-xian-dumpling-san-francisco", "name": "House Of Xian Dumpling", "image_url": "https://s3-media4.fl.yelpcdn.com/bphoto/CfBN-8t0bSOm7L07M01fzA/o.jpg", "is_closed": false, "url": "https://www.yelp.com/biz/house-of-xian-dumpling-san-francisco?adjust_creative=Klanz-jboxl2XzqrjP6LLw&utm_campaign=yelp_api_v3&utm_medium=api_v3_business_search&utm_source=Klanz-jboxl2XzqrjP6LLw", "review_count": 593, "categories": [{"alias": "chinese", "title": "Chinese"}], "rating": 3.5, "coordinates": {"latitude": 37.7964287, "longitude": -122.4053802}, "transactions": ["delivery", "pickup"], "price": "$$", "location": {"address1": "925 Kearny St", "address2": "", "address3": "", "city": "San Francisco", "zip_code": "94133", "country": "US", "state": "CA", "display_address": ["925 Kearny St", "San Francisco, CA 94133"]}, "phone": "+14153981626", "display_phone": "(415) 398-1626", "distance": 4810.405638879019}, {"id": "X-EDY6yYBTPQuFJEuHeSGA", "alias": "yu-yu-za-zang-oakland", "name": "Yu Yu Za Zang", "image_url": "https://s3-media4.fl.yelpcdn.com/bphoto/vFg5jYrSe8dCbRh-_y3hCA/o.jpg", "is_closed": false, "url": "https://www.yelp.com/biz/yu-yu-za-zang-oakland?adjust_creative=Klanz-jboxl2XzqrjP6LLw&utm_campaign=yelp_api_v3&utm_medium=api_v3_business_search&utm_source=Klanz-jboxl2XzqrjP6LLw", "review_count": 240, "categories": [{"alias": "chinese", "title": "Chinese"}, {"alias": "korean", "title": "Korean"}], "rating": 4.0, "coordinates": {"latitude": 37.835457, "longitude": -122.263043}, "transactions": ["delivery"], "price": "$$", "location": {"address1": "4871 Telegraph Ave", "address2": "", "address3": "", "city": "Oakland", "zip_code": "94609", "country": "US", "state": "CA", "display_address": ["4871 Telegraph Ave", "Oakland, CA 94609"]}, "phone": "+15106532288", "display_phone": "(510) 653-2288", "distance": 17345.383086494272}, {"id": "Rx1jsWM0Ja8DIBTJhL0hNQ", "alias": "matterhorn-restaurant-and-bakery-san-francisco-2", "name": "Matterhorn Restaurant & Bakery", "image_url": "https://s3-media3.fl.yelpcdn.com/bphoto/3dqPxLyi7BrkOhVJugGqUA/o.jpg", "is_closed": false, "url": "https://www.yelp.com/biz/matterhorn-restaurant-and-bakery-san-francisco-2?adjust_creative=Klanz-jboxl2XzqrjP6LLw&utm_campaign=yelp_api_v3&utm_medium=api_v3_business_search&utm_source=Klanz-jboxl2XzqrjP6LLw", "review_count": 79, "categories": [{"alias": "modern_european", "title": "Modern European"}, {"alias": "fondue", "title": "Fondue"}], "rating": 4.5, "coordinates": {"latitude": 37.79717, "longitude": -122.42397}, "transactions": [], "location": {"address1": "2323 Van Ness Ave", "address2": "", "address3": null, "city": "San Francisco", "zip_code": "94109", "country": "US", "state": "CA", "display_address": ["2323 Van Ness Ave", "San Francisco, CA 94109"]}, "phone": "+14158297540", "display_phone": "(415) 829-7540", "distance": 4178.129135038165}, {"id": "9e2UrZrwbWsTyN3hWyS6Ig", "alias": "monsieur-benjamin-san-francisco", "name": "Monsieur Benjamin", "image_url": "https://s3-media4.fl.yelpcdn.com/bphoto/PPjVA55yqgwrx8e8uFuP2Q/o.jpg", "is_closed": false, "url": "https://www.yelp.com/biz/monsieur-benjamin-san-francisco?adjust_creative=Klanz-jboxl2XzqrjP6LLw&utm_campaign=yelp_api_v3&utm_medium=api_v3_business_search&utm_source=Klanz-jboxl2XzqrjP6LLw", "review_count": 1002, "categories": [{"alias": "french", "title": "French"}, {"alias": "bars", "title": "Bars"}, {"alias": "seafood", "title": "Seafood"}], "rating": 4.0, "coordinates": {"latitude": 37.777526602149, "longitude": -122.423157468438}, "transactions": ["delivery"], "price": "$$$", "location": {"address1": "451 Gough St", "address2": "", "address3": "", "city": "San Francisco", "zip_code": "94102", "country": "US", "state": "CA", "display_address": ["451 Gough St", "San Francisco, CA 94102"]}, "phone": "+14154032233", "display_phone": "(415) 403-2233", "distance": 2175.1366164344126}, {"id": "RYQBuRLmBs1K1zTOAHPoQQ", "alias": "niku-steakhouse-san-francisco", "name": "Niku Steakhouse", "image_url": "https://s3-media4.fl.yelpcdn.com/bphoto/QQjHhT7qE-rRJbRtasmgIQ/o.jpg", "is_closed": false, "url": "https://www.yelp.com/biz/niku-steakhouse-san-francisco?adjust_creative=Klanz-jboxl2XzqrjP6LLw&utm_campaign=yelp_api_v3&utm_medium=api_v3_business_search&utm_source=Klanz-jboxl2XzqrjP6LLw", "review_count": 355, "categories": [{"alias": "japanese", "title": "Japanese"}, {"alias": "steak", "title": "Steakhouses"}], "rating": 4.5, "coordinates": {"latitude": 37.7696671, "longitude": -122.403567}, "transactions": ["delivery"], "price": "$$$$", "location": {"address1": "61 Division St", "address2": "", "address3": null, "city": "San Francisco", "zip_code": "94103", "country": "US", "state": "CA", "display_address": ["61 Division St", "San Francisco, CA 94103"]}, "phone": "+14158297817", "display_phone": "(415) 829-7817", "distance": 3053.742630192832}, {"id": "I0qXHSJwUR0Xj8H91ovBPA", "alias": "my-fathers-kitchen-san-francisco", "name": "My Father's Kitchen", "image_url": "https://s3-media4.fl.yelpcdn.com/bphoto/twrvL6U9IExs5mYat8t9AQ/o.jpg", "is_closed": false, "url": "https://www.yelp.com/biz/my-fathers-kitchen-san-francisco?adjust_creative=Klanz-jboxl2XzqrjP6LLw&utm_campaign=yelp_api_v3&utm_medium=api_v3_business_search&utm_source=Klanz-jboxl2XzqrjP6LLw", "review_count": 483, "categories": [{"alias": "vietnamese", "title": "Vietnamese"}], "rating": 3.5, "coordinates": {"latitude": 37.78503492994844, "longitude": -122.44000719877698}, "transactions": ["delivery"], "price": "$$", "location": {"address1": "1655 Divisadero St", "address2": null, "address3": "", "city": "San Francisco", "zip_code": "94115", "country": "US", "state": "CA", "display_address": ["1655 Divisadero St", "San Francisco, CA 94115"]}, "phone": "+14158292610", "display_phone": "(415) 829-2610", "distance": 2701.9262632232917}, {"id": "4j1zqAwHCr07lKCCAiztAA", "alias": "wild-ginger-alameda", "name": "Wild Ginger", "image_url": "https://s3-media1.fl.yelpcdn.com/bphoto/OQE2orLpz59zNJM8ZdLyVg/o.jpg", "is_closed": false, "url": "https://www.yelp.com/biz/wild-ginger-alameda?adjust_creative=Klanz-jboxl2XzqrjP6LLw&utm_campaign=yelp_api_v3&utm_medium=api_v3_business_search&utm_source=Klanz-jboxl2XzqrjP6LLw", "review_count": 459, "categories": [{"alias": "chinese", "title": "Chinese"}, {"alias": "noodles", "title": "Noodles"}, {"alias": "burgers", "title": "Burgers"}], "rating": 4.5, "coordinates": {"latitude": 37.7620099, "longitude": -122.24491}, "transactions": ["delivery", "pickup"], "price": "$$", "location": {"address1": "1239 Park St", "address2": null, "address3": "", "city": "Alameda", "zip_code": "94501", "country": "US", "state": "CA", "display_address": ["1239 Park St", "Alameda, CA 94501"]}, "phone": "+15102638128", "display_phone": "(510) 263-8128", "distance": 16840.865222086253}, {"id": "zj09K037XrZ_51Yh5qsIAw", "alias": "kui-shin-bo-san-francisco-2", "name": "Kui Shin Bo", "image_url": "https://s3-media2.fl.yelpcdn.com/bphoto/N_YNLGQJLo8en-dgbu4cWg/o.jpg", "is_closed": false, "url": "https://www.yelp.com/biz/kui-shin-bo-san-francisco-2?adjust_creative=Klanz-jboxl2XzqrjP6LLw&utm_campaign=yelp_api_v3&utm_medium=api_v3_business_search&utm_source=Klanz-jboxl2XzqrjP6LLw", "review_count": 828, "categories": [{"alias": "japanese", "title": "Japanese"}, {"alias": "sushi", "title": "Sushi Bars"}], "rating": 4.0, "coordinates": {"latitude": 37.785367, "longitude": -122.429465}, "transactions": ["delivery", "pickup"], "price": "$$", "location": {"address1": "22 Peace Plz", "address2": "Fl 2", "address3": null, "city": "San Francisco", "zip_code": "94115", "country": "US", "state": "CA", "display_address": ["22 Peace Plz", "Fl 2", "San Francisco, CA 94115"]}, "phone": "+14159229575", "display_phone": "(415) 922-9575", "distance": 2789.0243769571885}, {"id": "Ws0RhWUoZcbvqD--Qrp57w", "alias": "e-plus-restaurant-south-san-francisco-3", "name": "E Plus Restaurant", "image_url": "https://s3-media1.fl.yelpcdn.com/bphoto/DvvjGVlboHpVLZRrQo7zgA/o.jpg", "is_closed": false, "url": "https://www.yelp.com/biz/e-plus-restaurant-south-san-francisco-3?adjust_creative=Klanz-jboxl2XzqrjP6LLw&utm_campaign=yelp_api_v3&utm_medium=api_v3_business_search&utm_source=Klanz-jboxl2XzqrjP6LLw", "review_count": 41, "categories": [{"alias": "hkcafe", "title": "Hong Kong Style Cafe"}, {"alias": "asianfusion", "title": "Asian Fusion"}, {"alias": "chinese", "title": "Chinese"}], "rating": 4.0, "coordinates": {"latitude": 37.640107799486145, "longitude": -122.40231313779044}, "transactions": ["delivery", "pickup"], "location": {"address1": "490 A S Airport Blvd", "address2": "Ste A", "address3": "", "city": "South San Francisco", "zip_code": "94080", "country": "US", "state": "CA", "display_address": ["490 A S Airport Blvd", "Ste A", "South San Francisco, CA 94080"]}, "phone": "+16508716688", "display_phone": "(650) 871-6688", "distance": 13763.028522527098}, {"id": "DpIphLvQx6FVaTbLdqcdEg", "alias": "hoshinoya-san-francisco", "name": "Hoshinoya", "image_url": "https://s3-media4.fl.yelpcdn.com/bphoto/VkEjPYsEJSHMUsiGcbVpig/o.jpg", "is_closed": false, "url": "https://www.yelp.com/biz/hoshinoya-san-francisco?adjust_creative=Klanz-jboxl2XzqrjP6LLw&utm_campaign=yelp_api_v3&utm_medium=api_v3_business_search&utm_source=Klanz-jboxl2XzqrjP6LLw", "review_count": 114, "categories": [{"alias": "japanese", "title": "Japanese"}, {"alias": "thai", "title": "Thai"}], "rating": 4.5, "coordinates": {"latitude": 37.78619933951487, "longitude": -122.42980602887711}, "transactions": ["delivery", "pickup"], "price": "$$", "location": {"address1": "1740 Buchanan St", "address2": null, "address3": "", "city": "San Francisco", "zip_code": "94115", "country": "US", "state": "CA", "display_address": ["1740 Buchanan St", "San Francisco, CA 94115"]}, "phone": "+14156103929", "display_phone": "(415) 610-3929", "distance": 2873.140179131405}, {"id": "79wqHt3w3exi-9M8R-ZsQA", "alias": "yummy-szechuan-millbrae-2", "name": "Yummy Szechuan", "image_url": "https://s3-media3.fl.yelpcdn.com/bphoto/4PpZGsRM12GXl-_zGVOXeQ/o.jpg", "is_closed": false, "url": "https://www.yelp.com/biz/yummy-szechuan-millbrae-2?adjust_creative=Klanz-jboxl2XzqrjP6LLw&utm_campaign=yelp_api_v3&utm_medium=api_v3_business_search&utm_source=Klanz-jboxl2XzqrjP6LLw", "review_count": 421, "categories": [{"alias": "szechuan", "title": "Szechuan"}], "rating": 4.0, "coordinates": {"latitude": 37.61321, "longitude": -122.40476}, "transactions": ["pickup"], "price": "$$", "location": {"address1": "1661 El Camino Real", "address2": null, "address3": "", "city": "Millbrae", "zip_code": "94030", "country": "US", "state": "CA", "display_address": ["1661 El Camino Real", "Millbrae, CA 94030"]}, "phone": "+16506159648", "display_phone": "(650) 615-9648", "distance": 16657.53311062498}, {"id": "hdz4Ps4o8CnCH9-svNZllg", "alias": "soo-fong-restaurant-san-francisco-2", "name": "Soo Fong Restaurant", "image_url": "https://s3-media4.fl.yelpcdn.com/bphoto/lyfztePIWA8tm0xM6QSBlw/o.jpg", "is_closed": false, "url": "https://www.yelp.com/biz/soo-fong-restaurant-san-francisco-2?adjust_creative=Klanz-jboxl2XzqrjP6LLw&utm_campaign=yelp_api_v3&utm_medium=api_v3_business_search&utm_source=Klanz-jboxl2XzqrjP6LLw", "review_count": 97, "categories": [{"alias": "chinese", "title": "Chinese"}], "rating": 3.5, "coordinates": {"latitude": 37.74195476051264, "longitude": -122.38703782331335}, "transactions": ["delivery", "pickup"], "price": "$", "location": {"address1": "3801 3rd St", "address2": "Ste 370", "address3": "", "city": "San Francisco", "zip_code": "94124", "country": "US", "state": "CA", "display_address": ["3801 3rd St", "Ste 370", "San Francisco, CA 94124"]}, "phone": "+14152852828", "display_phone": "(415) 285-2828", "distance": 4827.832585180149}, {"id": "r3AF0u9tTQPldPmeXyN3rQ", "alias": "k-grill-and-tofu-house-san-bruno", "name": "K. Grill & Tofu House", "image_url": "https://s3-media2.fl.yelpcdn.com/bphoto/2eiXQeQyc1D4af5YLgKGgg/o.jpg", "is_closed": false, "url": "https://www.yelp.com/biz/k-grill-and-tofu-house-san-bruno?adjust_creative=Klanz-jboxl2XzqrjP6LLw&utm_campaign=yelp_api_v3&utm_medium=api_v3_business_search&utm_source=Klanz-jboxl2XzqrjP6LLw", "review_count": 618, "categories": [{"alias": "korean", "title": "Korean"}], "rating": 4.0, "coordinates": {"latitude": 37.62681, "longitude": -122.41148}, "transactions": ["delivery", "pickup"], "price": "$$", "location": {"address1": "617 San Mateo Ave", "address2": "", "address3": "", "city": "San Bruno", "zip_code": "94066", "country": "US", "state": "CA", "display_address": ["617 San Mateo Ave", "San Bruno, CA 94066"]}, "phone": "+16508733030", "display_phone": "(650) 873-3030", "distance": 15070.572621429183}, {"id": "KutHWQT6Ha5ZRplvZ5mLXg", "alias": "toyama-sushi-san-francisco-2", "name": "Toyama Sushi", "image_url": "https://s3-media2.fl.yelpcdn.com/bphoto/FQHBmBmdUqVCbPFwy0nC9w/o.jpg", "is_closed": false, "url": "https://www.yelp.com/biz/toyama-sushi-san-francisco-2?adjust_creative=Klanz-jboxl2XzqrjP6LLw&utm_campaign=yelp_api_v3&utm_medium=api_v3_business_search&utm_source=Klanz-jboxl2XzqrjP6LLw", "review_count": 311, "categories": [{"alias": "japanese", "title": "Japanese"}, {"alias": "sushi", "title": "Sushi Bars"}], "rating": 4.5, "coordinates": {"latitude": 37.780943, "longitude": -122.459450103343}, "transactions": ["delivery", "pickup"], "price": "$$", "location": {"address1": "3727 Geary Blvd", "address2": "", "address3": null, "city": "San Francisco", "zip_code": "94118", "country": "US", "state": "CA", "display_address": ["3727 Geary Blvd", "San Francisco, CA 94118"]}, "phone": "+14152219811", "display_phone": "(415) 221-9811", "distance": 3009.190784912084}, {"id": "1EiMCJuOr-VoP2EIaiYmtQ", "alias": "far-east-cafe-san-francisco", "name": "Far East Cafe", "image_url": "https://s3-media1.fl.yelpcdn.com/bphoto/XXX1rdX5fSVe7Edq3JNVXw/o.jpg", "is_closed": false, "url": "https://www.yelp.com/biz/far-east-cafe-san-francisco?adjust_creative=Klanz-jboxl2XzqrjP6LLw&utm_campaign=yelp_api_v3&utm_medium=api_v3_business_search&utm_source=Klanz-jboxl2XzqrjP6LLw", "review_count": 505, "categories": [{"alias": "chinese", "title": "Chinese"}], "rating": 3.0, "coordinates": {"latitude": 37.7929916381836, "longitude": -122.406364440918}, "transactions": ["delivery", "pickup"], "price": "$$", "location": {"address1": "631 Grant Ave", "address2": "", "address3": "", "city": "San Francisco", "zip_code": "94108", "country": "US", "state": "CA", "display_address": ["631 Grant Ave", "San Francisco, CA 94108"]}, "phone": "+14159823245", "display_phone": "(415) 982-3245", "distance": 4442.840428450147}, {"id": "4_7LJsh5lPWwzrWEkqeZNw", "alias": "may-lee-chinese-restaurant-san-francisco", "name": "May Lee Chinese Restaurant", "image_url": "https://s3-media3.fl.yelpcdn.com/bphoto/BKvLBt3po7KqnNuZ26o9sQ/o.jpg", "is_closed": false, "url": "https://www.yelp.com/biz/may-lee-chinese-restaurant-san-francisco?adjust_creative=Klanz-jboxl2XzqrjP6LLw&utm_campaign=yelp_api_v3&utm_medium=api_v3_business_search&utm_source=Klanz-jboxl2XzqrjP6LLw", "review_count": 238, "categories": [{"alias": "chinese", "title": "Chinese"}], "rating": 3.5, "coordinates": {"latitude": 37.76486, "longitude": -122.46396}, "transactions": ["delivery", "pickup"], "price": "$", "location": {"address1": "1256 7th Ave", "address2": "", "address3": "", "city": "San Francisco", "zip_code": "94122", "country": "US", "state": "CA", "display_address": ["1256 7th Ave", "San Francisco, CA 94122"]}, "phone": "+14152421006", "display_phone": "(415) 242-1006", "distance": 2471.029169267139}, {"id": "Jdkiq2BN6g_-5Ja_Sevxcg", "alias": "wooden-charcoal-korean-village-barbecue-house-san-francisco", "name": "Wooden Charcoal Korean Village Barbecue House", "image_url": "https://s3-media3.fl.yelpcdn.com/bphoto/HroSJrKmqjrrurTVTMHfRQ/o.jpg", "is_closed": false, "url": "https://www.yelp.com/biz/wooden-charcoal-korean-village-barbecue-house-san-francisco?adjust_creative=Klanz-jboxl2XzqrjP6LLw&utm_campaign=yelp_api_v3&utm_medium=api_v3_business_search&utm_source=Klanz-jboxl2XzqrjP6LLw", "review_count": 561, "categories": [{"alias": "korean", "title": "Korean"}, {"alias": "bbq", "title": "Barbeque"}, {"alias": "noodles", "title": "Noodles"}], "rating": 3.5, "coordinates": {"latitude": 37.780608, "longitude": -122.4689096}, "transactions": ["delivery", "pickup"], "price": "$$", "location": {"address1": "4611 Geary Blvd", "address2": null, "address3": "", "city": "San Francisco", "zip_code": "94118", "country": "US", "state": "CA", "display_address": ["4611 Geary Blvd", "San Francisco, CA 94118"]}, "phone": "+14157516336", "display_phone": "(415) 751-6336", "distance": 3592.2128615631727}, {"id": "RAqykee1WPsTsEBuBVC3mg", "alias": "toppu-ramen-and-dim-sum-house-san-francisco", "name": "Toppu Ramen & Dim Sum House", "image_url": "https://s3-media3.fl.yelpcdn.com/bphoto/M8mM4UHs5Nmi4llRnIFEBA/o.jpg", "is_closed": false, "url": "https://www.yelp.com/biz/toppu-ramen-and-dim-sum-house-san-francisco?adjust_creative=Klanz-jboxl2XzqrjP6LLw&utm_campaign=yelp_api_v3&utm_medium=api_v3_business_search&utm_source=Klanz-jboxl2XzqrjP6LLw", "review_count": 334, "categories": [{"alias": "dimsum", "title": "Dim Sum"}, {"alias": "ramen", "title": "Ramen"}, {"alias": "asianfusion", "title": "Asian Fusion"}], "rating": 4.0, "coordinates": {"latitude": 37.7964835944019, "longitude": -122.405251497482}, "transactions": ["delivery", "pickup"], "price": "$$", "location": {"address1": "941 Kearny St", "address2": "", "address3": null, "city": "San Francisco", "zip_code": "94133", "country": "US", "state": "CA", "display_address": ["941 Kearny St", "San Francisco, CA 94133"]}, "phone": "+14159238055", "display_phone": "(415) 923-8055", "distance": 4822.49654150202}, {"id": "lX4aek0QgmkDPcsCmeEpFQ", "alias": "emperors-kitchen-san-francisco", "name": "Emperor's Kitchen", "image_url": "https://s3-media4.fl.yelpcdn.com/bphoto/-8FD0rwriDTUd-hjYtr6FQ/o.jpg", "is_closed": false, "url": "https://www.yelp.com/biz/emperors-kitchen-san-francisco?adjust_creative=Klanz-jboxl2XzqrjP6LLw&utm_campaign=yelp_api_v3&utm_medium=api_v3_business_search&utm_source=Klanz-jboxl2XzqrjP6LLw", "review_count": 72, "categories": [{"alias": "chinese", "title": "Chinese"}], "rating": 3.0, "coordinates": {"latitude": 37.7817054837942, "longitude": -122.417145967484}, "transactions": ["delivery"], "price": "$", "location": {"address1": "418 Larkin St", "address2": "", "address3": "", "city": "San Francisco", "zip_code": "94102", "country": "US", "state": "CA", "display_address": ["418 Larkin St", "San Francisco, CA 94102"]}, "phone": "+14159220380", "display_phone": "(415) 922-0380", "distance": 2883.2083125671334}], "total": 1800, "region": {"center": {"longitude": -122.43644714355469, "latitude": 37.76089938976322}}}