{"businesses": [{"id": "2kCvHh1pSbaJqs2pWGvSUQ", "alias": "millennium-oakland", "name": "Millennium", "image_url": "https://s3-media4.fl.yelpcdn.com/bphoto/-2a5cglONUzqzHHnQYNUiA/o.jpg", "is_closed": false, "url": "https://www.yelp.com/biz/millennium-oakland?adjust_creative=Klanz-jboxl2XzqrjP6LLw&utm_campaign=yelp_api_v3&utm_medium=api_v3_business_search&utm_source=Klanz-jboxl2XzqrjP6LLw", "review_count": 801, "categories": [{"alias": "vegan", "title": "Vegan"}, {"alias": "vegetarian", "title": "Vegetarian"}, {"alias": "wine_bars", "title": "Wine Bars"}], "rating": 4.0, "coordinates": {"latitude": 37.8475302, "longitude": -122.2519112}, "transactions": ["pickup", "delivery"], "price": "$$$", "location": {"address1": "5912 College Ave", "address2": "", "address3": "", "city": "Oakland", "zip_code": "94618", "country": "US", "state": "CA", "display_address": ["5912 College Ave", "Oakland, CA 94618"]}, "phone": "+15107359459", "display_phone": "(510) 735-9459", "distance": 18866.47408945647}, {"id": "s2noUNveNyXYZyVqXGjcNQ", "alias": "quickly-kobe-bento-san-francisco", "name": "Quickly - Kobe Bento", "image_url": "https://s3-media3.fl.yelpcdn.com/bphoto/DwLYCafll9dhdpYQ8hBSXg/o.jpg", "is_closed": false, "url": "https://www.yelp.com/biz/quickly-kobe-bento-san-francisco?adjust_creative=Klanz-jboxl2XzqrjP6LLw&utm_campaign=yelp_api_v3&utm_medium=api_v3_business_search&utm_source=Klanz-jboxl2XzqrjP6LLw", "review_count": 208, "categories": [{"alias": "asianfusion", "title": "Asian Fusion"}, {"alias": "juicebars", "title": "Juice Bars & Smoothies"}, {"alias": "bubbletea", "title": "Bubble Tea"}], "rating": 3.5, "coordinates": {"latitude": 37.79643, "longitude": -122.40538}, "transactions": ["pickup", "delivery"], "price": "$", "location": {"address1": "901 Kearny St", "address2": "", "address3": "", "city": "San Francisco", "zip_code": "94133", "country": "US", "state": "CA", "display_address": ["901 Kearny St", "San Francisco, CA 94133"]}, "phone": "+14159862688", "display_phone": "(415) 986-2688", "distance": 4791.52912973326}, {"id": "cQ00bfG7i-IKUlrJMVy86w", "alias": "kitchen-story-oakland", "name": "Kitchen Story", "image_url": "https://s3-media3.fl.yelpcdn.com/bphoto/gTU8gcNpoEK8Ho8aH03ooQ/o.jpg", "is_closed": false, "url": "https://www.yelp.com/biz/kitchen-story-oakland?adjust_creative=Klanz-jboxl2XzqrjP6LLw&utm_campaign=yelp_api_v3&utm_medium=api_v3_business_search&utm_source=Klanz-jboxl2XzqrjP6LLw", "review_count": 597, "categories": [{"alias": "breakfast_brunch", "title": "Breakfast & Brunch"}, {"alias": "asianfusion", "title": "Asian Fusion"}, {"alias": "newamerican", "title": "American (New)"}], "rating": 4.0, "coordinates": {"latitude": 37.84073, "longitude": -122.25119}, "transactions": ["pickup", "restaurant_reservation", "delivery"], "price": "$$", "location": {"address1": "5422 College Ave", "address2": null, "address3": "", "city": "Oakland", "zip_code": "94618", "country": "US", "state": "CA", "display_address": ["5422 College Ave", "Oakland, CA 94618"]}, "phone": "+15109229443", "display_phone": "(510) 922-9443", "distance": 18541.198312805136}, {"id": "S2v_9CKwsEyMVpTbrlewGw", "alias": "king-dong-chinese-berkeley", "name": "King Dong Chinese", "image_url": "https://s3-media1.fl.yelpcdn.com/bphoto/6HUhQo1qw16KCbWK7krkWg/o.jpg", "is_closed": false, "url": "https://www.yelp.com/biz/king-dong-chinese-berkeley?adjust_creative=Klanz-jboxl2XzqrjP6LLw&utm_campaign=yelp_api_v3&utm_medium=api_v3_business_search&utm_source=Klanz-jboxl2XzqrjP6LLw", "review_count": 498, "categories": [{"alias": "chinese", "title": "Chinese"}], "rating": 3.5, "coordinates": {"latitude": 37.86526, "longitude": -122.267218}, "transactions": ["delivery"], "price": "$$", "location": {"address1": "2429 Shattuck Ave", "address2": "", "address3": "", "city": "Berkeley", "zip_code": "94704", "country": "US", "state": "CA", "display_address": ["2429 Shattuck Ave", "Berkeley, CA 94704"]}, "phone": "+15108416196", "display_phone": "(510) 841-6196", "distance": 18858.94353795618}, {"id": "KbpRYZz2P3-Hr0Q_yqX4yQ", "alias": "orchid-pavillion-cafe-alameda", "name": "Orchid Pavillion Cafe", "image_url": "https://s3-media2.fl.yelpcdn.com/bphoto/ytRuBoVbePT-jf184ZB2EA/o.jpg", "is_closed": false, "url": "https://www.yelp.com/biz/orchid-pavillion-cafe-alameda?adjust_creative=Klanz-jboxl2XzqrjP6LLw&utm_campaign=yelp_api_v3&utm_medium=api_v3_business_search&utm_source=Klanz-jboxl2XzqrjP6LLw", "review_count": 165, "categories": [{"alias": "chinese", "title": "Chinese"}], "rating": 4.5, "coordinates": {"latitude": 37.7747, "longitude": -122.27644}, "transactions": ["pickup", "delivery"], "price": "$$", "location": {"address1": "1540 Webster St", "address2": null, "address3": "", "city": "Alameda", "zip_code": "94501", "country": "US", "state": "CA", "display_address": ["1540 Webster St", "Alameda, CA 94501"]}, "phone": "+15108712908", "display_phone": "(510) 871-2908", "distance": 14147.054943878558}, {"id": "UFX2mEq82sF8kpuSUkAZ3g", "alias": "sabra-grill-san-francisco", "name": "Sabra Grill", "image_url": "https://s3-media1.fl.yelpcdn.com/bphoto/bdMPoPQSbAcVk7hCYe6N9A/o.jpg", "is_closed": false, "url": "https://www.yelp.com/biz/sabra-grill-san-francisco?adjust_creative=Klanz-jboxl2XzqrjP6LLw&utm_campaign=yelp_api_v3&utm_medium=api_v3_business_search&utm_source=Klanz-jboxl2XzqrjP6LLw", "review_count": 156, "categories": [{"alias": "mideastern", "title": "Middle Eastern"}, {"alias": "kosher", "title": "Kosher"}], "rating": 3.5, "coordinates": {"latitude": 37.79084, "longitude": -122.4058}, "transactions": ["pickup", "delivery"], "price": "$$", "location": {"address1": "419 Grant Ave", "address2": "", "address3": "", "city": "San Francisco", "zip_code": "94108", "country": "US", "state": "CA", "display_address": ["419 Grant Ave", "San Francisco, CA 94108"]}, "phone": "+14159823656", "display_phone": "(415) 982-3656", "distance": 4276.609562662283}, {"id": "UNE7QP_zp7oPnyqZcQkZiw", "alias": "marufuku-ramen-oakland-oakland-5", "name": "Marufuku Ramen - Oakland", "image_url": "https://s3-media3.fl.yelpcdn.com/bphoto/Us0JSHIU9lhTY3cKlOMuFg/o.jpg", "is_closed": false, "url": "https://www.yelp.com/biz/marufuku-ramen-oakland-oakland-5?adjust_creative=Klanz-jboxl2XzqrjP6LLw&utm_campaign=yelp_api_v3&utm_medium=api_v3_business_search&utm_source=Klanz-jboxl2XzqrjP6LLw", "review_count": 1388, "categories": [{"alias": "ramen", "title": "Ramen"}], "rating": 4.5, "coordinates": {"latitude": 37.835159813672, "longitude": -122.262654751539}, "transactions": ["pickup", "delivery"], "price": "$$", "location": {"address1": "4828 Telegraph Ave", "address2": "", "address3": null, "city": "Oakland", "zip_code": "94609", "country": "US", "state": "CA", "display_address": ["4828 Telegraph Ave", "Oakland, CA 94609"]}, "phone": "+15108232416", "display_phone": "(510) 823-2416", "distance": 17359.638820564112}, {"id": "-zetzVfO4X0dpiiTmjdeKg", "alias": "eiji-san-francisco", "name": "Eiji", "image_url": "https://s3-media1.fl.yelpcdn.com/bphoto/pWiRTXc0Te7loPLVRRBhwQ/o.jpg", "is_closed": false, "url": "https://www.yelp.com/biz/eiji-san-francisco?adjust_creative=Klanz-jboxl2XzqrjP6LLw&utm_campaign=yelp_api_v3&utm_medium=api_v3_business_search&utm_source=Klanz-jboxl2XzqrjP6LLw", "review_count": 1113, "categories": [{"alias": "sushi", "title": "Sushi Bars"}, {"alias": "japanese", "title": "Japanese"}], "rating": 4.0, "coordinates": {"latitude": 37.764058, "longitude": -122.430685}, "transactions": ["delivery"], "price": "$$", "location": {"address1": "317 Sanchez St", "address2": null, "address3": "", "city": "San Francisco", "zip_code": "94114", "country": "US", "state": "CA", "display_address": ["317 Sanchez St", "San Francisco, CA 94114"]}, "phone": "+14155588149", "display_phone": "(415) 558-8149", "distance": 616.380008566382}, {"id": "ygJ1-bjAg3hI95N9zX9oqQ", "alias": "food-emporium-san-francisco", "name": "Food Emporium", "image_url": "https://s3-media1.fl.yelpcdn.com/bphoto/r-C3eAKV3mfWCZfx2CJkuw/o.jpg", "is_closed": false, "url": "https://www.yelp.com/biz/food-emporium-san-francisco?adjust_creative=Klanz-jboxl2XzqrjP6LLw&utm_campaign=yelp_api_v3&utm_medium=api_v3_business_search&utm_source=Klanz-jboxl2XzqrjP6LLw", "review_count": 303, "categories": [{"alias": "food_court", "title": "Food Court"}], "rating": 4.0, "coordinates": {"latitude": 37.783973, "longitude": -122.40717}, "transactions": [], "price": "$$", "location": {"address1": "865 Market St", "address2": "", "address3": "", "city": "San Francisco", "zip_code": "94103", "country": "US", "state": "CA", "display_address": ["865 Market St", "San Francisco, CA 94103"]}, "phone": "+14155126776", "display_phone": "(415) 512-6776", "distance": 3633.789000466373}, {"id": "dNyfcHW9qlAo9V4Raa5EwA", "alias": "red-a-bakery-san-francisco-3", "name": "Red A Bakery", "image_url": "https://s3-media4.fl.yelpcdn.com/bphoto/-ssIIorfY7VVSITudP_hlw/o.jpg", "is_closed": false, "url": "https://www.yelp.com/biz/red-a-bakery-san-francisco-3?adjust_creative=Klanz-jboxl2XzqrjP6LLw&utm_campaign=yelp_api_v3&utm_medium=api_v3_business_search&utm_source=Klanz-jboxl2XzqrjP6LLw", "review_count": 204, "categories": [{"alias": "hawaiian", "title": "Hawaiian"}, {"alias": "bakeries", "title": "Bakeries"}, {"alias": "chinese", "title": "Chinese"}], "rating": 4.0, "coordinates": {"latitude": 37.7831382751465, "longitude": -122.466133117676}, "transactions": ["delivery"], "price": "$", "location": {"address1": "634 Clement St", "address2": null, "address3": "", "city": "San Francisco", "zip_code": "94118", "country": "US", "state": "CA", "display_address": ["634 Clement St", "San Francisco, CA 94118"]}, "phone": "+14156688881", "display_phone": "(415) 668-8881", "distance": 3592.0688741919207}, {"id": "UotjCRojMHF9zfxSBPEUXw", "alias": "quail-crane-san-francisco", "name": "Quail + Crane", "image_url": "https://s3-media3.fl.yelpcdn.com/bphoto/RkJFrabfy0LyfyWiDpBPJA/o.jpg", "is_closed": false, "url": "https://www.yelp.com/biz/quail-crane-san-francisco?adjust_creative=Klanz-jboxl2XzqrjP6LLw&utm_campaign=yelp_api_v3&utm_medium=api_v3_business_search&utm_source=Klanz-jboxl2XzqrjP6LLw", "review_count": 24, "categories": [{"alias": "breakfast_brunch", "title": "Breakfast & Brunch"}, {"alias": "ramen", "title": "Ramen"}], "rating": 4.5, "coordinates": {"latitude": 37.61287295975938, "longitude": -122.39407196458075}, "transactions": [], "location": {"address1": "55 S McDonnell Rd", "address2": "", "address3": null, "city": "San Francisco", "zip_code": "94128", "country": "US", "state": "CA", "display_address": ["55 S McDonnell Rd", "San Francisco, CA 94128"]}, "phone": "+16504521234", "display_phone": "(650) 452-1234", "distance": 16876.852117712406}, {"id": "o__w2Hufu0Bdc_hKfi8OYg", "alias": "house-of-dim-sum-san-francisco", "name": "House of Dim Sum", "image_url": "https://s3-media2.fl.yelpcdn.com/bphoto/_jG3x85C6UHFrQT9EZBS7g/o.jpg", "is_closed": false, "url": "https://www.yelp.com/biz/house-of-dim-sum-san-francisco?adjust_creative=Klanz-jboxl2XzqrjP6LLw&utm_campaign=yelp_api_v3&utm_medium=api_v3_business_search&utm_source=Klanz-jboxl2XzqrjP6LLw", "review_count": 385, "categories": [{"alias": "dimsum", "title": "Dim Sum"}, {"alias": "asianfusion", "title": "Asian Fusion"}, {"alias": "cantonese", "title": "Cantonese"}], "rating": 2.5, "coordinates": {"latitude": 37.7957611083984, "longitude": -122.407234191895}, "transactions": ["delivery", "pickup"], "price": "$", "location": {"address1": "735 Jackson St", "address2": "", "address3": "", "city": "San Francisco", "zip_code": "94133", "country": "US", "state": "CA", "display_address": ["735 Jackson St", "San Francisco, CA 94133"]}, "phone": "+14153990888", "display_phone": "(415) 399-0888", "distance": 4659.294253166602}, {"id": "MNdOv__cXaCnUaLCcfC-Fw", "alias": "shine-thai-cuisine-daly-city", "name": "Shine Thai Cuisine", "image_url": "https://s3-media4.fl.yelpcdn.com/bphoto/BDhAA3dLcjSEvm_ChZAdHQ/o.jpg", "is_closed": false, "url": "https://www.yelp.com/biz/shine-thai-cuisine-daly-city?adjust_creative=Klanz-jboxl2XzqrjP6LLw&utm_campaign=yelp_api_v3&utm_medium=api_v3_business_search&utm_source=Klanz-jboxl2XzqrjP6LLw", "review_count": 205, "categories": [{"alias": "thai", "title": "Thai"}], "rating": 4.5, "coordinates": {"latitude": 37.6502879, "longitude": -122.453935}, "transactions": ["pickup", "delivery"], "price": "$$", "location": {"address1": "2055 Gellert Blvd", "address2": "Ste 2", "address3": "", "city": "Daly City", "zip_code": "94015", "country": "US", "state": "CA", "display_address": ["2055 Gellert Blvd", "Ste 2", "Daly City, CA 94015"]}, "phone": "+16506364154", "display_phone": "(650) 636-4154", "distance": 12395.268191015883}, {"id": "DkE7xC9iL_4ZQG7O0pGOpg", "alias": "banana-house-san-francisco", "name": "Banana House", "image_url": "https://s3-media2.fl.yelpcdn.com/bphoto/mp3HVJVk5f36Q6k_XFErsQ/o.jpg", "is_closed": false, "url": "https://www.yelp.com/biz/banana-house-san-francisco?adjust_creative=Klanz-jboxl2XzqrjP6LLw&utm_campaign=yelp_api_v3&utm_medium=api_v3_business_search&utm_source=Klanz-jboxl2XzqrjP6LLw", "review_count": 428, "categories": [{"alias": "thai", "title": "Thai"}, {"alias": "noodles", "title": "Noodles"}], "rating": 3.0, "coordinates": {"latitude": 37.79106, "longitude": -122.40431}, "transactions": ["delivery", "pickup"], "price": "$$", "location": {"address1": "321 Kearny St", "address2": "", "address3": "", "city": "San Francisco", "zip_code": "94108", "country": "US", "state": "CA", "display_address": ["321 Kearny St", "San Francisco, CA 94108"]}, "phone": "+14159819090", "display_phone": "(415) 981-9090", "distance": 4382.926550557672}, {"id": "PEUAYMdXCNAL34Bz2gJWIA", "alias": "benihana-burlingame", "name": "Benihana", "image_url": "https://s3-media2.fl.yelpcdn.com/bphoto/Kpfs6zpN2-TwNVMmD1vEYQ/o.jpg", "is_closed": false, "url": "https://www.yelp.com/biz/benihana-burlingame?adjust_creative=Klanz-jboxl2XzqrjP6LLw&utm_campaign=yelp_api_v3&utm_medium=api_v3_business_search&utm_source=Klanz-jboxl2XzqrjP6LLw", "review_count": 1350, "categories": [{"alias": "sushi", "title": "Sushi Bars"}, {"alias": "teppanyaki", "title": "Teppanyaki"}], "rating": 2.5, "coordinates": {"latitude": 37.5981597900391, "longitude": -122.364379882812}, "transactions": ["pickup", "delivery"], "price": "$$$", "location": {"address1": "1496 Old Bayshore Hwy", "address2": "", "address3": "", "city": "Burlingame", "zip_code": "94010", "country": "US", "state": "CA", "display_address": ["1496 Old Bayshore Hwy", "Burlingame, CA 94010"]}, "phone": "+16503425202", "display_phone": "(650) 342-5202", "distance": 19165.823401695077}, {"id": "ma-IFK7XaRdVwA9lxNyMXA", "alias": "se\u00f1or-sisig-food-trucks-san-francisco-3", "name": "Se\u00f1or Sisig - Food Trucks", "image_url": "https://s3-media3.fl.yelpcdn.com/bphoto/eCuzQUt4gyolCvGRZhyebw/o.jpg", "is_closed": false, "url": "https://www.yelp.com/biz/se%C3%B1or-sisig-food-trucks-san-francisco-3?adjust_creative=Klanz-jboxl2XzqrjP6LLw&utm_campaign=yelp_api_v3&utm_medium=api_v3_business_search&utm_source=Klanz-jboxl2XzqrjP6LLw", "review_count": 1656, "categories": [{"alias": "filipino", "title": "Filipino"}, {"alias": "foodtrucks", "title": "Food Trucks"}, {"alias": "asianfusion", "title": "Asian Fusion"}], "rating": 4.0, "coordinates": {"latitude": 37.7749295, "longitude": -122.4194155}, "transactions": ["pickup"], "price": "$$", "location": {"address1": "", "address2": null, "address3": "", "city": "San Francisco", "zip_code": "94104", "country": "US", "state": "CA", "display_address": ["San Francisco, CA 94104"]}, "phone": "+18557474455", "display_phone": "(855) 747-4455", "distance": 2162.186714403771}, {"id": "_ZC_Zvq5DqaPVXIqFzPkBQ", "alias": "le-colonial-san-francisco", "name": "Le Colonial", "image_url": "https://s3-media3.fl.yelpcdn.com/bphoto/kb_WsUEOSJEY5m0wgtqz0Q/o.jpg", "is_closed": false, "url": "https://www.yelp.com/biz/le-colonial-san-francisco?adjust_creative=Klanz-jboxl2XzqrjP6LLw&utm_campaign=yelp_api_v3&utm_medium=api_v3_business_search&utm_source=Klanz-jboxl2XzqrjP6LLw", "review_count": 1713, "categories": [{"alias": "vietnamese", "title": "Vietnamese"}, {"alias": "venues", "title": "Venues & Event Spaces"}, {"alias": "french", "title": "French"}], "rating": 3.5, "coordinates": {"latitude": 37.78839, "longitude": -122.41236}, "transactions": ["delivery", "pickup"], "price": "$$$", "location": {"address1": "20 Cosmo Pl", "address2": "", "address3": "", "city": "San Francisco", "zip_code": "94109", "country": "US", "state": "CA", "display_address": ["20 Cosmo Pl", "San Francisco, CA 94109"]}, "phone": "+14159313600", "display_phone": "(415) 931-3600", "distance": 3701.0596429770994}, {"id": "CdFw6vosgUndgHwlkefCZA", "alias": "moonbowls-san-francisco", "name": "moonbowls", "image_url": "https://s3-media2.fl.yelpcdn.com/bphoto/OYzC_oX5VFC9cDkuuZsX_A/o.jpg", "is_closed": false, "url": "https://www.yelp.com/biz/moonbowls-san-francisco?adjust_creative=Klanz-jboxl2XzqrjP6LLw&utm_campaign=yelp_api_v3&utm_medium=api_v3_business_search&utm_source=Klanz-jboxl2XzqrjP6LLw", "review_count": 139, "categories": [{"alias": "korean", "title": "Korean"}, {"alias": "gluten_free", "title": "Gluten-Free"}, {"alias": "vegetarian", "title": "Vegetarian"}], "rating": 4.0, "coordinates": {"latitude": 37.7768879, "longitude": -122.4027068}, "transactions": ["pickup", "delivery"], "location": {"address1": "60 Morris St", "address2": "", "address3": null, "city": "San Francisco", "zip_code": "94107", "country": "US", "state": "CA", "display_address": ["60 Morris St", "San Francisco, CA 94107"]}, "phone": "+13239874617", "display_phone": "(323) 987-4617", "distance": 3462.2869525826054}, {"id": "5ugE5Qh_N90PfTzmU_msag", "alias": "jin-pot-shabu-house-san-francisco-2", "name": "Jin Pot Shabu House", "image_url": "https://s3-media2.fl.yelpcdn.com/bphoto/Xr8XIYP5RXA9Yl37gXM6MQ/o.jpg", "is_closed": false, "url": "https://www.yelp.com/biz/jin-pot-shabu-house-san-francisco-2?adjust_creative=Klanz-jboxl2XzqrjP6LLw&utm_campaign=yelp_api_v3&utm_medium=api_v3_business_search&utm_source=Klanz-jboxl2XzqrjP6LLw", "review_count": 396, "categories": [{"alias": "japanese", "title": "Japanese"}, {"alias": "hotpot", "title": "Hot Pot"}], "rating": 4.5, "coordinates": {"latitude": 37.78084, "longitude": -122.47492}, "transactions": ["pickup", "restaurant_reservation", "delivery"], "price": "$$$", "location": {"address1": "5158 Geary Blvd", "address2": "", "address3": null, "city": "San Francisco", "zip_code": "94118", "country": "US", "state": "CA", "display_address": ["5158 Geary Blvd", "San Francisco, CA 94118"]}, "phone": "+14153794539", "display_phone": "(415) 379-4539", "distance": 4043.7126401994383}, {"id": "DWKZS53O-9WnH4IQvbTk6A", "alias": "classic-guilin-rice-noodles-oakland", "name": "Classic Guilin Rice Noodles", "image_url": "https://s3-media2.fl.yelpcdn.com/bphoto/TnrJmJahkIZhFKN22kuScg/o.jpg", "is_closed": false, "url": "https://www.yelp.com/biz/classic-guilin-rice-noodles-oakland?adjust_creative=Klanz-jboxl2XzqrjP6LLw&utm_campaign=yelp_api_v3&utm_medium=api_v3_business_search&utm_source=Klanz-jboxl2XzqrjP6LLw", "review_count": 192, "categories": [{"alias": "chinese", "title": "Chinese"}, {"alias": "noodles", "title": "Noodles"}], "rating": 3.5, "coordinates": {"latitude": 37.7993779, "longitude": -122.2664907}, "transactions": ["delivery"], "price": "$$", "location": {"address1": "188 10th St", "address2": null, "address3": "", "city": "Oakland", "zip_code": "94607", "country": "US", "state": "CA", "display_address": ["188 10th St", "Oakland, CA 94607"]}, "phone": "+15102509333", "display_phone": "(510) 250-9333", "distance": 15537.304574822285}, {"id": "RNy3_hU1N2qyS5PVc9RaYQ", "alias": "perilla-san-francisco-2", "name": "Perilla", "image_url": "https://s3-media2.fl.yelpcdn.com/bphoto/gEn6tWCzzZtCmhrjpfcUZA/o.jpg", "is_closed": false, "url": "https://www.yelp.com/biz/perilla-san-francisco-2?adjust_creative=Klanz-jboxl2XzqrjP6LLw&utm_campaign=yelp_api_v3&utm_medium=api_v3_business_search&utm_source=Klanz-jboxl2XzqrjP6LLw", "review_count": 1416, "categories": [{"alias": "vietnamese", "title": "Vietnamese"}], "rating": 4.0, "coordinates": {"latitude": 37.76415, "longitude": -122.46711}, "transactions": ["pickup", "delivery"], "price": "$$", "location": {"address1": "836 Irving St", "address2": "", "address3": "", "city": "San Francisco", "zip_code": "94122", "country": "US", "state": "CA", "display_address": ["836 Irving St", "San Francisco, CA 94122"]}, "phone": "+14155649980", "display_phone": "(415) 564-9980", "distance": 2722.0914995822654}, {"id": "4cXj-H3qt-fE4Ly8giRP-A", "alias": "izumi-revolving-sushi-daly-city-2", "name": "Izumi Revolving Sushi", "image_url": "https://s3-media2.fl.yelpcdn.com/bphoto/caj-QeUK26GhltFH8kk_BQ/o.jpg", "is_closed": false, "url": "https://www.yelp.com/biz/izumi-revolving-sushi-daly-city-2?adjust_creative=Klanz-jboxl2XzqrjP6LLw&utm_campaign=yelp_api_v3&utm_medium=api_v3_business_search&utm_source=Klanz-jboxl2XzqrjP6LLw", "review_count": 174, "categories": [{"alias": "sushi", "title": "Sushi Bars"}, {"alias": "conveyorsushi", "title": "Conveyor Belt Sushi"}], "rating": 3.5, "coordinates": {"latitude": 37.671829010252814, "longitude": -122.47163706661541}, "transactions": ["pickup", "delivery"], "price": "$$", "location": {"address1": "94 Serramonte Ctr", "address2": null, "address3": null, "city": "Daly City", "zip_code": "94015", "country": "US", "state": "CA", "display_address": ["94 Serramonte Ctr", "Daly City, CA 94015"]}, "phone": "+16509855555", "display_phone": "(650) 985-5555", "distance": 10376.583066478617}, {"id": "ieVSqUfVnPFFWkRcb8mTzA", "alias": "que-huong-vietnamese-deli-san-francisco-2", "name": "Que Huong Vietnamese Deli", "image_url": "https://s3-media4.fl.yelpcdn.com/bphoto/oqK7FbBzjruc1wYko0G6kw/o.jpg", "is_closed": false, "url": "https://www.yelp.com/biz/que-huong-vietnamese-deli-san-francisco-2?adjust_creative=Klanz-jboxl2XzqrjP6LLw&utm_campaign=yelp_api_v3&utm_medium=api_v3_business_search&utm_source=Klanz-jboxl2XzqrjP6LLw", "review_count": 193, "categories": [{"alias": "vietnamese", "title": "Vietnamese"}, {"alias": "delis", "title": "Delis"}], "rating": 3.5, "coordinates": {"latitude": 37.7635133082029, "longitude": -122.480929388825}, "transactions": ["pickup"], "price": "$", "location": {"address1": "2138 Irving St", "address2": "", "address3": "", "city": "San Francisco", "zip_code": "94122", "country": "US", "state": "CA", "display_address": ["2138 Irving St", "San Francisco, CA 94122"]}, "phone": "+14156823828", "display_phone": "(415) 682-3828", "distance": 3921.0466379217314}, {"id": "A0AG2SpXxkIyq6x8HyTuSA", "alias": "kaiju-eats-ramen-and-izakaya-san-francisco-3", "name": "Kaiju Eats Ramen and Izakaya", "image_url": "https://s3-media2.fl.yelpcdn.com/bphoto/5p4-SeOKC5XMb_yRNoNCfg/o.jpg", "is_closed": false, "url": "https://www.yelp.com/biz/kaiju-eats-ramen-and-izakaya-san-francisco-3?adjust_creative=Klanz-jboxl2XzqrjP6LLw&utm_campaign=yelp_api_v3&utm_medium=api_v3_business_search&utm_source=Klanz-jboxl2XzqrjP6LLw", "review_count": 840, "categories": [{"alias": "sushi", "title": "Sushi Bars"}, {"alias": "ramen", "title": "Ramen"}, {"alias": "izakaya", "title": "Izakaya"}], "rating": 4.0, "coordinates": {"latitude": 37.781106, "longitude": -122.455533}, "transactions": ["pickup"], "price": "$$", "location": {"address1": "3409 Geary Blvd", "address2": "", "address3": "", "city": "San Francisco", "zip_code": "94118", "country": "US", "state": "CA", "display_address": ["3409 Geary Blvd", "San Francisco, CA 94118"]}, "phone": "+14157424309", "display_phone": "(415) 742-4309", "distance": 2804.040413057605}, {"id": "OzFb5aZuA3RGV_YZlxorNg", "alias": "sushi-time-san-francisco-2", "name": "Sushi Time", "image_url": "https://s3-media4.fl.yelpcdn.com/bphoto/U7VBSVarigMTpU6dWzn0pA/o.jpg", "is_closed": false, "url": "https://www.yelp.com/biz/sushi-time-san-francisco-2?adjust_creative=Klanz-jboxl2XzqrjP6LLw&utm_campaign=yelp_api_v3&utm_medium=api_v3_business_search&utm_source=Klanz-jboxl2XzqrjP6LLw", "review_count": 714, "categories": [{"alias": "japanese", "title": "Japanese"}, {"alias": "sushi", "title": "Sushi Bars"}], "rating": 4.0, "coordinates": {"latitude": 37.76455, "longitude": -122.43206}, "transactions": ["pickup", "delivery"], "price": "$$", "location": {"address1": "2275 Market St", "address2": "", "address3": "", "city": "San Francisco", "zip_code": "94114", "country": "US", "state": "CA", "display_address": ["2275 Market St", "San Francisco, CA 94114"]}, "phone": "+14155522280", "display_phone": "(415) 552-2280", "distance": 564.1407845315962}, {"id": "fwHRSP6ixQyPqrpYhDz7NA", "alias": "take-eat-easy-berkeley", "name": "Take Eat Easy", "image_url": "https://s3-media2.fl.yelpcdn.com/bphoto/CUsWUSdcKOGhtm6aYJfXGQ/o.jpg", "is_closed": false, "url": "https://www.yelp.com/biz/take-eat-easy-berkeley?adjust_creative=Klanz-jboxl2XzqrjP6LLw&utm_campaign=yelp_api_v3&utm_medium=api_v3_business_search&utm_source=Klanz-jboxl2XzqrjP6LLw", "review_count": 34, "categories": [{"alias": "convenience", "title": "Convenience Stores"}, {"alias": "asianfusion", "title": "Asian Fusion"}, {"alias": "hkcafe", "title": "Hong Kong Style Cafe"}], "rating": 5.0, "coordinates": {"latitude": 37.86799, "longitude": -122.25984}, "transactions": [], "location": {"address1": "2433G Durant Ave", "address2": null, "address3": "", "city": "Berkeley", "zip_code": "94704", "country": "US", "state": "CA", "display_address": ["2433G Durant Ave", "Berkeley, CA 94704"]}, "phone": "", "display_phone": "", "distance": 19552.46001991956}, {"id": "k40kdV9SdZy6SLn9DwuJXg", "alias": "tasty-pot-berkeley-4", "name": "Tasty Pot", "image_url": "https://s3-media1.fl.yelpcdn.com/bphoto/s0vihFBBz2SIicc1Z5hM1Q/o.jpg", "is_closed": false, "url": "https://www.yelp.com/biz/tasty-pot-berkeley-4?adjust_creative=Klanz-jboxl2XzqrjP6LLw&utm_campaign=yelp_api_v3&utm_medium=api_v3_business_search&utm_source=Klanz-jboxl2XzqrjP6LLw", "review_count": 586, "categories": [{"alias": "taiwanese", "title": "Taiwanese"}, {"alias": "bubbletea", "title": "Bubble Tea"}, {"alias": "hotpot", "title": "Hot Pot"}], "rating": 4.0, "coordinates": {"latitude": 37.86885, "longitude": -122.26718}, "transactions": ["delivery", "pickup"], "price": "$$", "location": {"address1": "2115 Kittredge St", "address2": "", "address3": "", "city": "Berkeley", "zip_code": "94704", "country": "US", "state": "CA", "display_address": ["2115 Kittredge St", "Berkeley, CA 94704"]}, "phone": "+15108981202", "display_phone": "(510) 898-1202", "distance": 19117.324396931435}, {"id": "TcppFPJuXlWMVAZjo6I5ag", "alias": "long-life-vegi-house-berkeley", "name": "Long Life Vegi House", "image_url": "https://s3-media2.fl.yelpcdn.com/bphoto/0ta8dYxM6lCbunJz6bfxnQ/o.jpg", "is_closed": false, "url": "https://www.yelp.com/biz/long-life-vegi-house-berkeley?adjust_creative=Klanz-jboxl2XzqrjP6LLw&utm_campaign=yelp_api_v3&utm_medium=api_v3_business_search&utm_source=Klanz-jboxl2XzqrjP6LLw", "review_count": 468, "categories": [{"alias": "chinese", "title": "Chinese"}, {"alias": "seafood", "title": "Seafood"}], "rating": 4.0, "coordinates": {"latitude": 37.8712805, "longitude": -122.2767756}, "transactions": ["delivery"], "price": "$", "location": {"address1": "1725 University Ave", "address2": "", "address3": "", "city": "Berkeley", "zip_code": "94703", "country": "US", "state": "CA", "display_address": ["1725 University Ave", "Berkeley, CA 94703"]}, "phone": "+15108456072", "display_phone": "(510) 845-6072", "distance": 18637.89172324317}, {"id": "1K0FSXnvCDw6NP6vHGn9Fg", "alias": "saucy-oakland-oakland-3", "name": "Saucy Oakland", "image_url": "https://s3-media3.fl.yelpcdn.com/bphoto/ApigaJTn_8d9lPGmXF-EEw/o.jpg", "is_closed": false, "url": "https://www.yelp.com/biz/saucy-oakland-oakland-3?adjust_creative=Klanz-jboxl2XzqrjP6LLw&utm_campaign=yelp_api_v3&utm_medium=api_v3_business_search&utm_source=Klanz-jboxl2XzqrjP6LLw", "review_count": 79, "categories": [{"alias": "panasian", "title": "Pan Asian"}, {"alias": "asianfusion", "title": "Asian Fusion"}], "rating": 4.5, "coordinates": {"latitude": 37.8289036, "longitude": -122.2642035}, "transactions": ["delivery"], "price": "$$", "location": {"address1": "3932 Telegraph Ave", "address2": null, "address3": "", "city": "Oakland", "zip_code": "94609", "country": "US", "state": "CA", "display_address": ["3932 Telegraph Ave", "Oakland, CA 94609"]}, "phone": "+15108797806", "display_phone": "(510) 879-7806", "distance": 16918.465497512785}, {"id": "fhbTFyTpltzfzfDqFyCrvw", "alias": "wing-lee-bbq-san-francisco", "name": "Wing Lee BBQ", "image_url": "https://s3-media2.fl.yelpcdn.com/bphoto/grfHbERBhNhGMZgPsvICOQ/o.jpg", "is_closed": false, "url": "https://www.yelp.com/biz/wing-lee-bbq-san-francisco?adjust_creative=Klanz-jboxl2XzqrjP6LLw&utm_campaign=yelp_api_v3&utm_medium=api_v3_business_search&utm_source=Klanz-jboxl2XzqrjP6LLw", "review_count": 116, "categories": [{"alias": "chinese", "title": "Chinese"}, {"alias": "bbq", "title": "Barbeque"}], "rating": 3.5, "coordinates": {"latitude": 37.7828, "longitude": -122.46457}, "transactions": ["pickup", "delivery"], "price": "$", "location": {"address1": "501 Clement St", "address2": "", "address3": "", "city": "San Francisco", "zip_code": "94118", "country": "US", "state": "CA", "display_address": ["501 Clement St", "San Francisco, CA 94118"]}, "phone": "+14158317883", "display_phone": "(415) 831-7883", "distance": 3475.4129941006563}, {"id": "T2xibSmmNFNcLtKVV6ppkg", "alias": "ben-tre-vietnamese-homestyle-cuisine-millbrae", "name": "Ben Tre Vietnamese Homestyle Cuisine", "image_url": "https://s3-media4.fl.yelpcdn.com/bphoto/0l5kCwjO-2AqcP3_tli1DA/o.jpg", "is_closed": false, "url": "https://www.yelp.com/biz/ben-tre-vietnamese-homestyle-cuisine-millbrae?adjust_creative=Klanz-jboxl2XzqrjP6LLw&utm_campaign=yelp_api_v3&utm_medium=api_v3_business_search&utm_source=Klanz-jboxl2XzqrjP6LLw", "review_count": 920, "categories": [{"alias": "vietnamese", "title": "Vietnamese"}, {"alias": "soup", "title": "Soup"}, {"alias": "noodles", "title": "Noodles"}], "rating": 4.0, "coordinates": {"latitude": 37.6005308, "longitude": -122.39029158460174}, "transactions": ["delivery"], "price": "$$", "location": {"address1": "219 El Camino Real", "address2": "", "address3": "", "city": "Millbrae", "zip_code": "94030", "country": "US", "state": "CA", "display_address": ["219 El Camino Real", "Millbrae, CA 94030"]}, "phone": "+16506895588", "display_phone": "(650) 689-5588", "distance": 18288.905321802526}, {"id": "WpcWACqlAodx5dbe5GJWZA", "alias": "omakase-san-francisco", "name": "Omakase", "image_url": "https://s3-media2.fl.yelpcdn.com/bphoto/9cOe015pIwqkWzbqzQCa3w/o.jpg", "is_closed": false, "url": "https://www.yelp.com/biz/omakase-san-francisco?adjust_creative=Klanz-jboxl2XzqrjP6LLw&utm_campaign=yelp_api_v3&utm_medium=api_v3_business_search&utm_source=Klanz-jboxl2XzqrjP6LLw", "review_count": 548, "categories": [{"alias": "sushi", "title": "Sushi Bars"}, {"alias": "japanese", "title": "Japanese"}], "rating": 4.5, "coordinates": {"latitude": 37.7706719094861, "longitude": -122.402888577285}, "transactions": [], "price": "$$$$", "location": {"address1": "665 Townsend St", "address2": "", "address3": "", "city": "San Francisco", "zip_code": "94103", "country": "US", "state": "CA", "display_address": ["665 Townsend St", "San Francisco, CA 94103"]}, "phone": "+14158650633", "display_phone": "(415) 865-0633", "distance": 3143.6415932479918}, {"id": "7Q3QIZz5UX-JSTSKKkRqDg", "alias": "waterbar-san-francisco", "name": "Waterbar", "image_url": "https://s3-media3.fl.yelpcdn.com/bphoto/BIBqsJx21CiRGktoKt8WQA/o.jpg", "is_closed": false, "url": "https://www.yelp.com/biz/waterbar-san-francisco?adjust_creative=Klanz-jboxl2XzqrjP6LLw&utm_campaign=yelp_api_v3&utm_medium=api_v3_business_search&utm_source=Klanz-jboxl2XzqrjP6LLw", "review_count": 3364, "categories": [{"alias": "seafood", "title": "Seafood"}, {"alias": "newamerican", "title": "American (New)"}, {"alias": "raw_food", "title": "Live/Raw Food"}], "rating": 3.5, "coordinates": {"latitude": 37.7904941686413, "longitude": -122.389039464859}, "transactions": ["pickup", "delivery"], "price": "$$$", "location": {"address1": "399 The Embarcadero", "address2": "", "address3": "", "city": "San Francisco", "zip_code": "94105", "country": "US", "state": "CA", "display_address": ["399 The Embarcadero", "San Francisco, CA 94105"]}, "phone": "+14152849922", "display_phone": "(415) 284-9922", "distance": 5309.457960542874}, {"id": "2ocTtBOx-1TghQrBxFjORg", "alias": "kababayan-san-francisco", "name": "Kababayan", "image_url": "https://s3-media4.fl.yelpcdn.com/bphoto/CGw7_Jaytgy3_aOfpxoj8A/o.jpg", "is_closed": false, "url": "https://www.yelp.com/biz/kababayan-san-francisco?adjust_creative=Klanz-jboxl2XzqrjP6LLw&utm_campaign=yelp_api_v3&utm_medium=api_v3_business_search&utm_source=Klanz-jboxl2XzqrjP6LLw", "review_count": 78, "categories": [{"alias": "filipino", "title": "Filipino"}, {"alias": "bbq", "title": "Barbeque"}, {"alias": "hotdogs", "title": "Fast Food"}], "rating": 3.5, "coordinates": {"latitude": 37.7535801, "longitude": -122.4187513}, "transactions": ["delivery"], "price": "$", "location": {"address1": "2706 Mission St", "address2": "", "address3": "", "city": "San Francisco", "zip_code": "94110", "country": "US", "state": "CA", "display_address": ["2706 Mission St", "San Francisco, CA 94110"]}, "phone": "+14159209635", "display_phone": "(415) 920-9635", "distance": 1750.9248618697284}, {"id": "m6abLI3UD-As-Z5-J-HiyA", "alias": "gold-mirror-italian-restaurant-san-francisco", "name": "Gold Mirror Italian Restaurant", "image_url": "https://s3-media2.fl.yelpcdn.com/bphoto/stM5dWJLqH9WHBCKh1uuwg/o.jpg", "is_closed": false, "url": "https://www.yelp.com/biz/gold-mirror-italian-restaurant-san-francisco?adjust_creative=Klanz-jboxl2XzqrjP6LLw&utm_campaign=yelp_api_v3&utm_medium=api_v3_business_search&utm_source=Klanz-jboxl2XzqrjP6LLw", "review_count": 427, "categories": [{"alias": "italian", "title": "Italian"}, {"alias": "seafood", "title": "Seafood"}], "rating": 4.0, "coordinates": {"latitude": 37.7433, "longitude": -122.47482}, "transactions": ["pickup", "delivery"], "price": "$$", "location": {"address1": "800 Taraval St", "address2": "", "address3": "", "city": "San Francisco", "zip_code": "94116", "country": "US", "state": "CA", "display_address": ["800 Taraval St", "San Francisco, CA 94116"]}, "phone": "+14155640401", "display_phone": "(415) 564-0401", "distance": 3900.862378728416}, {"id": "T4-pajwzL87-jKIr2NIwew", "alias": "nande-ya-san-francisco-3", "name": "Nande-Ya", "image_url": "https://s3-media1.fl.yelpcdn.com/bphoto/fMBBVzZpj-II-g4LUKaRyA/o.jpg", "is_closed": false, "url": "https://www.yelp.com/biz/nande-ya-san-francisco-3?adjust_creative=Klanz-jboxl2XzqrjP6LLw&utm_campaign=yelp_api_v3&utm_medium=api_v3_business_search&utm_source=Klanz-jboxl2XzqrjP6LLw", "review_count": 326, "categories": [{"alias": "japanese", "title": "Japanese"}], "rating": 2.5, "coordinates": {"latitude": 37.785176, "longitude": -122.430585}, "transactions": ["pickup", "delivery"], "price": "$$", "location": {"address1": "1737 Post St", "address2": "", "address3": null, "city": "San Francisco", "zip_code": "94115", "country": "US", "state": "CA", "display_address": ["1737 Post St", "San Francisco, CA 94115"]}, "phone": "+16284443580", "display_phone": "(628) 444-3580", "distance": 2748.165355187678}, {"id": "bCrPqM3TTC8lGQCLYGIpLw", "alias": "kama-sushi-san-francisco-10", "name": "Kama Sushi", "image_url": "https://s3-media3.fl.yelpcdn.com/bphoto/RF1HSJFYA7YzMN3TXe4_Sg/o.jpg", "is_closed": false, "url": "https://www.yelp.com/biz/kama-sushi-san-francisco-10?adjust_creative=Klanz-jboxl2XzqrjP6LLw&utm_campaign=yelp_api_v3&utm_medium=api_v3_business_search&utm_source=Klanz-jboxl2XzqrjP6LLw", "review_count": 742, "categories": [{"alias": "japanese", "title": "Japanese"}, {"alias": "sushi", "title": "Sushi Bars"}], "rating": 4.0, "coordinates": {"latitude": 37.773787, "longitude": -122.411969}, "transactions": ["pickup"], "price": "$$", "location": {"address1": "294 9th St", "address2": null, "address3": "", "city": "San Francisco", "zip_code": "94103", "country": "US", "state": "CA", "display_address": ["294 9th St", "San Francisco, CA 94103"]}, "phone": "+14158008287", "display_phone": "(415) 800-8287", "distance": 2585.922987995937}, {"id": "SxHKYiRVnMd9BnTEaEB-FA", "alias": "chic-n-time-san-francisco", "name": "Chic n' Time", "image_url": "https://s3-media3.fl.yelpcdn.com/bphoto/2P3DQdjopiKsF21zE6LlyA/o.jpg", "is_closed": false, "url": "https://www.yelp.com/biz/chic-n-time-san-francisco?adjust_creative=Klanz-jboxl2XzqrjP6LLw&utm_campaign=yelp_api_v3&utm_medium=api_v3_business_search&utm_source=Klanz-jboxl2XzqrjP6LLw", "review_count": 119, "categories": [{"alias": "noodles", "title": "Noodles"}, {"alias": "asianfusion", "title": "Asian Fusion"}, {"alias": "vietnamese", "title": "Vietnamese"}], "rating": 5.0, "coordinates": {"latitude": 37.759907, "longitude": -122.421268}, "transactions": ["pickup", "delivery"], "location": {"address1": "807 Valencia St", "address2": null, "address3": "", "city": "San Francisco", "zip_code": "94110", "country": "US", "state": "CA", "display_address": ["807 Valencia St", "San Francisco, CA 94110"]}, "phone": "+14158749757", "display_phone": "(415) 874-9757", "distance": 1339.3019844458966}, {"id": "tItbJqvg7zPg2zH1QKq6TQ", "alias": "noobowl-san-francisco", "name": "NooBowl", "image_url": "https://s3-media1.fl.yelpcdn.com/bphoto/5NHFO7rGRGs4CU9Fp4wOrA/o.jpg", "is_closed": false, "url": "https://www.yelp.com/biz/noobowl-san-francisco?adjust_creative=Klanz-jboxl2XzqrjP6LLw&utm_campaign=yelp_api_v3&utm_medium=api_v3_business_search&utm_source=Klanz-jboxl2XzqrjP6LLw", "review_count": 39, "categories": [{"alias": "noodles", "title": "Noodles"}], "rating": 3.5, "coordinates": {"latitude": 37.78435877647271, "longitude": -122.40583101632555}, "transactions": ["pickup", "delivery"], "location": {"address1": "865 Market St", "address2": null, "address3": null, "city": "San Francisco", "zip_code": "94103", "country": "US", "state": "CA", "display_address": ["865 Market St", "San Francisco, CA 94103"]}, "phone": "", "display_phone": "", "distance": 3747.783643489277}, {"id": "6h7YCp2KLfbu3tbRmNSb-g", "alias": "cioppinos-san-francisco", "name": "Cioppino's", "image_url": "https://s3-media4.fl.yelpcdn.com/bphoto/CP9ZdnbhhXPQ2_6bS2V3OA/o.jpg", "is_closed": false, "url": "https://www.yelp.com/biz/cioppinos-san-francisco?adjust_creative=Klanz-jboxl2XzqrjP6LLw&utm_campaign=yelp_api_v3&utm_medium=api_v3_business_search&utm_source=Klanz-jboxl2XzqrjP6LLw", "review_count": 1748, "categories": [{"alias": "italian", "title": "Italian"}, {"alias": "seafood", "title": "Seafood"}, {"alias": "bars", "title": "Bars"}], "rating": 3.5, "coordinates": {"latitude": 37.8079387690789, "longitude": -122.41927103988}, "transactions": ["pickup", "delivery"], "price": "$$", "location": {"address1": "400 Jefferson St", "address2": "", "address3": "", "city": "San Francisco", "zip_code": "94109", "country": "US", "state": "CA", "display_address": ["400 Jefferson St", "San Francisco, CA 94109"]}, "phone": "+14157759311", "display_phone": "(415) 775-9311", "distance": 5443.97562040117}, {"id": "hjm9vP4L5xTvqUNoZpQ0eA", "alias": "sunshine-wheat-field-dim-sum-san-francisco", "name": "Sunshine Wheat Field Dim Sum", "image_url": "https://s3-media1.fl.yelpcdn.com/bphoto/VmECALpxMW2kBt54xuW8vw/o.jpg", "is_closed": false, "url": "https://www.yelp.com/biz/sunshine-wheat-field-dim-sum-san-francisco?adjust_creative=Klanz-jboxl2XzqrjP6LLw&utm_campaign=yelp_api_v3&utm_medium=api_v3_business_search&utm_source=Klanz-jboxl2XzqrjP6LLw", "review_count": 25, "categories": [{"alias": "dimsum", "title": "Dim Sum"}, {"alias": "bakeries", "title": "Bakeries"}], "rating": 4.0, "coordinates": {"latitude": 37.72787, "longitude": -122.40399}, "transactions": [], "price": "$", "location": {"address1": "2668 San Bruno Ave", "address2": "", "address3": null, "city": "San Francisco", "zip_code": "94134", "country": "US", "state": "CA", "display_address": ["2668 San Bruno Ave", "San Francisco, CA 94134"]}, "phone": "+14153309788", "display_phone": "(415) 330-9788", "distance": 4648.736424022494}, {"id": "TJKx-p5TmGjKE1d9z7kqEg", "alias": "sushi-toni-san-francisco", "name": "Sushi Toni", "image_url": "https://s3-media1.fl.yelpcdn.com/bphoto/H4bHm6SGsL4xdFU-2jGqeg/o.jpg", "is_closed": false, "url": "https://www.yelp.com/biz/sushi-toni-san-francisco?adjust_creative=Klanz-jboxl2XzqrjP6LLw&utm_campaign=yelp_api_v3&utm_medium=api_v3_business_search&utm_source=Klanz-jboxl2XzqrjP6LLw", "review_count": 651, "categories": [{"alias": "sushi", "title": "Sushi Bars"}, {"alias": "japanese", "title": "Japanese"}], "rating": 4.0, "coordinates": {"latitude": 37.7899648, "longitude": -122.4092686}, "transactions": ["pickup", "delivery"], "price": "$$", "location": {"address1": "733 Bush St", "address2": "", "address3": "", "city": "San Francisco", "zip_code": "94108", "country": "US", "state": "CA", "display_address": ["733 Bush St", "San Francisco, CA 94108"]}, "phone": "+14159868664", "display_phone": "(415) 986-8664", "distance": 3992.46880830092}, {"id": "Gzu4KCCoSf0Jqox5km6fyA", "alias": "little-paris-san-francisco-3", "name": "Little Paris", "image_url": "https://s3-media3.fl.yelpcdn.com/bphoto/f--XGXwUpv7dAvf1on4BYg/o.jpg", "is_closed": false, "url": "https://www.yelp.com/biz/little-paris-san-francisco-3?adjust_creative=Klanz-jboxl2XzqrjP6LLw&utm_campaign=yelp_api_v3&utm_medium=api_v3_business_search&utm_source=Klanz-jboxl2XzqrjP6LLw", "review_count": 113, "categories": [{"alias": "vietnamese", "title": "Vietnamese"}, {"alias": "sandwiches", "title": "Sandwiches"}, {"alias": "noodles", "title": "Noodles"}], "rating": 3.0, "coordinates": {"latitude": 37.7962, "longitude": -122.40861}, "transactions": ["pickup", "delivery"], "price": "$", "location": {"address1": "1131 Stockton St", "address2": "", "address3": "", "city": "San Francisco", "zip_code": "94133", "country": "US", "state": "CA", "display_address": ["1131 Stockton St", "San Francisco, CA 94133"]}, "phone": "+14159826111", "display_phone": "(415) 982-6111", "distance": 4633.952055033472}, {"id": "2NQR-4KA_b7jyu41qPY2nQ", "alias": "j-m-t-just-my-toast-san-bruno-3", "name": "J M T Just My Toast", "image_url": "https://s3-media1.fl.yelpcdn.com/bphoto/xJeuNonbpXUtVtHfYevaAg/o.jpg", "is_closed": false, "url": "https://www.yelp.com/biz/j-m-t-just-my-toast-san-bruno-3?adjust_creative=Klanz-jboxl2XzqrjP6LLw&utm_campaign=yelp_api_v3&utm_medium=api_v3_business_search&utm_source=Klanz-jboxl2XzqrjP6LLw", "review_count": 39, "categories": [{"alias": "korean", "title": "Korean"}, {"alias": "asianfusion", "title": "Asian Fusion"}, {"alias": "sandwiches", "title": "Sandwiches"}], "rating": 4.5, "coordinates": {"latitude": 37.63879749270881, "longitude": -122.4209411827728}, "transactions": [], "location": {"address1": "1212 El Camino Real", "address2": "Ste F", "address3": "", "city": "San Bruno", "zip_code": "94066", "country": "US", "state": "CA", "display_address": ["1212 El Camino Real", "Ste F", "San Bruno, CA 94066"]}, "phone": "+16506364030", "display_phone": "(650) 636-4030", "distance": 13645.46194658652}, {"id": "KLUiOz5L75XeDf_Kaltjxw", "alias": "zabb-thai-cuisine-san-francisco", "name": "Zabb Thai Cuisine", "image_url": "https://s3-media1.fl.yelpcdn.com/bphoto/3Vh09NwXTFdwNmJcbn0cgg/o.jpg", "is_closed": false, "url": "https://www.yelp.com/biz/zabb-thai-cuisine-san-francisco?adjust_creative=Klanz-jboxl2XzqrjP6LLw&utm_campaign=yelp_api_v3&utm_medium=api_v3_business_search&utm_source=Klanz-jboxl2XzqrjP6LLw", "review_count": 334, "categories": [{"alias": "thai", "title": "Thai"}], "rating": 4.0, "coordinates": {"latitude": 37.7265692, "longitude": -122.4335853}, "transactions": ["pickup", "delivery"], "price": "$$", "location": {"address1": "4440 Mission St", "address2": "", "address3": "", "city": "San Francisco", "zip_code": "94112", "country": "US", "state": "CA", "display_address": ["4440 Mission St", "San Francisco, CA 94112"]}, "phone": "+14155862455", "display_phone": "(415) 586-2455", "distance": 3825.623547105683}, {"id": "TmXkYM0N-FjrMasxj5uXsA", "alias": "sushi-bistro-san-francisco", "name": "Sushi Bistro", "image_url": "https://s3-media2.fl.yelpcdn.com/bphoto/Uo9YbTWfVTVlwJIoGwk1yA/o.jpg", "is_closed": false, "url": "https://www.yelp.com/biz/sushi-bistro-san-francisco?adjust_creative=Klanz-jboxl2XzqrjP6LLw&utm_campaign=yelp_api_v3&utm_medium=api_v3_business_search&utm_source=Klanz-jboxl2XzqrjP6LLw", "review_count": 1531, "categories": [{"alias": "sushi", "title": "Sushi Bars"}, {"alias": "japanese", "title": "Japanese"}], "rating": 4.0, "coordinates": {"latitude": 37.7774247, "longitude": -122.4638799}, "transactions": ["delivery", "pickup"], "price": "$$", "location": {"address1": "452 Balboa St", "address2": "", "address3": "", "city": "San Francisco", "zip_code": "94118", "country": "US", "state": "CA", "display_address": ["452 Balboa St", "San Francisco, CA 94118"]}, "phone": "+14159337100", "display_phone": "(415) 933-7100", "distance": 3031.6294865000023}, {"id": "2H4HtGBwT8KRfUuWmE3uAg", "alias": "bota-tapas-and-paella-bar-san-francisco-3", "name": "Bota Tapas & Paella Bar", "image_url": "https://s3-media2.fl.yelpcdn.com/bphoto/JCewCTpRiuKVusB_-OQN5g/o.jpg", "is_closed": false, "url": "https://www.yelp.com/biz/bota-tapas-and-paella-bar-san-francisco-3?adjust_creative=Klanz-jboxl2XzqrjP6LLw&utm_campaign=yelp_api_v3&utm_medium=api_v3_business_search&utm_source=Klanz-jboxl2XzqrjP6LLw", "review_count": 320, "categories": [{"alias": "spanish", "title": "Spanish"}, {"alias": "seafood", "title": "Seafood"}, {"alias": "tapasmallplates", "title": "Tapas/Small Plates"}], "rating": 3.5, "coordinates": {"latitude": 37.786985807903, "longitude": -122.411396958251}, "transactions": ["pickup", "restaurant_reservation", "delivery"], "price": "$$$", "location": {"address1": "490 Geary St", "address2": null, "address3": null, "city": "San Francisco", "zip_code": "94102", "country": "US", "state": "CA", "display_address": ["490 Geary St", "San Francisco, CA 94102"]}, "phone": "+14153452303", "display_phone": "(415) 345-2303", "distance": 3641.627916754043}, {"id": "tHJQH4je6TrwJxotjHtP_g", "alias": "cafe-dolci-san-francisco", "name": "Cafe Dolci", "image_url": "https://s3-media3.fl.yelpcdn.com/bphoto/1kFipQ6Mu6IB0CpYKzD_NQ/o.jpg", "is_closed": false, "url": "https://www.yelp.com/biz/cafe-dolci-san-francisco?adjust_creative=Klanz-jboxl2XzqrjP6LLw&utm_campaign=yelp_api_v3&utm_medium=api_v3_business_search&utm_source=Klanz-jboxl2XzqrjP6LLw", "review_count": 437, "categories": [{"alias": "coffee", "title": "Coffee & Tea"}, {"alias": "vietnamese", "title": "Vietnamese"}, {"alias": "sandwiches", "title": "Sandwiches"}], "rating": 4.0, "coordinates": {"latitude": 37.7874, "longitude": -122.40434}, "transactions": ["pickup", "delivery"], "price": "$", "location": {"address1": "740 Market St", "address2": "", "address3": "", "city": "San Francisco", "zip_code": "94102", "country": "US", "state": "CA", "display_address": ["740 Market St", "San Francisco, CA 94102"]}, "phone": "+14157570192", "display_phone": "(415) 757-0192", "distance": 4051.66577241215}, {"id": "T2rwEQ48yjxLlXJ6uzdmzQ", "alias": "basil-canteen-san-francisco", "name": "Basil Canteen", "image_url": "https://s3-media1.fl.yelpcdn.com/bphoto/3phG21SDbmJhpFoT85BWiA/o.jpg", "is_closed": false, "url": "https://www.yelp.com/biz/basil-canteen-san-francisco?adjust_creative=Klanz-jboxl2XzqrjP6LLw&utm_campaign=yelp_api_v3&utm_medium=api_v3_business_search&utm_source=Klanz-jboxl2XzqrjP6LLw", "review_count": 565, "categories": [{"alias": "thai", "title": "Thai"}, {"alias": "cocktailbars", "title": "Cocktail Bars"}], "rating": 4.0, "coordinates": {"latitude": 37.7718850801186, "longitude": -122.413755655289}, "transactions": ["pickup", "delivery"], "price": "$$", "location": {"address1": "1489 Folsom St", "address2": "", "address3": "", "city": "San Francisco", "zip_code": "94103", "country": "US", "state": "CA", "display_address": ["1489 Folsom St", "San Francisco, CA 94103"]}, "phone": "+14155523963", "display_phone": "(415) 552-3963", "distance": 2338.940766382835}, {"id": "NQVqMCoY-Krhw8DY4UnJKw", "alias": "ohgane-korean-bbq-oakland-3", "name": "Ohgane Korean BBQ", "image_url": "https://s3-media4.fl.yelpcdn.com/bphoto/SThvsH-vqyk76dpyhyEnRA/o.jpg", "is_closed": false, "url": "https://www.yelp.com/biz/ohgane-korean-bbq-oakland-3?adjust_creative=Klanz-jboxl2XzqrjP6LLw&utm_campaign=yelp_api_v3&utm_medium=api_v3_business_search&utm_source=Klanz-jboxl2XzqrjP6LLw", "review_count": 2259, "categories": [{"alias": "korean", "title": "Korean"}, {"alias": "bbq", "title": "Barbeque"}], "rating": 4.0, "coordinates": {"latitude": 37.82721, "longitude": -122.25735}, "transactions": ["pickup"], "price": "$$$", "location": {"address1": "3915 Broadway", "address2": null, "address3": "", "city": "Oakland", "zip_code": "94611", "country": "US", "state": "CA", "display_address": ["3915 Broadway", "Oakland, CA 94611"]}, "phone": "+15105948300", "display_phone": "(510) 594-8300", "distance": 17392.230784078733}], "total": 1800, "region": {"center": {"longitude": -122.43644714355469, "latitude": 37.76089938976322}}}