{"businesses": [{"id": "opPy9-KUPDv4R0cfe8UzjQ", "alias": "v-and-j-cafe-san-francisco", "name": "V & J Cafe", "image_url": "https://s3-media4.fl.yelpcdn.com/bphoto/e3ZrczheolmHQYiUayr-Yg/o.jpg", "is_closed": false, "url": "https://www.yelp.com/biz/v-and-j-cafe-san-francisco?adjust_creative=Klanz-jboxl2XzqrjP6LLw&utm_campaign=yelp_api_v3&utm_medium=api_v3_business_search&utm_source=Klanz-jboxl2XzqrjP6LLw", "review_count": 26, "categories": [{"alias": "chinese", "title": "Chinese"}], "rating": 4.0, "coordinates": {"latitude": 37.7978688395019, "longitude": -122.408076666667}, "transactions": [], "price": "$", "location": {"address1": "670 Broadway", "address2": "", "address3": null, "city": "San Francisco", "zip_code": "94133", "country": "US", "state": "CA", "display_address": ["670 Broadway", "San Francisco, CA 94133"]}, "phone": "+14157882822", "display_phone": "(415) 788-2822", "distance": 4807.86820679952}, {"id": "VjXSJdgy7wnlbMqwRWEgqQ", "alias": "golden-crab-house-san-francisco", "name": "Golden Crab House", "image_url": "https://s3-media2.fl.yelpcdn.com/bphoto/bltDgNEtNuADn54hDXV1uA/o.jpg", "is_closed": false, "url": "https://www.yelp.com/biz/golden-crab-house-san-francisco?adjust_creative=Klanz-jboxl2XzqrjP6LLw&utm_campaign=yelp_api_v3&utm_medium=api_v3_business_search&utm_source=Klanz-jboxl2XzqrjP6LLw", "review_count": 292, "categories": [{"alias": "seafood", "title": "Seafood"}, {"alias": "vietnamese", "title": "Vietnamese"}, {"alias": "asianfusion", "title": "Asian Fusion"}], "rating": 4.5, "coordinates": {"latitude": 37.76368, "longitude": -122.47777}, "transactions": ["delivery", "pickup"], "price": "$$$", "location": {"address1": "1830 Irving St", "address2": "", "address3": null, "city": "San Francisco", "zip_code": "94122", "country": "US", "state": "CA", "display_address": ["1830 Irving St", "San Francisco, CA 94122"]}, "phone": "+14157026685", "display_phone": "(415) 702-6685", "distance": 3648.3712766969606}, {"id": "5PGFsnFhDlpYVDI3TRNH6w", "alias": "dancing-yak-san-francisco-10", "name": "Dancing Yak", "image_url": "https://s3-media2.fl.yelpcdn.com/bphoto/CWzzRrjJlGqCV8DJ63k4RA/o.jpg", "is_closed": false, "url": "https://www.yelp.com/biz/dancing-yak-san-francisco-10?adjust_creative=Klanz-jboxl2XzqrjP6LLw&utm_campaign=yelp_api_v3&utm_medium=api_v3_business_search&utm_source=Klanz-jboxl2XzqrjP6LLw", "review_count": 566, "categories": [{"alias": "himalayan", "title": "Himalayan/Nepalese"}, {"alias": "gluten_free", "title": "Gluten-Free"}, {"alias": "cocktailbars", "title": "Cocktail Bars"}], "rating": 4.5, "coordinates": {"latitude": 37.76852, "longitude": -122.42259}, "transactions": ["delivery", "pickup", "restaurant_reservation"], "price": "$$", "location": {"address1": "280 Valencia St", "address2": null, "address3": "", "city": "San Francisco", "zip_code": "94103", "country": "US", "state": "CA", "display_address": ["280 Valencia St", "San Francisco, CA 94103"]}, "phone": "+14155254857", "display_phone": "(415) 525-4857", "distance": 1492.081636574703}, {"id": "CqhD3Ou25ygJPvweqFaZSw", "alias": "emperor-palace-restaurant-san-francisco", "name": "Emperor Palace Restaurant", "image_url": "https://s3-media4.fl.yelpcdn.com/bphoto/aIJ1c8phmyxVJFuAM_JQEg/o.jpg", "is_closed": false, "url": "https://www.yelp.com/biz/emperor-palace-restaurant-san-francisco?adjust_creative=Klanz-jboxl2XzqrjP6LLw&utm_campaign=yelp_api_v3&utm_medium=api_v3_business_search&utm_source=Klanz-jboxl2XzqrjP6LLw", "review_count": 171, "categories": [{"alias": "chinese", "title": "Chinese"}], "rating": 3.5, "coordinates": {"latitude": 37.7774506, "longitude": -122.4645615}, "transactions": ["delivery", "pickup"], "price": "$", "location": {"address1": "530 Balboa St", "address2": "", "address3": "", "city": "San Francisco", "zip_code": "94118", "country": "US", "state": "CA", "display_address": ["530 Balboa St", "San Francisco, CA 94118"]}, "phone": "+14157500170", "display_phone": "(415) 750-0170", "distance": 3074.998182922609}, {"id": "WAAi3fvJG1v_hVP2SzkjLA", "alias": "tommys-wok-sausalito", "name": "Tommy's Wok", "image_url": "https://s3-media4.fl.yelpcdn.com/bphoto/ZDgaSzr3haOf06uj3M3-Ig/o.jpg", "is_closed": false, "url": "https://www.yelp.com/biz/tommys-wok-sausalito?adjust_creative=Klanz-jboxl2XzqrjP6LLw&utm_campaign=yelp_api_v3&utm_medium=api_v3_business_search&utm_source=Klanz-jboxl2XzqrjP6LLw", "review_count": 323, "categories": [{"alias": "chinese", "title": "Chinese"}, {"alias": "seafood", "title": "Seafood"}], "rating": 4.0, "coordinates": {"latitude": 37.86956, "longitude": -122.50374}, "transactions": ["delivery"], "price": "$$", "location": {"address1": "3001 Bridgeway", "address2": "Ste H", "address3": "", "city": "Sausalito", "zip_code": "94965", "country": "US", "state": "CA", "display_address": ["3001 Bridgeway", "Ste H", "Sausalito, CA 94965"]}, "phone": "+14153325818", "display_phone": "(415) 332-5818", "distance": 13457.847139094665}, {"id": "mydKjdG8gJOcRQ9cZwkQpQ", "alias": "ryokos-san-francisco", "name": "Ryoko's", "image_url": "https://s3-media3.fl.yelpcdn.com/bphoto/w3i_dVIjGTyIeiYXUzumkA/o.jpg", "is_closed": false, "url": "https://www.yelp.com/biz/ryokos-san-francisco?adjust_creative=Klanz-jboxl2XzqrjP6LLw&utm_campaign=yelp_api_v3&utm_medium=api_v3_business_search&utm_source=Klanz-jboxl2XzqrjP6LLw", "review_count": 3129, "categories": [{"alias": "sushi", "title": "Sushi Bars"}, {"alias": "japanese", "title": "Japanese"}, {"alias": "bars", "title": "Bars"}], "rating": 4.0, "coordinates": {"latitude": 37.7881987776243, "longitude": -122.412059158087}, "transactions": ["delivery"], "price": "$$", "location": {"address1": "619 Taylor St", "address2": "", "address3": "", "city": "San Francisco", "zip_code": "94102", "country": "US", "state": "CA", "display_address": ["619 Taylor St", "San Francisco, CA 94102"]}, "phone": "+14157751028", "display_phone": "(415) 775-1028", "distance": 3716.0638867510324}, {"id": "LPoRD0huneBqPZbg1wsJ_Q", "alias": "jamies-place-san-francisco", "name": "Jamie's place", "image_url": "https://s3-media4.fl.yelpcdn.com/bphoto/e1hW7o3uFofP_MrWlMRL6w/o.jpg", "is_closed": false, "url": "https://www.yelp.com/biz/jamies-place-san-francisco?adjust_creative=Klanz-jboxl2XzqrjP6LLw&utm_campaign=yelp_api_v3&utm_medium=api_v3_business_search&utm_source=Klanz-jboxl2XzqrjP6LLw", "review_count": 163, "categories": [{"alias": "asianfusion", "title": "Asian Fusion"}, {"alias": "thai", "title": "Thai"}, {"alias": "newamerican", "title": "American (New)"}], "rating": 4.5, "coordinates": {"latitude": 37.762616, "longitude": -122.465979}, "transactions": ["delivery", "pickup"], "price": "$$", "location": {"address1": "1380 9th Ave", "address2": null, "address3": "", "city": "San Francisco", "zip_code": "94122", "country": "US", "state": "CA", "display_address": ["1380 9th Ave", "San Francisco, CA 94122"]}, "phone": "+14158031888", "display_phone": "(415) 803-1888", "distance": 2612.178424720017}, {"id": "agq8VUqVQ_Y3dZh6-IjeIg", "alias": "mama-jis-san-francisco-2", "name": "MaMa Ji's", "image_url": "https://s3-media1.fl.yelpcdn.com/bphoto/kDhJQyMafZzflpn1tBEm_A/o.jpg", "is_closed": false, "url": "https://www.yelp.com/biz/mama-jis-san-francisco-2?adjust_creative=Klanz-jboxl2XzqrjP6LLw&utm_campaign=yelp_api_v3&utm_medium=api_v3_business_search&utm_source=Klanz-jboxl2XzqrjP6LLw", "review_count": 813, "categories": [{"alias": "dimsum", "title": "Dim Sum"}, {"alias": "szechuan", "title": "Szechuan"}], "rating": 4.0, "coordinates": {"latitude": 37.7607584141734, "longitude": -122.438729188523}, "transactions": ["delivery"], "price": "$$", "location": {"address1": "4416 18th St", "address2": "", "address3": "", "city": "San Francisco", "zip_code": "94114", "country": "US", "state": "CA", "display_address": ["4416 18th St", "San Francisco, CA 94114"]}, "phone": "+14156264416", "display_phone": "(415) 626-4416", "distance": 201.22085823719556}, {"id": "3oiMUFH3mqaCqCLJuknILQ", "alias": "ipot-san-francisco", "name": "IPOT", "image_url": "https://s3-media1.fl.yelpcdn.com/bphoto/Dp-EBpPxmtBJt6W51fkRYw/o.jpg", "is_closed": false, "url": "https://www.yelp.com/biz/ipot-san-francisco?adjust_creative=Klanz-jboxl2XzqrjP6LLw&utm_campaign=yelp_api_v3&utm_medium=api_v3_business_search&utm_source=Klanz-jboxl2XzqrjP6LLw", "review_count": 1110, "categories": [{"alias": "chinese", "title": "Chinese"}, {"alias": "hotpot", "title": "Hot Pot"}, {"alias": "asianfusion", "title": "Asian Fusion"}], "rating": 4.0, "coordinates": {"latitude": 37.7639770507812, "longitude": -122.473213195801}, "transactions": ["delivery", "pickup"], "price": "$$$", "location": {"address1": "1420 Irving St", "address2": "", "address3": "", "city": "San Francisco", "zip_code": "94122", "country": "US", "state": "CA", "display_address": ["1420 Irving St", "San Francisco, CA 94122"]}, "phone": "+14153403225", "display_phone": "(415) 340-3225", "distance": 3249.916775954012}, {"id": "2E9O-p-lp587aOMnpLepkQ", "alias": "jijime-san-francisco-8", "name": "JIJIME", "image_url": "https://s3-media2.fl.yelpcdn.com/bphoto/KjLJyW5REgYcnF88nH21IQ/o.jpg", "is_closed": false, "url": "https://www.yelp.com/biz/jijime-san-francisco-8?adjust_creative=Klanz-jboxl2XzqrjP6LLw&utm_campaign=yelp_api_v3&utm_medium=api_v3_business_search&utm_source=Klanz-jboxl2XzqrjP6LLw", "review_count": 416, "categories": [{"alias": "korean", "title": "Korean"}, {"alias": "asianfusion", "title": "Asian Fusion"}, {"alias": "ramen", "title": "Ramen"}], "rating": 4.5, "coordinates": {"latitude": 37.7806549278456, "longitude": -122.478949574806}, "transactions": ["delivery", "pickup"], "price": "$$", "location": {"address1": "5524 Geary Blvd", "address2": "", "address3": null, "city": "San Francisco", "zip_code": "94121", "country": "US", "state": "CA", "display_address": ["5524 Geary Blvd", "San Francisco, CA 94121"]}, "phone": "+14152215353", "display_phone": "(415) 221-5353", "distance": 4333.781775165417}, {"id": "7fboySu1um-S18UGOBdWhg", "alias": "yan-yan-seafood-restaurant-san-francisco", "name": "Yan Yan Seafood Restaurant", "image_url": "https://s3-media4.fl.yelpcdn.com/bphoto/Z8PpdrHB6C_kCIMqy6qncw/o.jpg", "is_closed": false, "url": "https://www.yelp.com/biz/yan-yan-seafood-restaurant-san-francisco?adjust_creative=Klanz-jboxl2XzqrjP6LLw&utm_campaign=yelp_api_v3&utm_medium=api_v3_business_search&utm_source=Klanz-jboxl2XzqrjP6LLw", "review_count": 277, "categories": [{"alias": "seafood", "title": "Seafood"}, {"alias": "cantonese", "title": "Cantonese"}], "rating": 3.5, "coordinates": {"latitude": 37.76104, "longitude": -122.48625}, "transactions": ["delivery"], "price": "$$", "location": {"address1": "2241 Judah St", "address2": "", "address3": "", "city": "San Francisco", "zip_code": "94122", "country": "US", "state": "CA", "display_address": ["2241 Judah St", "San Francisco, CA 94122"]}, "phone": "+14156615122", "display_phone": "(415) 661-5122", "distance": 4380.274945188761}, {"id": "v8yKr4d-QiuyrMbpPFLJJA", "alias": "d-and-a-cafe-san-francisco-6", "name": "D & A Cafe", "image_url": "https://s3-media1.fl.yelpcdn.com/bphoto/Q6JEX5JXNVSiEoivoTJibw/o.jpg", "is_closed": false, "url": "https://www.yelp.com/biz/d-and-a-cafe-san-francisco-6?adjust_creative=Klanz-jboxl2XzqrjP6LLw&utm_campaign=yelp_api_v3&utm_medium=api_v3_business_search&utm_source=Klanz-jboxl2XzqrjP6LLw", "review_count": 663, "categories": [{"alias": "cantonese", "title": "Cantonese"}, {"alias": "seafood", "title": "Seafood"}, {"alias": "hkcafe", "title": "Hong Kong Style Cafe"}], "rating": 3.0, "coordinates": {"latitude": 37.78273, "longitude": -122.46361}, "transactions": ["delivery", "pickup"], "price": "$", "location": {"address1": "407 Clement St", "address2": "", "address3": "", "city": "San Francisco", "zip_code": "94118", "country": "US", "state": "CA", "display_address": ["407 Clement St", "San Francisco, CA 94118"]}, "phone": "+14156687883", "display_phone": "(415) 668-7883", "distance": 3409.125544275679}, {"id": "15WWZVhyETkK-eVRuto1nQ", "alias": "guilin-rice-noodles-house-san-francisco", "name": "Guilin Rice Noodles House", "image_url": "https://s3-media1.fl.yelpcdn.com/bphoto/TgUMdd4MeL7H1iMu4lDNRg/o.jpg", "is_closed": false, "url": "https://www.yelp.com/biz/guilin-rice-noodles-house-san-francisco?adjust_creative=Klanz-jboxl2XzqrjP6LLw&utm_campaign=yelp_api_v3&utm_medium=api_v3_business_search&utm_source=Klanz-jboxl2XzqrjP6LLw", "review_count": 86, "categories": [{"alias": "noodles", "title": "Noodles"}], "rating": 4.0, "coordinates": {"latitude": 37.7429, "longitude": -122.47586}, "transactions": ["delivery", "pickup"], "price": "$$", "location": {"address1": "901 Taraval St", "address2": "", "address3": null, "city": "San Francisco", "zip_code": "94116", "country": "US", "state": "CA", "display_address": ["901 Taraval St", "San Francisco, CA 94116"]}, "phone": "+14156812988", "display_phone": "(415) 681-2988", "distance": 4000.28442677684}, {"id": "VxIUv34ZFxKQYRsyFzWPKg", "alias": "the-claypot-house-san-francisco", "name": "The Claypot House", "image_url": "https://s3-media3.fl.yelpcdn.com/bphoto/ZI0hXttVsZhDnlVq5KqgWA/o.jpg", "is_closed": false, "url": "https://www.yelp.com/biz/the-claypot-house-san-francisco?adjust_creative=Klanz-jboxl2XzqrjP6LLw&utm_campaign=yelp_api_v3&utm_medium=api_v3_business_search&utm_source=Klanz-jboxl2XzqrjP6LLw", "review_count": 192, "categories": [{"alias": "chinese", "title": "Chinese"}], "rating": 3.5, "coordinates": {"latitude": 37.7829112480877, "longitude": -122.46999990195}, "transactions": ["delivery", "pickup"], "price": "$$", "location": {"address1": "1000 Clement St", "address2": "", "address3": "", "city": "San Francisco", "zip_code": "94118", "country": "US", "state": "CA", "display_address": ["1000 Clement St", "San Francisco, CA 94118"]}, "phone": "+14156680838", "display_phone": "(415) 668-0838", "distance": 3832.4903003025706}, {"id": "-sg6DqQNGyTMt0MHoY7diQ", "alias": "good-mong-kok-bakery-san-francisco", "name": "Good Mong Kok Bakery", "image_url": "https://s3-media2.fl.yelpcdn.com/bphoto/ObfuErpCCWp527_gnTPRtA/o.jpg", "is_closed": false, "url": "https://www.yelp.com/biz/good-mong-kok-bakery-san-francisco?adjust_creative=Klanz-jboxl2XzqrjP6LLw&utm_campaign=yelp_api_v3&utm_medium=api_v3_business_search&utm_source=Klanz-jboxl2XzqrjP6LLw", "review_count": 3017, "categories": [{"alias": "bakeries", "title": "Bakeries"}, {"alias": "dimsum", "title": "Dim Sum"}, {"alias": "cantonese", "title": "Cantonese"}], "rating": 4.0, "coordinates": {"latitude": 37.7954584839809, "longitude": -122.408358365012}, "transactions": ["delivery"], "price": "$", "location": {"address1": "1039 Stockton St", "address2": "", "address3": "", "city": "San Francisco", "zip_code": "94108", "country": "US", "state": "CA", "display_address": ["1039 Stockton St", "San Francisco, CA 94108"]}, "phone": "+14153972688", "display_phone": "(415) 397-2688", "distance": 4567.4100400050365}, {"id": "i09UMzccKgyLwGYKDVP28w", "alias": "surisan-san-francisco", "name": "Surisan", "image_url": "https://s3-media4.fl.yelpcdn.com/bphoto/SB2ztrLjf7mrf7xe3l8ikg/o.jpg", "is_closed": false, "url": "https://www.yelp.com/biz/surisan-san-francisco?adjust_creative=Klanz-jboxl2XzqrjP6LLw&utm_campaign=yelp_api_v3&utm_medium=api_v3_business_search&utm_source=Klanz-jboxl2XzqrjP6LLw", "review_count": 2479, "categories": [{"alias": "korean", "title": "Korean"}, {"alias": "newamerican", "title": "American (New)"}, {"alias": "breakfast_brunch", "title": "Breakfast & Brunch"}], "rating": 4.5, "coordinates": {"latitude": 37.80678, "longitude": -122.41756}, "transactions": ["delivery", "pickup", "restaurant_reservation"], "price": "$$", "location": {"address1": "505 Beach St", "address2": "", "address3": null, "city": "San Francisco", "zip_code": "94133", "country": "US", "state": "CA", "display_address": ["505 Beach St", "San Francisco, CA 94133"]}, "phone": "+14157718449", "display_phone": "(415) 771-8449", "distance": 5366.476620396218}, {"id": "zO-BFGWIRWqMOOHyH-6Sqg", "alias": "shai-lai-seafood-restaurant-san-francisco", "name": "Shai Lai Seafood Restaurant", "image_url": "https://s3-media3.fl.yelpcdn.com/bphoto/v63mTu-dmyEsgvkoDEbkSQ/o.jpg", "is_closed": false, "url": "https://www.yelp.com/biz/shai-lai-seafood-restaurant-san-francisco?adjust_creative=Klanz-jboxl2XzqrjP6LLw&utm_campaign=yelp_api_v3&utm_medium=api_v3_business_search&utm_source=Klanz-jboxl2XzqrjP6LLw", "review_count": 144, "categories": [{"alias": "cantonese", "title": "Cantonese"}, {"alias": "seafood", "title": "Seafood"}, {"alias": "dimsum", "title": "Dim Sum"}], "rating": 3.5, "coordinates": {"latitude": 37.77969, "longitude": -122.48663}, "transactions": ["delivery", "pickup"], "price": "$$", "location": {"address1": "6255 Geary Blvd", "address2": "", "address3": "", "city": "San Francisco", "zip_code": "94121", "country": "US", "state": "CA", "display_address": ["6255 Geary Blvd", "San Francisco, CA 94121"]}, "phone": "+14153878338", "display_phone": "(415) 387-8338", "distance": 4871.691469466219}, {"id": "IBBHd7ejaRDK_m-oXC6ZVw", "alias": "little-wok-cafe-san-francisco", "name": "Little Wok Cafe", "image_url": "https://s3-media3.fl.yelpcdn.com/bphoto/AxSP_dLhYJoJyZRosRmstA/o.jpg", "is_closed": false, "url": "https://www.yelp.com/biz/little-wok-cafe-san-francisco?adjust_creative=Klanz-jboxl2XzqrjP6LLw&utm_campaign=yelp_api_v3&utm_medium=api_v3_business_search&utm_source=Klanz-jboxl2XzqrjP6LLw", "review_count": 40, "categories": [{"alias": "chinese", "title": "Chinese"}, {"alias": "seafood", "title": "Seafood"}], "rating": 4.5, "coordinates": {"latitude": 37.77585, "longitude": -122.49761}, "transactions": ["delivery", "pickup"], "location": {"address1": "3608 Balboa St", "address2": null, "address3": "", "city": "San Francisco", "zip_code": "94121", "country": "US", "state": "CA", "display_address": ["3608 Balboa St", "San Francisco, CA 94121"]}, "phone": "+14156824672", "display_phone": "(415) 682-4672", "distance": 5634.9461438083}, {"id": "D1-_5ff4aic1-7rLqzUd4g", "alias": "yamo-san-francisco", "name": "Yamo", "image_url": "https://s3-media4.fl.yelpcdn.com/bphoto/f3fyfUwRZbGgPB9eYZG62w/o.jpg", "is_closed": false, "url": "https://www.yelp.com/biz/yamo-san-francisco?adjust_creative=Klanz-jboxl2XzqrjP6LLw&utm_campaign=yelp_api_v3&utm_medium=api_v3_business_search&utm_source=Klanz-jboxl2XzqrjP6LLw", "review_count": 2013, "categories": [{"alias": "burmese", "title": "Burmese"}, {"alias": "chinese", "title": "Chinese"}], "rating": 4.0, "coordinates": {"latitude": 37.7619463343878, "longitude": -122.41972421413524}, "transactions": ["delivery"], "price": "$", "location": {"address1": "3406 18th St", "address2": "", "address3": "", "city": "San Francisco", "zip_code": "94110", "country": "US", "state": "CA", "display_address": ["3406 18th St", "San Francisco, CA 94110"]}, "phone": "+14155538911", "display_phone": "(415) 553-8911", "distance": 1474.6647817848025}, {"id": "Qbs01q0lpfM6pYSd7lGeqQ", "alias": "little-szechuan-san-francisco", "name": "Little Szechuan", "image_url": "https://s3-media4.fl.yelpcdn.com/bphoto/9X1cPMVUV3JVXVcNvJAICQ/o.jpg", "is_closed": false, "url": "https://www.yelp.com/biz/little-szechuan-san-francisco?adjust_creative=Klanz-jboxl2XzqrjP6LLw&utm_campaign=yelp_api_v3&utm_medium=api_v3_business_search&utm_source=Klanz-jboxl2XzqrjP6LLw", "review_count": 578, "categories": [{"alias": "szechuan", "title": "Szechuan"}, {"alias": "cantonese", "title": "Cantonese"}], "rating": 3.5, "coordinates": {"latitude": 37.797799, "longitude": -122.405702}, "transactions": ["delivery", "pickup"], "price": "$$", "location": {"address1": "501 Broadway St", "address2": null, "address3": "", "city": "San Francisco", "zip_code": "94133", "country": "US", "state": "CA", "display_address": ["501 Broadway St", "San Francisco, CA 94133"]}, "phone": "+14159868832", "display_phone": "(415) 986-8832", "distance": 4912.167056543873}, {"id": "GrawU-e5_s99My8-DaajxQ", "alias": "joyful-kitchen-san-francisco-4", "name": "Joyful Kitchen", "image_url": "https://s3-media1.fl.yelpcdn.com/bphoto/OVRl2R1rIrLOgL4JOEx2Nw/o.jpg", "is_closed": false, "url": "https://www.yelp.com/biz/joyful-kitchen-san-francisco-4?adjust_creative=Klanz-jboxl2XzqrjP6LLw&utm_campaign=yelp_api_v3&utm_medium=api_v3_business_search&utm_source=Klanz-jboxl2XzqrjP6LLw", "review_count": 165, "categories": [{"alias": "chinese", "title": "Chinese"}], "rating": 3.0, "coordinates": {"latitude": 37.725246, "longitude": -122.462876}, "transactions": ["delivery", "pickup"], "price": "$", "location": {"address1": "1919 Ocean Ave", "address2": "", "address3": null, "city": "San Francisco", "zip_code": "94127", "country": "US", "state": "CA", "display_address": ["1919 Ocean Ave", "San Francisco, CA 94127"]}, "phone": "+14152392388", "display_phone": "(415) 239-2388", "distance": 4595.361741083616}, {"id": "UNGbHSjUMLNEGar7-EHQFA", "alias": "hong-kong-east-ocean-seafood-restaurant-emeryville", "name": "Hong Kong East Ocean Seafood Restaurant", "image_url": "https://s3-media2.fl.yelpcdn.com/bphoto/dHNPvaL3NxUEnnlt7T7AgA/o.jpg", "is_closed": false, "url": "https://www.yelp.com/biz/hong-kong-east-ocean-seafood-restaurant-emeryville?adjust_creative=Klanz-jboxl2XzqrjP6LLw&utm_campaign=yelp_api_v3&utm_medium=api_v3_business_search&utm_source=Klanz-jboxl2XzqrjP6LLw", "review_count": 1315, "categories": [{"alias": "seafood", "title": "Seafood"}, {"alias": "dimsum", "title": "Dim Sum"}, {"alias": "cantonese", "title": "Cantonese"}], "rating": 3.5, "coordinates": {"latitude": 37.8372929629764, "longitude": -122.31418132782}, "transactions": ["delivery", "restaurant_reservation"], "price": "$$", "location": {"address1": "3199 Powell St", "address2": "", "address3": "", "city": "Emeryville", "zip_code": "94608", "country": "US", "state": "CA", "display_address": ["3199 Powell St", "Emeryville, CA 94608"]}, "phone": "+15106553388", "display_phone": "(510) 655-3388", "distance": 13695.250472271184}, {"id": "8Ia2IDknIA3btJ0bTj751w", "alias": "smile-house-cafe-san-francisco", "name": "Smile House Cafe", "image_url": "https://s3-media4.fl.yelpcdn.com/bphoto/PXwVYPT8t25YOnH5gjwOyw/o.jpg", "is_closed": false, "url": "https://www.yelp.com/biz/smile-house-cafe-san-francisco?adjust_creative=Klanz-jboxl2XzqrjP6LLw&utm_campaign=yelp_api_v3&utm_medium=api_v3_business_search&utm_source=Klanz-jboxl2XzqrjP6LLw", "review_count": 730, "categories": [{"alias": "chinese", "title": "Chinese"}, {"alias": "asianfusion", "title": "Asian Fusion"}, {"alias": "hkcafe", "title": "Hong Kong Style Cafe"}], "rating": 3.0, "coordinates": {"latitude": 37.74322, "longitude": -122.4774}, "transactions": ["delivery", "pickup"], "price": "$$", "location": {"address1": "1030 Taraval St", "address2": "", "address3": "", "city": "San Francisco", "zip_code": "94116", "country": "US", "state": "CA", "display_address": ["1030 Taraval St", "San Francisco, CA 94116"]}, "phone": "+14156824006", "display_phone": "(415) 682-4006", "distance": 4103.89008548031}, {"id": "0Yw-OWhZAU8BI852cx21ug", "alias": "kam-po-kitchen-san-francisco", "name": "Kam Po Kitchen", "image_url": "https://s3-media3.fl.yelpcdn.com/bphoto/RqyVaNt2j0gZL_9o56d0Zw/o.jpg", "is_closed": false, "url": "https://www.yelp.com/biz/kam-po-kitchen-san-francisco?adjust_creative=Klanz-jboxl2XzqrjP6LLw&utm_campaign=yelp_api_v3&utm_medium=api_v3_business_search&utm_source=Klanz-jboxl2XzqrjP6LLw", "review_count": 539, "categories": [{"alias": "bbq", "title": "Barbeque"}, {"alias": "cantonese", "title": "Cantonese"}, {"alias": "noodles", "title": "Noodles"}], "rating": 4.0, "coordinates": {"latitude": 37.797172, "longitude": -122.410499}, "transactions": ["delivery"], "price": "$", "location": {"address1": "801 Broadway", "address2": "", "address3": "", "city": "San Francisco", "zip_code": "94133", "country": "US", "state": "CA", "display_address": ["801 Broadway", "San Francisco, CA 94133"]}, "phone": "+14159823516", "display_phone": "(415) 982-3516", "distance": 4634.559680586864}, {"id": "4WFJ5aeemv1sEDgbuGC7Lg", "alias": "tasty-restaurant-san-francisco", "name": "Tasty Restaurant", "image_url": "https://s3-media2.fl.yelpcdn.com/bphoto/OQGQQjiX1ZowmIWzzIxExg/o.jpg", "is_closed": false, "url": "https://www.yelp.com/biz/tasty-restaurant-san-francisco?adjust_creative=Klanz-jboxl2XzqrjP6LLw&utm_campaign=yelp_api_v3&utm_medium=api_v3_business_search&utm_source=Klanz-jboxl2XzqrjP6LLw", "review_count": 104, "categories": [{"alias": "chinese", "title": "Chinese"}, {"alias": "hkcafe", "title": "Hong Kong Style Cafe"}], "rating": 3.5, "coordinates": {"latitude": 37.78069, "longitude": -122.4789}, "transactions": ["delivery", "pickup"], "price": "$", "location": {"address1": "5530 Geary Blvd", "address2": null, "address3": "", "city": "San Francisco", "zip_code": "94121", "country": "US", "state": "CA", "display_address": ["5530 Geary Blvd", "San Francisco, CA 94121"]}, "phone": "+14153863288", "display_phone": "(415) 386-3288", "distance": 4328.771138915866}, {"id": "gNK0I5bJo8Rw-yB8FmvQBA", "alias": "angler-san-francisco", "name": "Angler", "image_url": "https://s3-media1.fl.yelpcdn.com/bphoto/-ATwhMtUpAnWrC8x0YN1Ew/o.jpg", "is_closed": false, "url": "https://www.yelp.com/biz/angler-san-francisco?adjust_creative=Klanz-jboxl2XzqrjP6LLw&utm_campaign=yelp_api_v3&utm_medium=api_v3_business_search&utm_source=Klanz-jboxl2XzqrjP6LLw", "review_count": 403, "categories": [{"alias": "seafood", "title": "Seafood"}, {"alias": "steak", "title": "Steakhouses"}], "rating": 3.5, "coordinates": {"latitude": 37.79307, "longitude": -122.39212}, "transactions": ["delivery"], "price": "$$$$", "location": {"address1": "132 The Embarcadero", "address2": "", "address3": null, "city": "San Francisco", "zip_code": "94105", "country": "US", "state": "CA", "display_address": ["132 The Embarcadero", "San Francisco, CA 94105"]}, "phone": "+14158729442", "display_phone": "(415) 872-9442", "distance": 5266.5358080537935}, {"id": "2FR395iJImCphQNGWubUtw", "alias": "champa-garden-san-francisco-2", "name": "Champa Garden", "image_url": "https://s3-media4.fl.yelpcdn.com/bphoto/C3C_Rgzz-h3CZGg6IdTFoQ/o.jpg", "is_closed": false, "url": "https://www.yelp.com/biz/champa-garden-san-francisco-2?adjust_creative=Klanz-jboxl2XzqrjP6LLw&utm_campaign=yelp_api_v3&utm_medium=api_v3_business_search&utm_source=Klanz-jboxl2XzqrjP6LLw", "review_count": 885, "categories": [{"alias": "laotian", "title": "Laotian"}, {"alias": "asianfusion", "title": "Asian Fusion"}, {"alias": "thai", "title": "Thai"}], "rating": 4.0, "coordinates": {"latitude": 37.725079, "longitude": -122.460196}, "transactions": ["delivery", "pickup"], "price": "$$", "location": {"address1": "613 Faxon Ave", "address2": "", "address3": "", "city": "San Francisco", "zip_code": "94112", "country": "US", "state": "CA", "display_address": ["613 Faxon Ave", "San Francisco, CA 94112"]}, "phone": "+14153494186", "display_phone": "(415) 349-4186", "distance": 4496.014516338692}, {"id": "f-m7-hyFzkf0HSEeQ2s-9A", "alias": "fog-harbor-fish-house-san-francisco-2", "name": "Fog Harbor Fish House", "image_url": "https://s3-media2.fl.yelpcdn.com/bphoto/by8Hh63BLPv_HUqRUdsp_w/o.jpg", "is_closed": false, "url": "https://www.yelp.com/biz/fog-harbor-fish-house-san-francisco-2?adjust_creative=Klanz-jboxl2XzqrjP6LLw&utm_campaign=yelp_api_v3&utm_medium=api_v3_business_search&utm_source=Klanz-jboxl2XzqrjP6LLw", "review_count": 7218, "categories": [{"alias": "seafood", "title": "Seafood"}, {"alias": "wine_bars", "title": "Wine Bars"}, {"alias": "cocktailbars", "title": "Cocktail Bars"}], "rating": 4.5, "coordinates": {"latitude": 37.80898821475503, "longitude": -122.41029651587517}, "transactions": ["restaurant_reservation"], "price": "$$", "location": {"address1": "39 Pier", "address2": "Ste A - 202", "address3": "", "city": "San Francisco", "zip_code": "94133", "country": "US", "state": "CA", "display_address": ["39 Pier", "Ste A - 202", "San Francisco, CA 94133"]}, "phone": "+14159692010", "display_phone": "(415) 969-2010", "distance": 5820.143221179387}, {"id": "T2ZKNVus4b1r6etEosv7ZA", "alias": "san-wang-restaurant-san-francisco", "name": "San Wang Restaurant", "image_url": "https://s3-media2.fl.yelpcdn.com/bphoto/1ouNgb-cNBw1mmUC4jBh0w/o.jpg", "is_closed": false, "url": "https://www.yelp.com/biz/san-wang-restaurant-san-francisco?adjust_creative=Klanz-jboxl2XzqrjP6LLw&utm_campaign=yelp_api_v3&utm_medium=api_v3_business_search&utm_source=Klanz-jboxl2XzqrjP6LLw", "review_count": 519, "categories": [{"alias": "chinese", "title": "Chinese"}, {"alias": "korean", "title": "Korean"}, {"alias": "seafood", "title": "Seafood"}], "rating": 3.5, "coordinates": {"latitude": 37.785756, "longitude": -122.429398}, "transactions": ["delivery"], "price": "$$", "location": {"address1": "1682 Post St", "address2": "", "address3": "", "city": "San Francisco", "zip_code": "94115", "country": "US", "state": "CA", "display_address": ["1682 Post St", "San Francisco, CA 94115"]}, "phone": "+14159211453", "display_phone": "(415) 921-1453", "distance": 2832.516974013949}, {"id": "TR5FbzexqkO0jJ7Sc3MsMA", "alias": "s-and-t-hong-kong-seafood-san-francisco", "name": "S&T Hong Kong Seafood", "image_url": "https://s3-media2.fl.yelpcdn.com/bphoto/CrhzC_PkRRoziFtl_d8AJw/o.jpg", "is_closed": false, "url": "https://www.yelp.com/biz/s-and-t-hong-kong-seafood-san-francisco?adjust_creative=Klanz-jboxl2XzqrjP6LLw&utm_campaign=yelp_api_v3&utm_medium=api_v3_business_search&utm_source=Klanz-jboxl2XzqrjP6LLw", "review_count": 383, "categories": [{"alias": "seafood", "title": "Seafood"}, {"alias": "dimsum", "title": "Dim Sum"}], "rating": 3.0, "coordinates": {"latitude": 37.7537789071879, "longitude": -122.491306921826}, "transactions": ["delivery"], "price": "$$", "location": {"address1": "2588 Noriega St", "address2": "", "address3": "", "city": "San Francisco", "zip_code": "94122", "country": "US", "state": "CA", "display_address": ["2588 Noriega St", "San Francisco, CA 94122"]}, "phone": "+14156658338", "display_phone": "(415) 665-8338", "distance": 4887.383944403392}, {"id": "Fo5Wscbb9rwcLuaO-sc2zQ", "alias": "delicious-dim-sum-san-francisco", "name": "Delicious Dim Sum", "image_url": "https://s3-media3.fl.yelpcdn.com/bphoto/_8rCVbmzRV4HJ4Jz_D-TTA/o.jpg", "is_closed": false, "url": "https://www.yelp.com/biz/delicious-dim-sum-san-francisco?adjust_creative=Klanz-jboxl2XzqrjP6LLw&utm_campaign=yelp_api_v3&utm_medium=api_v3_business_search&utm_source=Klanz-jboxl2XzqrjP6LLw", "review_count": 1017, "categories": [{"alias": "dimsum", "title": "Dim Sum"}, {"alias": "cantonese", "title": "Cantonese"}], "rating": 4.0, "coordinates": {"latitude": 37.796051, "longitude": -122.4076004}, "transactions": ["delivery"], "price": "$", "location": {"address1": "752 Jackson St", "address2": "", "address3": "", "city": "San Francisco", "zip_code": "94133", "country": "US", "state": "CA", "display_address": ["752 Jackson St", "San Francisco, CA 94133"]}, "phone": "+14157810721", "display_phone": "(415) 781-0721", "distance": 4672.653444050715}, {"id": "YOGW7_G6vX-zVwfi5VrGfg", "alias": "china-first-restaurant-san-francisco", "name": "China First Restaurant", "image_url": "https://s3-media3.fl.yelpcdn.com/bphoto/Tf9OCOUMo8M-d8Dw8PIE1g/o.jpg", "is_closed": false, "url": "https://www.yelp.com/biz/china-first-restaurant-san-francisco?adjust_creative=Klanz-jboxl2XzqrjP6LLw&utm_campaign=yelp_api_v3&utm_medium=api_v3_business_search&utm_source=Klanz-jboxl2XzqrjP6LLw", "review_count": 384, "categories": [{"alias": "chinese", "title": "Chinese"}], "rating": 3.5, "coordinates": {"latitude": 37.783260345459, "longitude": -122.463005065918}, "transactions": ["delivery"], "price": "$$", "location": {"address1": "336 Clement St", "address2": "", "address3": "", "city": "San Francisco", "zip_code": "94118", "country": "US", "state": "CA", "display_address": ["336 Clement St", "San Francisco, CA 94118"]}, "phone": "+14153878370", "display_phone": "(415) 387-8370", "distance": 3408.7145455417653}, {"id": "hWFAUV2KtywQXwHFj5j9Lg", "alias": "ming-kee-restaurant-san-francisco-2", "name": "Ming Kee Restaurant", "image_url": "https://s3-media1.fl.yelpcdn.com/bphoto/nK7qG1nBDw1vGZACRZez0Q/o.jpg", "is_closed": false, "url": "https://www.yelp.com/biz/ming-kee-restaurant-san-francisco-2?adjust_creative=Klanz-jboxl2XzqrjP6LLw&utm_campaign=yelp_api_v3&utm_medium=api_v3_business_search&utm_source=Klanz-jboxl2XzqrjP6LLw", "review_count": 185, "categories": [{"alias": "chinese", "title": "Chinese"}, {"alias": "delis", "title": "Delis"}], "rating": 4.0, "coordinates": {"latitude": 37.7247201, "longitude": -122.4590121}, "transactions": ["delivery"], "price": "$$", "location": {"address1": "1548 Ocean Ave", "address2": "", "address3": "", "city": "San Francisco", "zip_code": "94112", "country": "US", "state": "CA", "display_address": ["1548 Ocean Ave", "San Francisco, CA 94112"]}, "phone": "+14153378198", "display_phone": "(415) 337-8198", "distance": 4485.625612676963}, {"id": "wFMHdUvuXHUkc5dVc680Iw", "alias": "new-asian-pearl-peninsula-millbrae-4", "name": "New Asian Pearl Peninsula", "image_url": "https://s3-media4.fl.yelpcdn.com/bphoto/URwXbFzcgzXUCsevJBXYHg/o.jpg", "is_closed": false, "url": "https://www.yelp.com/biz/new-asian-pearl-peninsula-millbrae-4?adjust_creative=Klanz-jboxl2XzqrjP6LLw&utm_campaign=yelp_api_v3&utm_medium=api_v3_business_search&utm_source=Klanz-jboxl2XzqrjP6LLw", "review_count": 701, "categories": [{"alias": "dimsum", "title": "Dim Sum"}, {"alias": "seafood", "title": "Seafood"}, {"alias": "cantonese", "title": "Cantonese"}], "rating": 3.0, "coordinates": {"latitude": 37.61334, "longitude": -122.40485}, "transactions": ["delivery", "pickup"], "price": "$$", "location": {"address1": "1671 El Camino Real", "address2": "", "address3": "", "city": "Millbrae", "zip_code": "94030", "country": "US", "state": "CA", "display_address": ["1671 El Camino Real", "Millbrae, CA 94030"]}, "phone": "+16506168288", "display_phone": "(650) 616-8288", "distance": 16638.794895637875}, {"id": "kWp4XRve5vl-64M98mPTAA", "alias": "lees-dim-sum-san-francisco", "name": "Lee's Dim Sum", "image_url": "https://s3-media2.fl.yelpcdn.com/bphoto/SYCdiBC3zwTfMcpcFMq7hg/o.jpg", "is_closed": false, "url": "https://www.yelp.com/biz/lees-dim-sum-san-francisco?adjust_creative=Klanz-jboxl2XzqrjP6LLw&utm_campaign=yelp_api_v3&utm_medium=api_v3_business_search&utm_source=Klanz-jboxl2XzqrjP6LLw", "review_count": 28, "categories": [{"alias": "dimsum", "title": "Dim Sum"}], "rating": 5.0, "coordinates": {"latitude": 37.78534, "longitude": -122.39545}, "transactions": [], "location": {"address1": "303 2nd St", "address2": null, "address3": "", "city": "San Francisco", "zip_code": "94107", "country": "US", "state": "CA", "display_address": ["303 2nd St", "San Francisco, CA 94107"]}, "phone": "+18885330718", "display_phone": "(888) 533-0718", "distance": 4508.4659296456275}, {"id": "x24zCTZhA-LiVgYMWs6Wqw", "alias": "ernest-san-francisco", "name": "Ernest", "image_url": "https://s3-media3.fl.yelpcdn.com/bphoto/zWjf-OJtPx9NcorxHf3Dyw/o.jpg", "is_closed": false, "url": "https://www.yelp.com/biz/ernest-san-francisco?adjust_creative=Klanz-jboxl2XzqrjP6LLw&utm_campaign=yelp_api_v3&utm_medium=api_v3_business_search&utm_source=Klanz-jboxl2XzqrjP6LLw", "review_count": 154, "categories": [{"alias": "newamerican", "title": "American (New)"}, {"alias": "seafood", "title": "Seafood"}, {"alias": "bars", "title": "Bars"}], "rating": 4.5, "coordinates": {"latitude": 37.76329, "longitude": -122.410738}, "transactions": [], "price": "$$$$", "location": {"address1": "1890 Bryant St", "address2": "Ste 100", "address3": null, "city": "San Francisco", "zip_code": "94110", "country": "US", "state": "CA", "display_address": ["1890 Bryant St", "Ste 100", "San Francisco, CA 94110"]}, "phone": "+14158292961", "display_phone": "(415) 829-2961", "distance": 2277.17682091514}, {"id": "BXWpEh0BkpAe6uE_83k5VA", "alias": "sizzling-pot-king-san-francisco-3", "name": "Sizzling Pot King", "image_url": "https://s3-media3.fl.yelpcdn.com/bphoto/txDYb7JhyyscNXylf4PE6w/o.jpg", "is_closed": false, "url": "https://www.yelp.com/biz/sizzling-pot-king-san-francisco-3?adjust_creative=Klanz-jboxl2XzqrjP6LLw&utm_campaign=yelp_api_v3&utm_medium=api_v3_business_search&utm_source=Klanz-jboxl2XzqrjP6LLw", "review_count": 203, "categories": [{"alias": "szechuan", "title": "Szechuan"}], "rating": 4.0, "coordinates": {"latitude": 37.77722, "longitude": -122.41251}, "transactions": ["delivery"], "price": "$$", "location": {"address1": "139 8th St", "address2": "", "address3": null, "city": "San Francisco", "zip_code": "94103", "country": "US", "state": "CA", "display_address": ["139 8th St", "San Francisco, CA 94103"]}, "phone": "+14158142292", "display_phone": "(415) 814-2292", "distance": 2768.918291620108}, {"id": "uQ2jD7TCmb7zpoBRLUzDtA", "alias": "hing-lung-cafe-south-san-francisco-12", "name": "Hing Lung Cafe", "image_url": "https://s3-media3.fl.yelpcdn.com/bphoto/KWtN9YDEDf5dmv8ySRB3mw/o.jpg", "is_closed": false, "url": "https://www.yelp.com/biz/hing-lung-cafe-south-san-francisco-12?adjust_creative=Klanz-jboxl2XzqrjP6LLw&utm_campaign=yelp_api_v3&utm_medium=api_v3_business_search&utm_source=Klanz-jboxl2XzqrjP6LLw", "review_count": 110, "categories": [{"alias": "cantonese", "title": "Cantonese"}, {"alias": "bbq", "title": "Barbeque"}, {"alias": "noodles", "title": "Noodles"}], "rating": 4.0, "coordinates": {"latitude": 37.6551503, "longitude": -122.4110194}, "transactions": ["delivery", "pickup"], "price": "$$", "location": {"address1": "331 Grand Ave", "address2": "", "address3": null, "city": "South San Francisco", "zip_code": "94080", "country": "US", "state": "CA", "display_address": ["331 Grand Ave", "South San Francisco, CA 94080"]}, "phone": "+16507631668", "display_phone": "(650) 763-1668", "distance": 11969.62210442066}, {"id": "MXKWFQHoC0SXy9UI-Djn7g", "alias": "arts-cafe-san-francisco", "name": "Art's Cafe", "image_url": "https://s3-media2.fl.yelpcdn.com/bphoto/ULP8kf8ATnzSnH8nPu794w/o.jpg", "is_closed": false, "url": "https://www.yelp.com/biz/arts-cafe-san-francisco?adjust_creative=Klanz-jboxl2XzqrjP6LLw&utm_campaign=yelp_api_v3&utm_medium=api_v3_business_search&utm_source=Klanz-jboxl2XzqrjP6LLw", "review_count": 1165, "categories": [{"alias": "diners", "title": "Diners"}, {"alias": "breakfast_brunch", "title": "Breakfast & Brunch"}, {"alias": "korean", "title": "Korean"}], "rating": 4.5, "coordinates": {"latitude": 37.763926, "longitude": -122.4657578}, "transactions": ["delivery"], "price": "$$", "location": {"address1": "747 Irving St", "address2": "", "address3": "", "city": "San Francisco", "zip_code": "94122", "country": "US", "state": "CA", "display_address": ["747 Irving St", "San Francisco, CA 94122"]}, "phone": "+14156657440", "display_phone": "(415) 665-7440", "distance": 2621.456024412098}, {"id": "0J97f38Wtf3sOT71nh_Iaw", "alias": "xiao-loong-restaurant-san-francisco", "name": "Xiao Loong Restaurant", "image_url": "https://s3-media4.fl.yelpcdn.com/bphoto/Mem8FiGXc0EMhP-PWSO69w/o.jpg", "is_closed": false, "url": "https://www.yelp.com/biz/xiao-loong-restaurant-san-francisco?adjust_creative=Klanz-jboxl2XzqrjP6LLw&utm_campaign=yelp_api_v3&utm_medium=api_v3_business_search&utm_source=Klanz-jboxl2XzqrjP6LLw", "review_count": 306, "categories": [{"alias": "chinese", "title": "Chinese"}], "rating": 4.0, "coordinates": {"latitude": 37.7385499, "longitude": -122.46884}, "transactions": ["delivery", "pickup"], "price": "$$", "location": {"address1": "250 W Portal Ave", "address2": "", "address3": "", "city": "San Francisco", "zip_code": "94127", "country": "US", "state": "CA", "display_address": ["250 W Portal Ave", "San Francisco, CA 94127"]}, "phone": "+14157535678", "display_phone": "(415) 753-5678", "distance": 3779.2957160324904}, {"id": "59v5gU6MG3FrZ0Z7RYXEkg", "alias": "henrys-hunan-restaurant-san-francisco-11", "name": "Henry's Hunan Restaurant", "image_url": "https://s3-media2.fl.yelpcdn.com/bphoto/JjrMTJswzXNM3WIvOU0eDw/o.jpg", "is_closed": false, "url": "https://www.yelp.com/biz/henrys-hunan-restaurant-san-francisco-11?adjust_creative=Klanz-jboxl2XzqrjP6LLw&utm_campaign=yelp_api_v3&utm_medium=api_v3_business_search&utm_source=Klanz-jboxl2XzqrjP6LLw", "review_count": 468, "categories": [{"alias": "chinese", "title": "Chinese"}], "rating": 3.5, "coordinates": {"latitude": 37.7869515, "longitude": -122.3992342}, "transactions": ["delivery", "pickup"], "price": "$$", "location": {"address1": "110 Natoma St", "address2": "", "address3": "", "city": "San Francisco", "zip_code": "94105", "country": "US", "state": "CA", "display_address": ["110 Natoma St", "San Francisco, CA 94105"]}, "phone": "+14155464999", "display_phone": "(415) 546-4999", "distance": 4369.145905244847}, {"id": "Y43L1WlyrpDWVwAj6NF-VA", "alias": "boiling-hot-pot-san-francisco", "name": "Boiling Hot Pot", "image_url": "https://s3-media1.fl.yelpcdn.com/bphoto/p7jY9j7-XFYVgznGN9Sy3g/o.jpg", "is_closed": false, "url": "https://www.yelp.com/biz/boiling-hot-pot-san-francisco?adjust_creative=Klanz-jboxl2XzqrjP6LLw&utm_campaign=yelp_api_v3&utm_medium=api_v3_business_search&utm_source=Klanz-jboxl2XzqrjP6LLw", "review_count": 981, "categories": [{"alias": "hotpot", "title": "Hot Pot"}, {"alias": "chinese", "title": "Chinese"}, {"alias": "buffets", "title": "Buffets"}], "rating": 4.5, "coordinates": {"latitude": 37.7806682, "longitude": -122.4786992}, "transactions": [], "price": "$$$", "location": {"address1": "5512 Geary Blvd", "address2": "", "address3": "", "city": "San Francisco", "zip_code": "94121", "country": "US", "state": "CA", "display_address": ["5512 Geary Blvd", "San Francisco, CA 94121"]}, "phone": "+14152211188", "display_phone": "(415) 221-1188", "distance": 4315.577126066169}, {"id": "t0nXh1Nj5WIhg2CZDGyktA", "alias": "henrys-hunan-restaurant-san-francisco-9", "name": "Henry's Hunan Restaurant", "image_url": "https://s3-media1.fl.yelpcdn.com/bphoto/oEZenUTg-ovGipTDRBRUew/o.jpg", "is_closed": false, "url": "https://www.yelp.com/biz/henrys-hunan-restaurant-san-francisco-9?adjust_creative=Klanz-jboxl2XzqrjP6LLw&utm_campaign=yelp_api_v3&utm_medium=api_v3_business_search&utm_source=Klanz-jboxl2XzqrjP6LLw", "review_count": 436, "categories": [{"alias": "chinese", "title": "Chinese"}], "rating": 4.0, "coordinates": {"latitude": 37.74341, "longitude": -122.42692}, "transactions": ["delivery", "pickup"], "price": "$$", "location": {"address1": "1708 Church St", "address2": "", "address3": "", "city": "San Francisco", "zip_code": "94131", "country": "US", "state": "CA", "display_address": ["1708 Church St", "San Francisco, CA 94131"]}, "phone": "+14158269189", "display_phone": "(415) 826-9189", "distance": 2118.656426023388}, {"id": "Uh8PqobH8dQDAkvlQr4v9A", "alias": "lai-hong-lounge-san-francisco", "name": "Lai Hong Lounge", "image_url": "https://s3-media2.fl.yelpcdn.com/bphoto/8MJzTrZ5jpdyrL8Wzr0kTA/o.jpg", "is_closed": false, "url": "https://www.yelp.com/biz/lai-hong-lounge-san-francisco?adjust_creative=Klanz-jboxl2XzqrjP6LLw&utm_campaign=yelp_api_v3&utm_medium=api_v3_business_search&utm_source=Klanz-jboxl2XzqrjP6LLw", "review_count": 811, "categories": [{"alias": "dimsum", "title": "Dim Sum"}, {"alias": "cantonese", "title": "Cantonese"}], "rating": 3.5, "coordinates": {"latitude": 37.79785, "longitude": -122.41012}, "transactions": ["delivery", "pickup"], "price": "$$", "location": {"address1": "1416 Powell St", "address2": "", "address3": "", "city": "San Francisco", "zip_code": "94133", "country": "US", "state": "CA", "display_address": ["1416 Powell St", "San Francisco, CA 94133"]}, "phone": "+14153972290", "display_phone": "(415) 397-2290", "distance": 4716.179502149028}, {"id": "NGPpY1rZSuWZ7Sqdi43mCQ", "alias": "heung-yuen-restaurant-san-francisco", "name": "Heung Yuen Restaurant", "image_url": "https://s3-media2.fl.yelpcdn.com/bphoto/6nDPSzcj2WDPZbk0euhAGw/o.jpg", "is_closed": false, "url": "https://www.yelp.com/biz/heung-yuen-restaurant-san-francisco?adjust_creative=Klanz-jboxl2XzqrjP6LLw&utm_campaign=yelp_api_v3&utm_medium=api_v3_business_search&utm_source=Klanz-jboxl2XzqrjP6LLw", "review_count": 313, "categories": [{"alias": "chinese", "title": "Chinese"}], "rating": 4.0, "coordinates": {"latitude": 37.7552018, "longitude": -122.4203735}, "transactions": ["delivery", "pickup"], "price": "$", "location": {"address1": "3279 22nd St", "address2": "", "address3": "", "city": "San Francisco", "zip_code": "94110", "country": "US", "state": "CA", "display_address": ["3279 22nd St", "San Francisco, CA 94110"]}, "phone": "+14156482666", "display_phone": "(415) 648-2666", "distance": 1541.420993660655}, {"id": "vnix7vi9At8rrGvny8h4Kg", "alias": "derm-restaurant-san-francisco", "name": "Derm Restaurant", "image_url": "https://s3-media1.fl.yelpcdn.com/bphoto/z60EkIaFQGdLJ4SG_-AFjg/o.jpg", "is_closed": false, "url": "https://www.yelp.com/biz/derm-restaurant-san-francisco?adjust_creative=Klanz-jboxl2XzqrjP6LLw&utm_campaign=yelp_api_v3&utm_medium=api_v3_business_search&utm_source=Klanz-jboxl2XzqrjP6LLw", "review_count": 300, "categories": [{"alias": "thai", "title": "Thai"}, {"alias": "breakfast_brunch", "title": "Breakfast & Brunch"}], "rating": 4.5, "coordinates": {"latitude": 37.7818512, "longitude": -122.4537064}, "transactions": ["delivery", "pickup", "restaurant_reservation"], "price": "$$", "location": {"address1": "3226 Geary Blvd", "address2": null, "address3": "", "city": "San Francisco", "zip_code": "94118", "country": "US", "state": "CA", "display_address": ["3226 Geary Blvd", "San Francisco, CA 94118"]}, "phone": "+14153794549", "display_phone": "(415) 379-4549", "distance": 2799.6113025479203}, {"id": "w5BLpD2_aj9gyTMiStJ65Q", "alias": "arabian-nights-restaurant-san-francisco", "name": "Arabian Nights Restaurant", "image_url": "https://s3-media3.fl.yelpcdn.com/bphoto/_hY6A3uSz5UP2hNDz-6MXw/o.jpg", "is_closed": false, "url": "https://www.yelp.com/biz/arabian-nights-restaurant-san-francisco?adjust_creative=Klanz-jboxl2XzqrjP6LLw&utm_campaign=yelp_api_v3&utm_medium=api_v3_business_search&utm_source=Klanz-jboxl2XzqrjP6LLw", "review_count": 736, "categories": [{"alias": "wine_bars", "title": "Wine Bars"}, {"alias": "arabian", "title": "Arabic"}, {"alias": "halal", "title": "Halal"}], "rating": 4.0, "coordinates": {"latitude": 37.759515, "longitude": -122.41890378949986}, "transactions": ["delivery", "pickup"], "price": "$$", "location": {"address1": "2345 Mission St", "address2": "", "address3": "", "city": "San Francisco", "zip_code": "94110", "country": "US", "state": "CA", "display_address": ["2345 Mission St", "San Francisco, CA 94110"]}, "phone": "+14156481444", "display_phone": "(415) 648-1444", "distance": 1549.8725667617518}, {"id": "if7l8HVMz7kmW0tG9l2LQA", "alias": "e-and-o-kitchen-and-bar-san-francisco", "name": "E&O Kitchen and Bar", "image_url": "https://s3-media4.fl.yelpcdn.com/bphoto/9CHJxodw65D_f_anIxZdlA/o.jpg", "is_closed": false, "url": "https://www.yelp.com/biz/e-and-o-kitchen-and-bar-san-francisco?adjust_creative=Klanz-jboxl2XzqrjP6LLw&utm_campaign=yelp_api_v3&utm_medium=api_v3_business_search&utm_source=Klanz-jboxl2XzqrjP6LLw", "review_count": 1115, "categories": [{"alias": "asianfusion", "title": "Asian Fusion"}, {"alias": "venues", "title": "Venues & Event Spaces"}], "rating": 4.0, "coordinates": {"latitude": 37.789719, "longitude": -122.405846}, "transactions": ["delivery"], "price": "$$", "location": {"address1": "314 Sutter St", "address2": "", "address3": "", "city": "San Francisco", "zip_code": "94108", "country": "US", "state": "CA", "display_address": ["314 Sutter St", "San Francisco, CA 94108"]}, "phone": "+14156930303", "display_phone": "(415) 693-0303", "distance": 4183.668148630503}, {"id": "1bwGLMXDffQqmjWAd9MT7A", "alias": "kaisen-don-san-francisco-4", "name": "Kaisen Don", "image_url": "https://s3-media4.fl.yelpcdn.com/bphoto/7bGzEJ1bVRyE2viSVFDF3Q/o.jpg", "is_closed": false, "url": "https://www.yelp.com/biz/kaisen-don-san-francisco-4?adjust_creative=Klanz-jboxl2XzqrjP6LLw&utm_campaign=yelp_api_v3&utm_medium=api_v3_business_search&utm_source=Klanz-jboxl2XzqrjP6LLw", "review_count": 418, "categories": [{"alias": "japanese", "title": "Japanese"}, {"alias": "sushi", "title": "Sushi Bars"}, {"alias": "poke", "title": "Poke"}], "rating": 4.0, "coordinates": {"latitude": 37.725428, "longitude": -122.463254}, "transactions": ["delivery", "pickup"], "price": "$$", "location": {"address1": "1939 Ocean Ave", "address2": null, "address3": "", "city": "San Francisco", "zip_code": "94127", "country": "US", "state": "CA", "display_address": ["1939 Ocean Ave", "San Francisco, CA 94127"]}, "phone": "+14158599081", "display_phone": "(415) 859-9081", "distance": 4589.763820348943}, {"id": "8I1IJUSC1MVdymCVAwVBKg", "alias": "china-village-albany-3", "name": "China Village", "image_url": "https://s3-media1.fl.yelpcdn.com/bphoto/URu4EHG_Q2gCGAjJUtvzfA/o.jpg", "is_closed": false, "url": "https://www.yelp.com/biz/china-village-albany-3?adjust_creative=Klanz-jboxl2XzqrjP6LLw&utm_campaign=yelp_api_v3&utm_medium=api_v3_business_search&utm_source=Klanz-jboxl2XzqrjP6LLw", "review_count": 877, "categories": [{"alias": "szechuan", "title": "Szechuan"}], "rating": 3.5, "coordinates": {"latitude": 37.890986, "longitude": -122.291229}, "transactions": ["delivery"], "price": "$$", "location": {"address1": "1335 Solano Ave", "address2": "", "address3": "", "city": "Albany", "zip_code": "94706", "country": "US", "state": "CA", "display_address": ["1335 Solano Ave", "Albany, CA 94706"]}, "phone": "+15105252285", "display_phone": "(510) 525-2285", "distance": 19285.050862164946}], "total": 1800, "region": {"center": {"longitude": -122.43644714355469, "latitude": 37.76089938976322}}}