{"businesses": [{"id": "I8q7lH2GAMQmQydZaEU1DA", "alias": "dol-ho-san-francisco", "name": "Dol Ho", "image_url": "https://s3-media2.fl.yelpcdn.com/bphoto/hCEf9A9uCN_dxQKopduu6w/o.jpg", "is_closed": false, "url": "https://www.yelp.com/biz/dol-ho-san-francisco?adjust_creative=Klanz-jboxl2XzqrjP6LLw&utm_campaign=yelp_api_v3&utm_medium=api_v3_business_search&utm_source=Klanz-jboxl2XzqrjP6LLw", "review_count": 412, "categories": [{"alias": "dimsum", "title": "Dim Sum"}, {"alias": "cantonese", "title": "Cantonese"}], "rating": 4.0, "coordinates": {"latitude": 37.79675, "longitude": -122.40879}, "transactions": ["delivery"], "price": "$", "location": {"address1": "808 Pacific Ave", "address2": "", "address3": "", "city": "San Francisco", "zip_code": "94133", "country": "US", "state": "CA", "display_address": ["808 Pacific Ave", "San Francisco, CA 94133"]}, "phone": "+14153922828", "display_phone": "(415) 392-2828", "distance": 4679.34273855183}, {"id": "DjVHyMJEEohV6gIU--ScdA", "alias": "onsen-restaurant-san-francisco", "name": "Onsen Restaurant", "image_url": "https://s3-media3.fl.yelpcdn.com/bphoto/xzHBjNgT7AT5KgSngm31rw/o.jpg", "is_closed": false, "url": "https://www.yelp.com/biz/onsen-restaurant-san-francisco?adjust_creative=Klanz-jboxl2XzqrjP6LLw&utm_campaign=yelp_api_v3&utm_medium=api_v3_business_search&utm_source=Klanz-jboxl2XzqrjP6LLw", "review_count": 66, "categories": [{"alias": "japanese", "title": "Japanese"}], "rating": 4.0, "coordinates": {"latitude": 37.78387, "longitude": -122.41539}, "transactions": ["delivery"], "price": "$$", "location": {"address1": "466 Eddy St", "address2": null, "address3": "", "city": "San Francisco", "zip_code": "94109", "country": "US", "state": "CA", "display_address": ["466 Eddy St", "San Francisco, CA 94109"]}, "phone": "+14154414987", "display_phone": "(415) 441-4987", "distance": 3151.7324361519964}, {"id": "lL-Zq1hlHreP7qAA2sVqNg", "alias": "basil-thai-restaurant-and-bar-san-francisco", "name": "Basil Thai Restaurant & Bar", "image_url": "https://s3-media4.fl.yelpcdn.com/bphoto/q_BUI3RSKQyQCkvsFYWN1g/o.jpg", "is_closed": false, "url": "https://www.yelp.com/biz/basil-thai-restaurant-and-bar-san-francisco?adjust_creative=Klanz-jboxl2XzqrjP6LLw&utm_campaign=yelp_api_v3&utm_medium=api_v3_business_search&utm_source=Klanz-jboxl2XzqrjP6LLw", "review_count": 1530, "categories": [{"alias": "thai", "title": "Thai"}, {"alias": "bars", "title": "Bars"}], "rating": 4.0, "coordinates": {"latitude": 37.775333404541, "longitude": -122.4091796875}, "transactions": ["pickup", "delivery"], "price": "$$", "location": {"address1": "1175 Folsom St", "address2": "", "address3": "", "city": "San Francisco", "zip_code": "94103", "country": "US", "state": "CA", "display_address": ["1175 Folsom St", "San Francisco, CA 94103"]}, "phone": "+14155528999", "display_phone": "(415) 552-8999", "distance": 2884.5550301301396}, {"id": "OH3GLEJvGhbER4d3xMuPIA", "alias": "betty-lous-seafood-and-grill-san-francisco", "name": "Betty Lou's Seafood and Grill", "image_url": "https://s3-media4.fl.yelpcdn.com/bphoto/FTCwiTI8bYPqJWTebq4bSw/o.jpg", "is_closed": false, "url": "https://www.yelp.com/biz/betty-lous-seafood-and-grill-san-francisco?adjust_creative=Klanz-jboxl2XzqrjP6LLw&utm_campaign=yelp_api_v3&utm_medium=api_v3_business_search&utm_source=Klanz-jboxl2XzqrjP6LLw", "review_count": 886, "categories": [{"alias": "seafood", "title": "Seafood"}, {"alias": "steak", "title": "Steakhouses"}, {"alias": "bars", "title": "Bars"}], "rating": 4.5, "coordinates": {"latitude": 37.798272477416, "longitude": -122.407057508826}, "transactions": ["pickup", "delivery"], "price": "$$", "location": {"address1": "318 Columbus Ave", "address2": "", "address3": null, "city": "San Francisco", "zip_code": "94133", "country": "US", "state": "CA", "display_address": ["318 Columbus Ave", "San Francisco, CA 94133"]}, "phone": "+14157570569", "display_phone": "(415) 757-0569", "distance": 4892.980744272389}, {"id": "udYo3BZ0Y3nR1iOtk58Inw", "alias": "king-of-thai-noodle-house-san-francisco-3", "name": "King Of Thai Noodle House", "image_url": "https://s3-media1.fl.yelpcdn.com/bphoto/qAZZW4E4bdxzbHB0-MypYA/o.jpg", "is_closed": false, "url": "https://www.yelp.com/biz/king-of-thai-noodle-house-san-francisco-3?adjust_creative=Klanz-jboxl2XzqrjP6LLw&utm_campaign=yelp_api_v3&utm_medium=api_v3_business_search&utm_source=Klanz-jboxl2XzqrjP6LLw", "review_count": 1926, "categories": [{"alias": "thai", "title": "Thai"}, {"alias": "noodles", "title": "Noodles"}], "rating": 3.5, "coordinates": {"latitude": 37.786599488702, "longitude": -122.407743582944}, "transactions": ["pickup", "delivery"], "price": "$$", "location": {"address1": "184 O'Farrell St", "address2": null, "address3": "", "city": "San Francisco", "zip_code": "94102", "country": "US", "state": "CA", "display_address": ["184 O'Farrell St", "San Francisco, CA 94102"]}, "phone": "+14156779991", "display_phone": "(415) 677-9991", "distance": 3811.979279242665}, {"id": "SWaPo-ndcw3CzxXrnaiKXg", "alias": "round-n-round-pot-brisbane", "name": "Round N Round Pot", "image_url": "https://s3-media2.fl.yelpcdn.com/bphoto/nYHoQWenYvA5j6Zln2sdHA/o.jpg", "is_closed": false, "url": "https://www.yelp.com/biz/round-n-round-pot-brisbane?adjust_creative=Klanz-jboxl2XzqrjP6LLw&utm_campaign=yelp_api_v3&utm_medium=api_v3_business_search&utm_source=Klanz-jboxl2XzqrjP6LLw", "review_count": 224, "categories": [{"alias": "hotpot", "title": "Hot Pot"}, {"alias": "seafood", "title": "Seafood"}], "rating": 4.0, "coordinates": {"latitude": 37.68563, "longitude": -122.40113}, "transactions": ["pickup", "delivery"], "price": "$$", "location": {"address1": "182 Old County Rd", "address2": null, "address3": "", "city": "Brisbane", "zip_code": "94005", "country": "US", "state": "CA", "display_address": ["182 Old County Rd", "Brisbane, CA 94005"]}, "phone": "+14157158419", "display_phone": "(415) 715-8419", "distance": 8974.15620371769}, {"id": "peBkGcnVAkqR4vAf2uudRg", "alias": "lams-kitchen-mill-valley", "name": "Lam's Kitchen", "image_url": "https://s3-media1.fl.yelpcdn.com/bphoto/eAcZk33dAoy4Q2uq3adyZw/o.jpg", "is_closed": false, "url": "https://www.yelp.com/biz/lams-kitchen-mill-valley?adjust_creative=Klanz-jboxl2XzqrjP6LLw&utm_campaign=yelp_api_v3&utm_medium=api_v3_business_search&utm_source=Klanz-jboxl2XzqrjP6LLw", "review_count": 99, "categories": [{"alias": "chinese", "title": "Chinese"}], "rating": 4.0, "coordinates": {"latitude": 37.9059181, "longitude": -122.5449066}, "transactions": ["delivery"], "price": "$", "location": {"address1": "89 E Blithedale Ave", "address2": "", "address3": "", "city": "Mill Valley", "zip_code": "94941", "country": "US", "state": "CA", "display_address": ["89 E Blithedale Ave", "Mill Valley, CA 94941"]}, "phone": "+14153836368", "display_phone": "(415) 383-6368", "distance": 18722.321763310167}, {"id": "T_8tOL18qiwy9VYR4mnl4Q", "alias": "do-eat-restaurant-san-francisco-3", "name": "Do Eat Restaurant", "image_url": "https://s3-media2.fl.yelpcdn.com/bphoto/qEcmni6YP_tKVm1IFmN7yg/o.jpg", "is_closed": false, "url": "https://www.yelp.com/biz/do-eat-restaurant-san-francisco-3?adjust_creative=Klanz-jboxl2XzqrjP6LLw&utm_campaign=yelp_api_v3&utm_medium=api_v3_business_search&utm_source=Klanz-jboxl2XzqrjP6LLw", "review_count": 51, "categories": [{"alias": "chinese", "title": "Chinese"}], "rating": 4.5, "coordinates": {"latitude": 37.72546, "longitude": -122.43389}, "transactions": ["pickup", "delivery"], "location": {"address1": "4543 Mission St", "address2": null, "address3": null, "city": "San Francisco", "zip_code": "94112", "country": "US", "state": "CA", "display_address": ["4543 Mission St", "San Francisco, CA 94112"]}, "phone": "+14153477263", "display_phone": "(415) 347-7263", "distance": 3947.5245376677763}, {"id": "-BWzndBhl6FG7oW3F-Zemg", "alias": "jade-cafe-san-francisco-2", "name": "Jade Cafe", "image_url": "https://s3-media4.fl.yelpcdn.com/bphoto/O86oKg80eXVAi3jrFbM6Kg/o.jpg", "is_closed": false, "url": "https://www.yelp.com/biz/jade-cafe-san-francisco-2?adjust_creative=Klanz-jboxl2XzqrjP6LLw&utm_campaign=yelp_api_v3&utm_medium=api_v3_business_search&utm_source=Klanz-jboxl2XzqrjP6LLw", "review_count": 326, "categories": [{"alias": "chinese", "title": "Chinese"}], "rating": 3.0, "coordinates": {"latitude": 37.7657898, "longitude": -122.4107051}, "transactions": ["pickup", "delivery"], "price": "$$", "location": {"address1": "1688 Bryant St", "address2": "", "address3": "", "city": "San Francisco", "zip_code": "94103", "country": "US", "state": "CA", "display_address": ["1688 Bryant St", "San Francisco, CA 94103"]}, "phone": "+14155523899", "display_phone": "(415) 552-3899", "distance": 2319.3328577701523}, {"id": "qVCckGPfp66H3RlpE2DTKA", "alias": "tai-yuan-seafood-restaurant-daly-city-3", "name": "Tai Yuan Seafood Restaurant", "image_url": "https://s3-media1.fl.yelpcdn.com/bphoto/uLxiC3MJikk0RtfaHYSktA/o.jpg", "is_closed": false, "url": "https://www.yelp.com/biz/tai-yuan-seafood-restaurant-daly-city-3?adjust_creative=Klanz-jboxl2XzqrjP6LLw&utm_campaign=yelp_api_v3&utm_medium=api_v3_business_search&utm_source=Klanz-jboxl2XzqrjP6LLw", "review_count": 237, "categories": [{"alias": "seafood", "title": "Seafood"}, {"alias": "dimsum", "title": "Dim Sum"}, {"alias": "cantonese", "title": "Cantonese"}], "rating": 3.5, "coordinates": {"latitude": 37.6511953103314, "longitude": -122.468651521426}, "transactions": ["delivery"], "price": "$$", "location": {"address1": "950 King Dr", "address2": "Ste 100", "address3": "King Plaza Shopping Ctr", "city": "Daly City", "zip_code": "94015", "country": "US", "state": "CA", "display_address": ["950 King Dr", "Ste 100", "King Plaza Shopping Ctr", "Daly City, CA 94015"]}, "phone": "+16508788833", "display_phone": "(650) 878-8833", "distance": 12523.197350798022}, {"id": "7dHj1XDVA_7AYXTfp5i-BQ", "alias": "momo-noodle-san-francisco", "name": "MOMO noodle", "image_url": "https://s3-media3.fl.yelpcdn.com/bphoto/PLMiHaE7EZgSvPetGq5A4Q/o.jpg", "is_closed": false, "url": "https://www.yelp.com/biz/momo-noodle-san-francisco?adjust_creative=Klanz-jboxl2XzqrjP6LLw&utm_campaign=yelp_api_v3&utm_medium=api_v3_business_search&utm_source=Klanz-jboxl2XzqrjP6LLw", "review_count": 92, "categories": [{"alias": "noodles", "title": "Noodles"}, {"alias": "foodtrucks", "title": "Food Trucks"}, {"alias": "szechuan", "title": "Szechuan"}], "rating": 4.0, "coordinates": {"latitude": 37.791053771972656, "longitude": -122.40193176269531}, "transactions": ["pickup", "delivery"], "price": "$$", "location": {"address1": null, "address2": null, "address3": "", "city": "San Francisco", "zip_code": "94104", "country": "US", "state": "CA", "display_address": ["San Francisco, CA 94104"]}, "phone": "+14088006819", "display_phone": "(408) 800-6819", "distance": 4515.158571947758}, {"id": "reY7L8hLSyh7pU1Etcfvpw", "alias": "dim-sum-bistro-san-francisco", "name": "Dim Sum Bistro", "image_url": "https://s3-media1.fl.yelpcdn.com/bphoto/R_hcoIw4hAoi4Rwu-ZIy5Q/o.jpg", "is_closed": false, "url": "https://www.yelp.com/biz/dim-sum-bistro-san-francisco?adjust_creative=Klanz-jboxl2XzqrjP6LLw&utm_campaign=yelp_api_v3&utm_medium=api_v3_business_search&utm_source=Klanz-jboxl2XzqrjP6LLw", "review_count": 270, "categories": [{"alias": "dimsum", "title": "Dim Sum"}, {"alias": "cantonese", "title": "Cantonese"}], "rating": 4.5, "coordinates": {"latitude": 37.797573921462984, "longitude": -122.40816501990909}, "transactions": ["pickup", "delivery"], "price": "$", "location": {"address1": "675 Broadway", "address2": "", "address3": "", "city": "San Francisco", "zip_code": "94133", "country": "US", "state": "CA", "display_address": ["675 Broadway", "San Francisco, CA 94133"]}, "phone": "+14157887028", "display_phone": "(415) 788-7028", "distance": 4775.816240740137}, {"id": "xIrCKSeHRJvNdxKkkluc3A", "alias": "dumpling-specialist-san-francisco-2", "name": "Dumpling Specialist", "image_url": "https://s3-media1.fl.yelpcdn.com/bphoto/31mK601AegG2XUfHpCu6ag/o.jpg", "is_closed": false, "url": "https://www.yelp.com/biz/dumpling-specialist-san-francisco-2?adjust_creative=Klanz-jboxl2XzqrjP6LLw&utm_campaign=yelp_api_v3&utm_medium=api_v3_business_search&utm_source=Klanz-jboxl2XzqrjP6LLw", "review_count": 188, "categories": [{"alias": "shanghainese", "title": "Shanghainese"}, {"alias": "taiwanese", "title": "Taiwanese"}], "rating": 4.5, "coordinates": {"latitude": 37.74278, "longitude": -122.47815}, "transactions": ["pickup", "delivery"], "price": "$", "location": {"address1": "1119-1123 Taraval", "address2": "", "address3": null, "city": "San Francisco", "zip_code": "94116", "country": "US", "state": "CA", "display_address": ["1119-1123 Taraval", "San Francisco, CA 94116"]}, "phone": "+14156401403", "display_phone": "(415) 640-1403", "distance": 4196.320561647154}, {"id": "Q25GDNRvf4dKzgwWli2oCg", "alias": "shanghai-house-san-francisco", "name": "Shanghai House", "image_url": "https://s3-media2.fl.yelpcdn.com/bphoto/doOYFo6e84-udtJSs03gJw/o.jpg", "is_closed": false, "url": "https://www.yelp.com/biz/shanghai-house-san-francisco?adjust_creative=Klanz-jboxl2XzqrjP6LLw&utm_campaign=yelp_api_v3&utm_medium=api_v3_business_search&utm_source=Klanz-jboxl2XzqrjP6LLw", "review_count": 707, "categories": [{"alias": "shanghainese", "title": "Shanghainese"}, {"alias": "dimsum", "title": "Dim Sum"}], "rating": 3.5, "coordinates": {"latitude": 37.77545984012968, "longitude": -122.49808535767012}, "transactions": ["delivery"], "price": "$$", "location": {"address1": "3641 Balboa St", "address2": null, "address3": "", "city": "San Francisco", "zip_code": "94121", "country": "US", "state": "CA", "display_address": ["3641 Balboa St", "San Francisco, CA 94121"]}, "phone": "+14158319288", "display_phone": "(415) 831-9288", "distance": 5654.673591382006}, {"id": "ZiTRspDPY9T_kh4tQDwDMQ", "alias": "pacific-cafe-san-francisco", "name": "Pacific Cafe", "image_url": "https://s3-media2.fl.yelpcdn.com/bphoto/1cXnFvCcvZ3SOPqeXxjmLQ/o.jpg", "is_closed": false, "url": "https://www.yelp.com/biz/pacific-cafe-san-francisco?adjust_creative=Klanz-jboxl2XzqrjP6LLw&utm_campaign=yelp_api_v3&utm_medium=api_v3_business_search&utm_source=Klanz-jboxl2XzqrjP6LLw", "review_count": 772, "categories": [{"alias": "seafood", "title": "Seafood"}], "rating": 4.0, "coordinates": {"latitude": 37.77994, "longitude": -122.49457}, "transactions": ["delivery"], "price": "$$", "location": {"address1": "7000 Geary Blvd", "address2": "", "address3": "", "city": "San Francisco", "zip_code": "94121", "country": "US", "state": "CA", "display_address": ["7000 Geary Blvd", "San Francisco, CA 94121"]}, "phone": "+14153877091", "display_phone": "(415) 387-7091", "distance": 5527.200004505452}, {"id": "Kw7JHvbA13NNVp6y6qHkqA", "alias": "da-lian-berkeley", "name": "Da Lian", "image_url": "https://s3-media3.fl.yelpcdn.com/bphoto/kcKdip3DFf5WXv5LSdY3KQ/o.jpg", "is_closed": false, "url": "https://www.yelp.com/biz/da-lian-berkeley?adjust_creative=Klanz-jboxl2XzqrjP6LLw&utm_campaign=yelp_api_v3&utm_medium=api_v3_business_search&utm_source=Klanz-jboxl2XzqrjP6LLw", "review_count": 425, "categories": [{"alias": "chinese", "title": "Chinese"}], "rating": 4.0, "coordinates": {"latitude": 37.877052, "longitude": -122.269053}, "transactions": ["delivery"], "price": "$$", "location": {"address1": "1674 Shattuck Ave", "address2": null, "address3": "", "city": "Berkeley", "zip_code": "94709", "country": "US", "state": "CA", "display_address": ["1674 Shattuck Ave", "Berkeley, CA 94709"]}, "phone": "+15108831883", "display_phone": "(510) 883-1883", "distance": 19570.620974360583}, {"id": "0w6dNMrpBQFLxhVYqx_J5Q", "alias": "red-jade-san-francisco", "name": "Red Jade", "image_url": "https://s3-media4.fl.yelpcdn.com/bphoto/Nqk8tgHPYbsfLaSfQUEALw/o.jpg", "is_closed": false, "url": "https://www.yelp.com/biz/red-jade-san-francisco?adjust_creative=Klanz-jboxl2XzqrjP6LLw&utm_campaign=yelp_api_v3&utm_medium=api_v3_business_search&utm_source=Klanz-jboxl2XzqrjP6LLw", "review_count": 818, "categories": [{"alias": "chinese", "title": "Chinese"}], "rating": 3.5, "coordinates": {"latitude": 37.7668495178223, "longitude": -122.428527832031}, "transactions": ["pickup", "delivery"], "price": "$$", "location": {"address1": "245 Church St", "address2": null, "address3": "", "city": "San Francisco", "zip_code": "94114", "country": "US", "state": "CA", "display_address": ["245 Church St", "San Francisco, CA 94114"]}, "phone": "+14156213020", "display_phone": "(415) 621-3020", "distance": 958.1814015078733}, {"id": "3iEHqnB-kwsZqRNea3US_w", "alias": "hunan-cafe-2-san-francisco-2", "name": "Hunan Cafe 2", "image_url": "https://s3-media1.fl.yelpcdn.com/bphoto/lkH99XVNLkzR2sl7oq08Yg/o.jpg", "is_closed": false, "url": "https://www.yelp.com/biz/hunan-cafe-2-san-francisco-2?adjust_creative=Klanz-jboxl2XzqrjP6LLw&utm_campaign=yelp_api_v3&utm_medium=api_v3_business_search&utm_source=Klanz-jboxl2XzqrjP6LLw", "review_count": 418, "categories": [{"alias": "chinese", "title": "Chinese"}, {"alias": "noodles", "title": "Noodles"}, {"alias": "soup", "title": "Soup"}], "rating": 4.0, "coordinates": {"latitude": 37.773535, "longitude": -122.506693}, "transactions": ["delivery"], "price": "$", "location": {"address1": "4450 Cabrillo St", "address2": "", "address3": "", "city": "San Francisco", "zip_code": "94121", "country": "US", "state": "CA", "display_address": ["4450 Cabrillo St", "San Francisco, CA 94121"]}, "phone": "+14157511283", "display_phone": "(415) 751-1283", "distance": 6332.454300340918}, {"id": "DeGdhZKXoTnyyFc8GC2BHg", "alias": "waterfront-restaurant-san-francisco-5", "name": "Waterfront Restaurant", "image_url": "https://s3-media3.fl.yelpcdn.com/bphoto/mmTLhmJ_0tsrGSq5p1_XJA/o.jpg", "is_closed": false, "url": "https://www.yelp.com/biz/waterfront-restaurant-san-francisco-5?adjust_creative=Klanz-jboxl2XzqrjP6LLw&utm_campaign=yelp_api_v3&utm_medium=api_v3_business_search&utm_source=Klanz-jboxl2XzqrjP6LLw", "review_count": 1274, "categories": [{"alias": "seafood", "title": "Seafood"}, {"alias": "tradamerican", "title": "American (Traditional)"}], "rating": 3.0, "coordinates": {"latitude": 37.7993774767812, "longitude": -122.397444471717}, "transactions": ["delivery"], "price": "$$$", "location": {"address1": "Pier 7 The Embarcadero", "address2": "", "address3": "", "city": "San Francisco", "zip_code": "94111", "country": "US", "state": "CA", "display_address": ["Pier 7 The Embarcadero", "San Francisco, CA 94111"]}, "phone": "+14153912696", "display_phone": "(415) 391-2696", "distance": 5482.290107314}, {"id": "EztBa2wTrc8z3DAF0YhtpQ", "alias": "mamanoko-san-francisco-2", "name": "Mamanoko", "image_url": "https://s3-media1.fl.yelpcdn.com/bphoto/88GoHopFjJKv3wBs9V5X6g/o.jpg", "is_closed": false, "url": "https://www.yelp.com/biz/mamanoko-san-francisco-2?adjust_creative=Klanz-jboxl2XzqrjP6LLw&utm_campaign=yelp_api_v3&utm_medium=api_v3_business_search&utm_source=Klanz-jboxl2XzqrjP6LLw", "review_count": 337, "categories": [{"alias": "japanese", "title": "Japanese"}, {"alias": "cocktailbars", "title": "Cocktail Bars"}, {"alias": "sushi", "title": "Sushi Bars"}], "rating": 4.5, "coordinates": {"latitude": 37.7999557, "longitude": -122.4414378}, "transactions": ["restaurant_reservation", "delivery"], "price": "$$", "location": {"address1": "2317 Chestnut St", "address2": "", "address3": null, "city": "San Francisco", "zip_code": "94123", "country": "US", "state": "CA", "display_address": ["2317 Chestnut St", "San Francisco, CA 94123"]}, "phone": "+14153468494", "display_phone": "(415) 346-8494", "distance": 4364.950481558414}, {"id": "fV-FyAnmdzJr9gAKtotXiA", "alias": "kamekyo-san-francisco", "name": "Kamekyo", "image_url": "https://s3-media3.fl.yelpcdn.com/bphoto/NXvglXhduBB-1bggDAuWrA/o.jpg", "is_closed": false, "url": "https://www.yelp.com/biz/kamekyo-san-francisco?adjust_creative=Klanz-jboxl2XzqrjP6LLw&utm_campaign=yelp_api_v3&utm_medium=api_v3_business_search&utm_source=Klanz-jboxl2XzqrjP6LLw", "review_count": 251, "categories": [{"alias": "sushi", "title": "Sushi Bars"}, {"alias": "japanese", "title": "Japanese"}, {"alias": "salad", "title": "Salad"}], "rating": 3.5, "coordinates": {"latitude": 37.7651946, "longitude": -122.4500132}, "transactions": ["delivery"], "price": "$$", "location": {"address1": "943 Cole St", "address2": "", "address3": "", "city": "San Francisco", "zip_code": "94117", "country": "US", "state": "CA", "display_address": ["943 Cole St", "San Francisco, CA 94117"]}, "phone": "+14157598428", "display_phone": "(415) 759-8428", "distance": 1284.6099506993392}, {"id": "Jc5l9gRCYb6EXY7mg9BRLQ", "alias": "sunflower-garden-san-francisco", "name": "Sunflower Garden", "image_url": "https://s3-media3.fl.yelpcdn.com/bphoto/k6bs1UvBEJdVIsyFZ3OxFQ/o.jpg", "is_closed": false, "url": "https://www.yelp.com/biz/sunflower-garden-san-francisco?adjust_creative=Klanz-jboxl2XzqrjP6LLw&utm_campaign=yelp_api_v3&utm_medium=api_v3_business_search&utm_source=Klanz-jboxl2XzqrjP6LLw", "review_count": 204, "categories": [{"alias": "vietnamese", "title": "Vietnamese"}], "rating": 4.0, "coordinates": {"latitude": 37.76281, "longitude": -122.46589}, "transactions": ["pickup", "delivery"], "price": "$$", "location": {"address1": "1368 9th Ave", "address2": "", "address3": null, "city": "San Francisco", "zip_code": "94122", "country": "US", "state": "CA", "display_address": ["1368 9th Ave", "San Francisco, CA 94122"]}, "phone": "+14155718850", "display_phone": "(415) 571-8850", "distance": 2605.362830679326}, {"id": "6mimgHs5Zp92w10yy5TjzA", "alias": "tang-bar-san-francisco", "name": "Tang Bar", "image_url": "https://s3-media2.fl.yelpcdn.com/bphoto/oV0YToAoSUaxWtx_AyI7Yg/o.jpg", "is_closed": false, "url": "https://www.yelp.com/biz/tang-bar-san-francisco?adjust_creative=Klanz-jboxl2XzqrjP6LLw&utm_campaign=yelp_api_v3&utm_medium=api_v3_business_search&utm_source=Klanz-jboxl2XzqrjP6LLw", "review_count": 185, "categories": [{"alias": "szechuan", "title": "Szechuan"}, {"alias": "noodles", "title": "Noodles"}, {"alias": "hotpot", "title": "Hot Pot"}], "rating": 4.0, "coordinates": {"latitude": 37.728083291061026, "longitude": -122.47708348221732}, "transactions": ["pickup", "delivery"], "price": "$$", "location": {"address1": "3251 20th Ave", "address2": "Level 2", "address3": null, "city": "San Francisco", "zip_code": "94132", "country": "US", "state": "CA", "display_address": ["3251 20th Ave", "Level 2", "San Francisco, CA 94132"]}, "phone": "+16282709876", "display_phone": "(628) 270-9876", "distance": 5107.018507553951}, {"id": "Z3gYoBTTXniIBOLU_6haMQ", "alias": "the-pots-hot-pot-buffet-san-francisco-2", "name": "The Pots Hot Pot Buffet", "image_url": "https://s3-media3.fl.yelpcdn.com/bphoto/VDfAEsl0cUPdQo6MhZ3m5A/o.jpg", "is_closed": false, "url": "https://www.yelp.com/biz/the-pots-hot-pot-buffet-san-francisco-2?adjust_creative=Klanz-jboxl2XzqrjP6LLw&utm_campaign=yelp_api_v3&utm_medium=api_v3_business_search&utm_source=Klanz-jboxl2XzqrjP6LLw", "review_count": 751, "categories": [{"alias": "chinese", "title": "Chinese"}, {"alias": "hotpot", "title": "Hot Pot"}, {"alias": "vietnamese", "title": "Vietnamese"}], "rating": 4.0, "coordinates": {"latitude": 37.76129, "longitude": -122.49071}, "transactions": ["pickup", "delivery"], "price": "$$$", "location": {"address1": "2652 Judah St", "address2": "", "address3": "", "city": "San Francisco", "zip_code": "94122", "country": "US", "state": "CA", "display_address": ["2652 Judah St", "San Francisco, CA 94122"]}, "phone": "+14156827889", "display_phone": "(415) 682-7889", "distance": 4773.601353112841}, {"id": "WWZtA0b7hY-4n19e2F4rbw", "alias": "capital-restaurant-san-francisco", "name": "Capital Restaurant", "image_url": "https://s3-media1.fl.yelpcdn.com/bphoto/V1L9IxynTXTKurxQ3n52IQ/o.jpg", "is_closed": false, "url": "https://www.yelp.com/biz/capital-restaurant-san-francisco?adjust_creative=Klanz-jboxl2XzqrjP6LLw&utm_campaign=yelp_api_v3&utm_medium=api_v3_business_search&utm_source=Klanz-jboxl2XzqrjP6LLw", "review_count": 738, "categories": [{"alias": "chinese", "title": "Chinese"}], "rating": 4.0, "coordinates": {"latitude": 37.7939949035645, "longitude": -122.407066345215}, "transactions": ["pickup", "delivery"], "price": "$$", "location": {"address1": "839 Clay St", "address2": "", "address3": "", "city": "San Francisco", "zip_code": "94108", "country": "US", "state": "CA", "display_address": ["839 Clay St", "San Francisco, CA 94108"]}, "phone": "+14153976269", "display_phone": "(415) 397-6269", "distance": 4496.259734527878}, {"id": "iUockw0CUssKZLyoGJYEXA", "alias": "cuisine-of-nepal-san-francisco", "name": "Cuisine of Nepal", "image_url": "https://s3-media4.fl.yelpcdn.com/bphoto/Ps6UvrXCnzj3UJT1f1372w/o.jpg", "is_closed": false, "url": "https://www.yelp.com/biz/cuisine-of-nepal-san-francisco?adjust_creative=Klanz-jboxl2XzqrjP6LLw&utm_campaign=yelp_api_v3&utm_medium=api_v3_business_search&utm_source=Klanz-jboxl2XzqrjP6LLw", "review_count": 651, "categories": [{"alias": "himalayan", "title": "Himalayan/Nepalese"}, {"alias": "indpak", "title": "Indian"}, {"alias": "catering", "title": "Caterers"}], "rating": 4.5, "coordinates": {"latitude": 37.74097, "longitude": -122.42318}, "transactions": ["restaurant_reservation", "pickup", "delivery"], "price": "$$", "location": {"address1": "3486 Mission St", "address2": "", "address3": "", "city": "San Francisco", "zip_code": "94110", "country": "US", "state": "CA", "display_address": ["3486 Mission St", "San Francisco, CA 94110"]}, "phone": "+14156472222", "display_phone": "(415) 647-2222", "distance": 2502.4258088476086}, {"id": "qKmtzhb79_GSCDdq8Bf2wA", "alias": "kusan-uyghur-cuisine-san-francisco", "name": "K\u00fcsan Uyghur Cuisine", "image_url": "https://s3-media4.fl.yelpcdn.com/bphoto/-kgeCdlZiTX9jEt-TTmkxQ/o.jpg", "is_closed": false, "url": "https://www.yelp.com/biz/kusan-uyghur-cuisine-san-francisco?adjust_creative=Klanz-jboxl2XzqrjP6LLw&utm_campaign=yelp_api_v3&utm_medium=api_v3_business_search&utm_source=Klanz-jboxl2XzqrjP6LLw", "review_count": 28, "categories": [{"alias": "halal", "title": "Halal"}, {"alias": "asianfusion", "title": "Asian Fusion"}, {"alias": "mideastern", "title": "Middle Eastern"}], "rating": 4.0, "coordinates": {"latitude": 37.736758, "longitude": -122.405313}, "transactions": ["pickup", "delivery"], "location": {"address1": "90 Charter Oak Ave", "address2": null, "address3": "", "city": "San Francisco", "zip_code": "95124", "country": "US", "state": "CA", "display_address": ["90 Charter Oak Ave", "San Francisco, CA 95124"]}, "phone": "+16282042555", "display_phone": "(628) 204-2555", "distance": 3833.954795804515}, {"id": "u-obmxevldBOidDYkL8J6w", "alias": "green-island-restaurant-san-francisco", "name": "Green Island Restaurant", "image_url": "https://s3-media4.fl.yelpcdn.com/bphoto/iiTv6H2DwbIHCD3xmYTZHw/o.jpg", "is_closed": false, "url": "https://www.yelp.com/biz/green-island-restaurant-san-francisco?adjust_creative=Klanz-jboxl2XzqrjP6LLw&utm_campaign=yelp_api_v3&utm_medium=api_v3_business_search&utm_source=Klanz-jboxl2XzqrjP6LLw", "review_count": 150, "categories": [{"alias": "chinese", "title": "Chinese"}], "rating": 3.5, "coordinates": {"latitude": 37.78141, "longitude": -122.46244}, "transactions": ["pickup", "delivery"], "price": "$$", "location": {"address1": "4012 Geary Blvd", "address2": "", "address3": "", "city": "San Francisco", "zip_code": "94118", "country": "US", "state": "CA", "display_address": ["4012 Geary Blvd", "San Francisco, CA 94118"]}, "phone": "+14153879600", "display_phone": "(415) 387-9600", "distance": 3227.7098438413486}, {"id": "ydRU8jEKxt0X5PQdP4VdRQ", "alias": "miki-restaurant-san-francisco", "name": "Miki Restaurant", "image_url": "https://s3-media4.fl.yelpcdn.com/bphoto/pRLIgJydOi4mBJCwhIEhtA/o.jpg", "is_closed": false, "url": "https://www.yelp.com/biz/miki-restaurant-san-francisco?adjust_creative=Klanz-jboxl2XzqrjP6LLw&utm_campaign=yelp_api_v3&utm_medium=api_v3_business_search&utm_source=Klanz-jboxl2XzqrjP6LLw", "review_count": 500, "categories": [{"alias": "ramen", "title": "Ramen"}, {"alias": "noodles", "title": "Noodles"}, {"alias": "sushi", "title": "Sushi Bars"}], "rating": 4.0, "coordinates": {"latitude": 37.77547, "longitude": -122.49795}, "transactions": ["pickup", "delivery"], "price": "$$", "location": {"address1": "3639 Balboa St", "address2": "", "address3": "", "city": "San Francisco", "zip_code": "94121", "country": "US", "state": "CA", "display_address": ["3639 Balboa St", "San Francisco, CA 94121"]}, "phone": "+14153870874", "display_phone": "(415) 387-0874", "distance": 5646.347982310064}, {"id": "TziNBtSNQfRszP5QIJciIg", "alias": "tsing-tao-chinese-san-francisco", "name": "Tsing Tao Chinese", "image_url": "https://s3-media1.fl.yelpcdn.com/bphoto/_KC1vmyZiuEMN_6xVXsdJQ/o.jpg", "is_closed": false, "url": "https://www.yelp.com/biz/tsing-tao-chinese-san-francisco?adjust_creative=Klanz-jboxl2XzqrjP6LLw&utm_campaign=yelp_api_v3&utm_medium=api_v3_business_search&utm_source=Klanz-jboxl2XzqrjP6LLw", "review_count": 312, "categories": [{"alias": "chinese", "title": "Chinese"}], "rating": 3.5, "coordinates": {"latitude": 37.781527, "longitude": -122.492603}, "transactions": ["pickup", "delivery"], "price": "$", "location": {"address1": "3107 Clement St", "address2": "", "address3": "", "city": "San Francisco", "zip_code": "94121", "country": "US", "state": "CA", "display_address": ["3107 Clement St", "San Francisco, CA 94121"]}, "phone": "+14153872344", "display_phone": "(415) 387-2344", "distance": 5442.746556555182}, {"id": "6bc2FmFGzrcEvXcS2cOeeA", "alias": "b-star-san-francisco-2", "name": "B Star", "image_url": "https://s3-media3.fl.yelpcdn.com/bphoto/gaI6CuT2BVF4MmEXd7BboA/o.jpg", "is_closed": false, "url": "https://www.yelp.com/biz/b-star-san-francisco-2?adjust_creative=Klanz-jboxl2XzqrjP6LLw&utm_campaign=yelp_api_v3&utm_medium=api_v3_business_search&utm_source=Klanz-jboxl2XzqrjP6LLw", "review_count": 1960, "categories": [{"alias": "burmese", "title": "Burmese"}, {"alias": "asianfusion", "title": "Asian Fusion"}, {"alias": "breakfast_brunch", "title": "Breakfast & Brunch"}], "rating": 4.0, "coordinates": {"latitude": 37.78298, "longitude": -122.46065}, "transactions": ["restaurant_reservation", "delivery", "pickup"], "price": "$$", "location": {"address1": "127 Clement St", "address2": "", "address3": "", "city": "San Francisco", "zip_code": "94118", "country": "US", "state": "CA", "display_address": ["127 Clement St", "San Francisco, CA 94118"]}, "phone": "+14159339900", "display_phone": "(415) 933-9900", "distance": 3250.311803877976}, {"id": "8iU_Gr2XdRt9D67g8B6pLA", "alias": "nabe-san-francisco-5", "name": "Nabe", "image_url": "https://s3-media4.fl.yelpcdn.com/bphoto/ylMslGdeX5mBI9Mk0g45tg/o.jpg", "is_closed": false, "url": "https://www.yelp.com/biz/nabe-san-francisco-5?adjust_creative=Klanz-jboxl2XzqrjP6LLw&utm_campaign=yelp_api_v3&utm_medium=api_v3_business_search&utm_source=Klanz-jboxl2XzqrjP6LLw", "review_count": 264, "categories": [{"alias": "hotpot", "title": "Hot Pot"}, {"alias": "japanese", "title": "Japanese"}], "rating": 4.5, "coordinates": {"latitude": 37.7994842529297, "longitude": -122.436813354492}, "transactions": ["pickup", "delivery"], "price": "$$", "location": {"address1": "2151 Lombard St", "address2": "", "address3": null, "city": "San Francisco", "zip_code": "94123", "country": "US", "state": "CA", "display_address": ["2151 Lombard St", "San Francisco, CA 94123"]}, "phone": "+14156139288", "display_phone": "(415) 613-9288", "distance": 4293.277673090093}, {"id": "0piv8Y-TaJltsQDhu4Ngwg", "alias": "ming-hui-dim-sum-san-francisco", "name": "Ming Hui Dim Sum", "image_url": "https://s3-media3.fl.yelpcdn.com/bphoto/1jTdyxHMgszycLAJPEeLpw/o.jpg", "is_closed": false, "url": "https://www.yelp.com/biz/ming-hui-dim-sum-san-francisco?adjust_creative=Klanz-jboxl2XzqrjP6LLw&utm_campaign=yelp_api_v3&utm_medium=api_v3_business_search&utm_source=Klanz-jboxl2XzqrjP6LLw", "review_count": 46, "categories": [{"alias": "dimsum", "title": "Dim Sum"}, {"alias": "bakeries", "title": "Bakeries"}], "rating": 4.0, "coordinates": {"latitude": 37.7305240809599, "longitude": -122.404693529567}, "transactions": [], "price": "$", "location": {"address1": "2495 San Bruno Ave", "address2": "", "address3": null, "city": "San Francisco", "zip_code": "94134", "country": "US", "state": "CA", "display_address": ["2495 San Bruno Ave", "San Francisco, CA 94134"]}, "phone": "+14154686188", "display_phone": "(415) 468-6188", "distance": 4382.128477100436}, {"id": "1nzk92bfVUq-NSNsilrmQQ", "alias": "new-mings-restaurant-san-francisco", "name": "New Ming's Restaurant", "image_url": "https://s3-media4.fl.yelpcdn.com/bphoto/CGlM3EDlFiK3qZggPCv3gg/o.jpg", "is_closed": false, "url": "https://www.yelp.com/biz/new-mings-restaurant-san-francisco?adjust_creative=Klanz-jboxl2XzqrjP6LLw&utm_campaign=yelp_api_v3&utm_medium=api_v3_business_search&utm_source=Klanz-jboxl2XzqrjP6LLw", "review_count": 411, "categories": [{"alias": "chinese", "title": "Chinese"}, {"alias": "seafood", "title": "Seafood"}], "rating": 3.5, "coordinates": {"latitude": 37.7870716, "longitude": -122.4008016}, "transactions": ["pickup", "delivery"], "price": "$$", "location": {"address1": "641 Mission St", "address2": null, "address3": "", "city": "San Francisco", "zip_code": "94105", "country": "US", "state": "CA", "display_address": ["641 Mission St", "San Francisco, CA 94105"]}, "phone": "+14152274798", "display_phone": "(415) 227-4798", "distance": 4276.07119143728}, {"id": "DwePUiESfE5Ij8_9sYwV7Q", "alias": "tsing-tao-restaurant-san-francisco-2", "name": "Tsing Tao Restaurant", "image_url": "https://s3-media2.fl.yelpcdn.com/bphoto/-Rnh0wc-bGYkUds7Aia5lA/o.jpg", "is_closed": false, "url": "https://www.yelp.com/biz/tsing-tao-restaurant-san-francisco-2?adjust_creative=Klanz-jboxl2XzqrjP6LLw&utm_campaign=yelp_api_v3&utm_medium=api_v3_business_search&utm_source=Klanz-jboxl2XzqrjP6LLw", "review_count": 197, "categories": [{"alias": "chinese", "title": "Chinese"}, {"alias": "seafood", "title": "Seafood"}], "rating": 3.0, "coordinates": {"latitude": 37.77981, "longitude": -122.43226}, "transactions": ["pickup", "delivery"], "price": "$", "location": {"address1": "1117 Fillmore St", "address2": "", "address3": "", "city": "San Francisco", "zip_code": "94115", "country": "US", "state": "CA", "display_address": ["1117 Fillmore St", "San Francisco, CA 94115"]}, "phone": "+14154098818", "display_phone": "(415) 409-8818", "distance": 2153.576067789967}, {"id": "6HvY8EnovnQEsEWNEE9UBw", "alias": "dim-sum-kitchen-san-francisco", "name": "Dim Sum Kitchen", "image_url": "https://s3-media1.fl.yelpcdn.com/bphoto/aRtJB0pH7yyIOXJ_McmTqQ/o.jpg", "is_closed": false, "url": "https://www.yelp.com/biz/dim-sum-kitchen-san-francisco?adjust_creative=Klanz-jboxl2XzqrjP6LLw&utm_campaign=yelp_api_v3&utm_medium=api_v3_business_search&utm_source=Klanz-jboxl2XzqrjP6LLw", "review_count": 59, "categories": [{"alias": "dimsum", "title": "Dim Sum"}, {"alias": "cantonese", "title": "Cantonese"}, {"alias": "buffets", "title": "Buffets"}], "rating": 3.0, "coordinates": {"latitude": 37.72965, "longitude": -122.40472}, "transactions": ["pickup", "delivery"], "price": "$$", "location": {"address1": "2520 San Bruno Ave", "address2": "", "address3": null, "city": "San Francisco", "zip_code": "94134", "country": "US", "state": "CA", "display_address": ["2520 San Bruno Ave", "San Francisco, CA 94134"]}, "phone": "+14154677945", "display_phone": "(415) 467-7945", "distance": 4450.059740684807}, {"id": "-ih1LY3Mn1-uc1yPjYpmMA", "alias": "thai-nghiep-ky-mi-gia-san-francisco", "name": "Thai Nghiep Ky Mi Gia", "image_url": "https://s3-media1.fl.yelpcdn.com/bphoto/HoBCq2fZ75LyJqUczvAyVg/o.jpg", "is_closed": false, "url": "https://www.yelp.com/biz/thai-nghiep-ky-mi-gia-san-francisco?adjust_creative=Klanz-jboxl2XzqrjP6LLw&utm_campaign=yelp_api_v3&utm_medium=api_v3_business_search&utm_source=Klanz-jboxl2XzqrjP6LLw", "review_count": 485, "categories": [{"alias": "vietnamese", "title": "Vietnamese"}, {"alias": "chinese", "title": "Chinese"}, {"alias": "noodles", "title": "Noodles"}], "rating": 4.5, "coordinates": {"latitude": 37.753965, "longitude": -122.479139}, "transactions": ["delivery"], "price": "$$", "location": {"address1": "1427 Noriega St", "address2": "", "address3": "", "city": "San Francisco", "zip_code": "94122", "country": "US", "state": "CA", "display_address": ["1427 Noriega St", "San Francisco, CA 94122"]}, "phone": "+14156828528", "display_phone": "(415) 682-8528", "distance": 3831.503745166982}, {"id": "KkAVX3Wb7E3lP5F_f_8pXg", "alias": "liholiho-yacht-club-san-francisco-2", "name": "Liholiho Yacht Club", "image_url": "https://s3-media1.fl.yelpcdn.com/bphoto/DluAA2YbM8k6qRM_mwbiNw/o.jpg", "is_closed": false, "url": "https://www.yelp.com/biz/liholiho-yacht-club-san-francisco-2?adjust_creative=Klanz-jboxl2XzqrjP6LLw&utm_campaign=yelp_api_v3&utm_medium=api_v3_business_search&utm_source=Klanz-jboxl2XzqrjP6LLw", "review_count": 2507, "categories": [{"alias": "bars", "title": "Bars"}, {"alias": "newamerican", "title": "American (New)"}, {"alias": "seafood", "title": "Seafood"}], "rating": 4.5, "coordinates": {"latitude": 37.7882427074202, "longitude": -122.41460979599208}, "transactions": ["delivery"], "price": "$$$", "location": {"address1": "871 Sutter St", "address2": null, "address3": "", "city": "San Francisco", "zip_code": "94109", "country": "US", "state": "CA", "display_address": ["871 Sutter St", "San Francisco, CA 94109"]}, "phone": "+14154405446", "display_phone": "(415) 440-5446", "distance": 3595.554401991817}, {"id": "bMCss-xNW2DRnC4QH2Y_gw", "alias": "yummy-dumpling-san-francisco", "name": "Yummy Dumpling", "image_url": "https://s3-media4.fl.yelpcdn.com/bphoto/OaYcsqBeFn0M5MA3AC5rmw/o.jpg", "is_closed": false, "url": "https://www.yelp.com/biz/yummy-dumpling-san-francisco?adjust_creative=Klanz-jboxl2XzqrjP6LLw&utm_campaign=yelp_api_v3&utm_medium=api_v3_business_search&utm_source=Klanz-jboxl2XzqrjP6LLw", "review_count": 168, "categories": [{"alias": "diyfood", "title": "Do-It-Yourself Food"}, {"alias": "chinese", "title": "Chinese"}], "rating": 4.5, "coordinates": {"latitude": 37.7637346, "longitude": -122.4761766}, "transactions": ["delivery"], "price": "$", "location": {"address1": "1708 Irving St", "address2": "", "address3": "", "city": "San Francisco", "zip_code": "94122", "country": "US", "state": "CA", "display_address": ["1708 Irving St", "San Francisco, CA 94122"]}, "phone": "+14157539308", "display_phone": "(415) 753-9308", "distance": 3526.603020882354}, {"id": "ABi13JzSrz_k-bnchjuosA", "alias": "club-maharlika-daly-city", "name": "Club Maharlika", "image_url": "https://s3-media4.fl.yelpcdn.com/bphoto/DYMBmeZZBlMSPDTkKImHRw/o.jpg", "is_closed": false, "url": "https://www.yelp.com/biz/club-maharlika-daly-city?adjust_creative=Klanz-jboxl2XzqrjP6LLw&utm_campaign=yelp_api_v3&utm_medium=api_v3_business_search&utm_source=Klanz-jboxl2XzqrjP6LLw", "review_count": 28, "categories": [{"alias": "filipino", "title": "Filipino"}, {"alias": "beer_and_wine", "title": "Beer, Wine & Spirits"}, {"alias": "importedfood", "title": "Imported Food"}], "rating": 2.5, "coordinates": {"latitude": 37.6904296875, "longitude": -122.465171813965}, "transactions": ["delivery"], "price": "$$", "location": {"address1": "7367 Mission St", "address2": "", "address3": "", "city": "Daly City", "zip_code": "94014", "country": "US", "state": "CA", "display_address": ["7367 Mission St", "Daly City, CA 94014"]}, "phone": "+16509928953", "display_phone": "(650) 992-8953", "distance": 8246.92470884583}, {"id": "d74oNV0yHMfZPVoYy9Ha8A", "alias": "jang-soo-bbq-san-francisco", "name": "Jang Soo BBQ", "image_url": "https://s3-media2.fl.yelpcdn.com/bphoto/HHdKsjKTAZHW2RBI0VETaA/o.jpg", "is_closed": false, "url": "https://www.yelp.com/biz/jang-soo-bbq-san-francisco?adjust_creative=Klanz-jboxl2XzqrjP6LLw&utm_campaign=yelp_api_v3&utm_medium=api_v3_business_search&utm_source=Klanz-jboxl2XzqrjP6LLw", "review_count": 598, "categories": [{"alias": "bbq", "title": "Barbeque"}, {"alias": "korean", "title": "Korean"}, {"alias": "soup", "title": "Soup"}], "rating": 4.0, "coordinates": {"latitude": 37.780196, "longitude": -122.487262}, "transactions": ["pickup", "delivery"], "price": "$$", "location": {"address1": "6314 Geary Blvd", "address2": "", "address3": "", "city": "San Francisco", "zip_code": "94121", "country": "US", "state": "CA", "display_address": ["6314 Geary Blvd", "San Francisco, CA 94121"]}, "phone": "+14152218282", "display_phone": "(415) 221-8282", "distance": 4955.0937242671125}, {"id": "LpzREKhZ2dGKiIUnxX03Gg", "alias": "fiery-hot-pot-buffet-san-francisco-2", "name": "Fiery Hot Pot Buffet", "image_url": "https://s3-media3.fl.yelpcdn.com/bphoto/2SV1jza6b9C0E-P0GiYoCQ/o.jpg", "is_closed": false, "url": "https://www.yelp.com/biz/fiery-hot-pot-buffet-san-francisco-2?adjust_creative=Klanz-jboxl2XzqrjP6LLw&utm_campaign=yelp_api_v3&utm_medium=api_v3_business_search&utm_source=Klanz-jboxl2XzqrjP6LLw", "review_count": 368, "categories": [{"alias": "hotpot", "title": "Hot Pot"}, {"alias": "chinese", "title": "Chinese"}], "rating": 4.5, "coordinates": {"latitude": 37.7429507985095, "longitude": -122.483775056899}, "transactions": [], "price": "$$$", "location": {"address1": "1626 Taraval St", "address2": null, "address3": null, "city": "San Francisco", "zip_code": "94116", "country": "US", "state": "CA", "display_address": ["1626 Taraval St", "San Francisco, CA 94116"]}, "phone": "+14156824578", "display_phone": "(415) 682-4578", "distance": 4614.8679529839965}, {"id": "K7cgOR7huve3OkOFkRAhig", "alias": "salitos-crab-house-and-prime-rib-sausalito", "name": "Salito's Crab House & Prime Rib", "image_url": "https://s3-media4.fl.yelpcdn.com/bphoto/TO4ZGKi2Le_NLMbkzYE6HA/o.jpg", "is_closed": false, "url": "https://www.yelp.com/biz/salitos-crab-house-and-prime-rib-sausalito?adjust_creative=Klanz-jboxl2XzqrjP6LLw&utm_campaign=yelp_api_v3&utm_medium=api_v3_business_search&utm_source=Klanz-jboxl2XzqrjP6LLw", "review_count": 1218, "categories": [{"alias": "seafood", "title": "Seafood"}, {"alias": "cocktailbars", "title": "Cocktail Bars"}], "rating": 3.5, "coordinates": {"latitude": 37.859727, "longitude": -122.485075}, "transactions": ["delivery"], "price": "$$$", "location": {"address1": "1200 Bridgeway", "address2": "", "address3": "", "city": "Sausalito", "zip_code": "94965", "country": "US", "state": "CA", "display_address": ["1200 Bridgeway", "Sausalito, CA 94965"]}, "phone": "+14153313226", "display_phone": "(415) 331-3226", "distance": 11790.242489482287}, {"id": "C4MXvqehYBv5l7QHlCiu6g", "alias": "asian-pearl-seafood-restaurant-richmond", "name": "Asian Pearl Seafood Restaurant", "image_url": "https://s3-media2.fl.yelpcdn.com/bphoto/C_-3ShGlG_5e_atVhKGWfA/o.jpg", "is_closed": false, "url": "https://www.yelp.com/biz/asian-pearl-seafood-restaurant-richmond?adjust_creative=Klanz-jboxl2XzqrjP6LLw&utm_campaign=yelp_api_v3&utm_medium=api_v3_business_search&utm_source=Klanz-jboxl2XzqrjP6LLw", "review_count": 528, "categories": [{"alias": "dimsum", "title": "Dim Sum"}, {"alias": "seafood", "title": "Seafood"}, {"alias": "cantonese", "title": "Cantonese"}], "rating": 3.0, "coordinates": {"latitude": 37.89881, "longitude": -122.30756}, "transactions": ["pickup", "delivery"], "price": "$$", "location": {"address1": "3288 Pierce St", "address2": "Ste A118", "address3": "Pacific East Mall", "city": "Richmond", "zip_code": "94804", "country": "US", "state": "CA", "display_address": ["3288 Pierce St", "Ste A118", "Pacific East Mall", "Richmond, CA 94804"]}, "phone": "+15105266800", "display_phone": "(510) 526-6800", "distance": 19012.5230243637}, {"id": "qouN9XcSEJ6RSUHkP2zthg", "alias": "the-kitchen-millbrae", "name": "The Kitchen", "image_url": "https://s3-media3.fl.yelpcdn.com/bphoto/wj6JQ-uSbPGhL4XfG9a8TQ/o.jpg", "is_closed": false, "url": "https://www.yelp.com/biz/the-kitchen-millbrae?adjust_creative=Klanz-jboxl2XzqrjP6LLw&utm_campaign=yelp_api_v3&utm_medium=api_v3_business_search&utm_source=Klanz-jboxl2XzqrjP6LLw", "review_count": 923, "categories": [{"alias": "dimsum", "title": "Dim Sum"}, {"alias": "cantonese", "title": "Cantonese"}, {"alias": "seafood", "title": "Seafood"}], "rating": 3.0, "coordinates": {"latitude": 37.600982, "longitude": -122.390884}, "transactions": ["pickup", "delivery"], "price": "$$", "location": {"address1": "279 El Camino Real", "address2": "", "address3": "", "city": "Millbrae", "zip_code": "94030", "country": "US", "state": "CA", "display_address": ["279 El Camino Real", "Millbrae, CA 94030"]}, "phone": "+16506929688", "display_phone": "(650) 692-9688", "distance": 18223.77698033751}, {"id": "BpFYTc8r8S1FHfBoCyxRSg", "alias": "yum-yum-hunan-san-francisco-2", "name": "Yum Yum Hunan", "image_url": "https://s3-media3.fl.yelpcdn.com/bphoto/OgBN5hQbwA4Rh6L1-2nRDA/o.jpg", "is_closed": false, "url": "https://www.yelp.com/biz/yum-yum-hunan-san-francisco-2?adjust_creative=Klanz-jboxl2XzqrjP6LLw&utm_campaign=yelp_api_v3&utm_medium=api_v3_business_search&utm_source=Klanz-jboxl2XzqrjP6LLw", "review_count": 503, "categories": [{"alias": "chinese", "title": "Chinese"}], "rating": 3.5, "coordinates": {"latitude": 37.78662, "longitude": -122.43985}, "transactions": ["pickup", "delivery"], "price": "$", "location": {"address1": "1828 Divisadero St", "address2": "", "address3": "", "city": "San Francisco", "zip_code": "94115", "country": "US", "state": "CA", "display_address": ["1828 Divisadero St", "San Francisco, CA 94115"]}, "phone": "+14153468235", "display_phone": "(415) 346-8235", "distance": 2882.5221516108404}, {"id": "BnZYqj66esOPiSbqeJb7zA", "alias": "jai-yun-san-francisco-3", "name": "Jai Yun", "image_url": "https://s3-media3.fl.yelpcdn.com/bphoto/kOyKhydBhEhVNkbyUV3qyg/o.jpg", "is_closed": false, "url": "https://www.yelp.com/biz/jai-yun-san-francisco-3?adjust_creative=Klanz-jboxl2XzqrjP6LLw&utm_campaign=yelp_api_v3&utm_medium=api_v3_business_search&utm_source=Klanz-jboxl2XzqrjP6LLw", "review_count": 136, "categories": [{"alias": "chinese", "title": "Chinese"}], "rating": 3.5, "coordinates": {"latitude": 37.7979549783439, "longitude": -122.407208442688}, "transactions": [], "price": "$$$$", "location": {"address1": "606 Broadway", "address2": null, "address3": "", "city": "San Francisco", "zip_code": "94133", "country": "US", "state": "CA", "display_address": ["606 Broadway", "San Francisco, CA 94133"]}, "phone": "+14159817438", "display_phone": "(415) 981-7438", "distance": 4856.002449535848}, {"id": "t6TROjhvQzXJEhjI_nm08g", "alias": "lys-vietnamese-cuisine-san-francisco", "name": "Ly's Vietnamese Cuisine", "image_url": "https://s3-media4.fl.yelpcdn.com/bphoto/G9zepJjF_7svapkSEs9h1A/o.jpg", "is_closed": false, "url": "https://www.yelp.com/biz/lys-vietnamese-cuisine-san-francisco?adjust_creative=Klanz-jboxl2XzqrjP6LLw&utm_campaign=yelp_api_v3&utm_medium=api_v3_business_search&utm_source=Klanz-jboxl2XzqrjP6LLw", "review_count": 511, "categories": [{"alias": "vietnamese", "title": "Vietnamese"}], "rating": 4.5, "coordinates": {"latitude": 37.80029, "longitude": -122.43063}, "transactions": ["pickup"], "price": "$$", "location": {"address1": "1779 Lombard St", "address2": null, "address3": "", "city": "San Francisco", "zip_code": "94123", "country": "US", "state": "CA", "display_address": ["1779 Lombard St", "San Francisco, CA 94123"]}, "phone": "+14155631927", "display_phone": "(415) 563-1927", "distance": 4410.7710883876225}, {"id": "f-KXwoYsUTcIXA5Oef09qA", "alias": "sichuan-fusion-richmond", "name": "Sichuan Fusion", "image_url": "https://s3-media2.fl.yelpcdn.com/bphoto/er1wRam4s21ZiPCQ-hLxNQ/o.jpg", "is_closed": false, "url": "https://www.yelp.com/biz/sichuan-fusion-richmond?adjust_creative=Klanz-jboxl2XzqrjP6LLw&utm_campaign=yelp_api_v3&utm_medium=api_v3_business_search&utm_source=Klanz-jboxl2XzqrjP6LLw", "review_count": 394, "categories": [{"alias": "szechuan", "title": "Szechuan"}, {"alias": "seafood", "title": "Seafood"}], "rating": 4.0, "coordinates": {"latitude": 37.89881, "longitude": -122.30756}, "transactions": ["pickup", "delivery"], "price": "$$", "location": {"address1": "3288 Pierce St", "address2": "Ste B109", "address3": "", "city": "Richmond", "zip_code": "94804", "country": "US", "state": "CA", "display_address": ["3288 Pierce St", "Ste B109", "Richmond, CA 94804"]}, "phone": "+15105268897", "display_phone": "(510) 526-8897", "distance": 19012.5230243637}, {"id": "g4vf4bYFhvSmkWZn3DMt-g", "alias": "alices-restaurant-san-francisco", "name": "Alice's Restaurant", "image_url": "https://s3-media1.fl.yelpcdn.com/bphoto/4UCPsfRsKMrvaWYe5j1nrQ/o.jpg", "is_closed": false, "url": "https://www.yelp.com/biz/alices-restaurant-san-francisco?adjust_creative=Klanz-jboxl2XzqrjP6LLw&utm_campaign=yelp_api_v3&utm_medium=api_v3_business_search&utm_source=Klanz-jboxl2XzqrjP6LLw", "review_count": 305, "categories": [{"alias": "chinese", "title": "Chinese"}], "rating": 4.0, "coordinates": {"latitude": 37.743741, "longitude": -122.428833}, "transactions": ["delivery"], "price": "$$", "location": {"address1": "1599 Sanchez St", "address2": "", "address3": "", "city": "San Francisco", "zip_code": "94131", "country": "US", "state": "CA", "display_address": ["1599 Sanchez St", "San Francisco, CA 94131"]}, "phone": "+14152828999", "display_phone": "(415) 282-8999", "distance": 2021.9531982795272}], "total": 1800, "region": {"center": {"longitude": -122.43644714355469, "latitude": 37.76089938976322}}}