{"businesses": [{"id": "Di4kb-1tnjP5OKFuV8qbUA", "alias": "cordon-bleu-san-francisco", "name": "Cordon Bleu", "image_url": "https://s3-media4.fl.yelpcdn.com/bphoto/Ltb4mT3eSOvKwKQ9Cc4vVw/o.jpg", "is_closed": false, "url": "https://www.yelp.com/biz/cordon-bleu-san-francisco?adjust_creative=Klanz-jboxl2XzqrjP6LLw&utm_campaign=yelp_api_v3&utm_medium=api_v3_business_search&utm_source=Klanz-jboxl2XzqrjP6LLw", "review_count": 1091, "categories": [{"alias": "vietnamese", "title": "Vietnamese"}, {"alias": "kebab", "title": "Kebab"}, {"alias": "hotdogs", "title": "Fast Food"}], "rating": 4.0, "coordinates": {"latitude": 37.7907203, "longitude": -122.4205111}, "transactions": ["delivery"], "price": "$$", "location": {"address1": "1574 California St", "address2": "", "address3": "", "city": "San Francisco", "zip_code": "94109", "country": "US", "state": "CA", "display_address": ["1574 California St", "San Francisco, CA 94109"]}, "phone": "+14156735637", "display_phone": "(415) 673-5637", "distance": 3632.9429926984826}, {"id": "Dy4FqsShb-I6uSiLEOibBw", "alias": "shin-toe-bul-yi-san-francisco", "name": "Shin Toe Bul Yi", "image_url": "https://s3-media3.fl.yelpcdn.com/bphoto/OJ1q1mx6TR5b3EO_niLgIw/o.jpg", "is_closed": false, "url": "https://www.yelp.com/biz/shin-toe-bul-yi-san-francisco?adjust_creative=Klanz-jboxl2XzqrjP6LLw&utm_campaign=yelp_api_v3&utm_medium=api_v3_business_search&utm_source=Klanz-jboxl2XzqrjP6LLw", "review_count": 645, "categories": [{"alias": "korean", "title": "Korean"}], "rating": 4.0, "coordinates": {"latitude": 37.7423844, "longitude": -122.4876569}, "transactions": ["delivery"], "price": "$$", "location": {"address1": "2001 Taraval St", "address2": "", "address3": "", "city": "San Francisco", "zip_code": "94116", "country": "US", "state": "CA", "display_address": ["2001 Taraval St", "San Francisco, CA 94116"]}, "phone": "+14155669221", "display_phone": "(415) 566-9221", "distance": 4952.084726769614}, {"id": "_KtkAiwyxHbkn9O6yEMvjA", "alias": "bun-mee-san-francisco", "name": "Bun Mee", "image_url": "https://s3-media3.fl.yelpcdn.com/bphoto/41KVjux7sAL7JM2lrTiV3g/o.jpg", "is_closed": false, "url": "https://www.yelp.com/biz/bun-mee-san-francisco?adjust_creative=Klanz-jboxl2XzqrjP6LLw&utm_campaign=yelp_api_v3&utm_medium=api_v3_business_search&utm_source=Klanz-jboxl2XzqrjP6LLw", "review_count": 940, "categories": [{"alias": "vietnamese", "title": "Vietnamese"}, {"alias": "sandwiches", "title": "Sandwiches"}], "rating": 3.5, "coordinates": {"latitude": 37.788177, "longitude": -122.433951}, "transactions": ["pickup", "delivery"], "price": "$$", "location": {"address1": "2015 Fillmore St", "address2": "", "address3": "", "city": "San Francisco", "zip_code": "94115", "country": "US", "state": "CA", "display_address": ["2015 Fillmore St", "San Francisco, CA 94115"]}, "phone": "+14158007696", "display_phone": "(415) 800-7696", "distance": 3041.0525006814823}, {"id": "br7GF3ATEBUZpOXpKDoVVQ", "alias": "yin-ji-chang-fen-berkeley", "name": "Yin Ji Chang Fen", "image_url": "https://s3-media2.fl.yelpcdn.com/bphoto/GSuyGE83j6yHZTzqpna4Wg/o.jpg", "is_closed": false, "url": "https://www.yelp.com/biz/yin-ji-chang-fen-berkeley?adjust_creative=Klanz-jboxl2XzqrjP6LLw&utm_campaign=yelp_api_v3&utm_medium=api_v3_business_search&utm_source=Klanz-jboxl2XzqrjP6LLw", "review_count": 188, "categories": [{"alias": "cantonese", "title": "Cantonese"}, {"alias": "dimsum", "title": "Dim Sum"}], "rating": 4.0, "coordinates": {"latitude": 37.87026722278505, "longitude": -122.26687998891308}, "transactions": ["pickup", "delivery"], "price": "$$", "location": {"address1": "2132 Center St", "address2": null, "address3": "", "city": "Berkeley", "zip_code": "94704", "country": "US", "state": "CA", "display_address": ["2132 Center St", "Berkeley, CA 94704"]}, "phone": "+15105702115", "display_phone": "(510) 570-2115", "distance": 19229.15695283671}, {"id": "C3OAQ790Bquh2dFffZcWYA", "alias": "tsings-chinese-restaurant-san-francisco", "name": "Tsing's Chinese Restaurant", "image_url": "https://s3-media4.fl.yelpcdn.com/bphoto/gA79c9UlQEb_hVoOT5h0kw/o.jpg", "is_closed": false, "url": "https://www.yelp.com/biz/tsings-chinese-restaurant-san-francisco?adjust_creative=Klanz-jboxl2XzqrjP6LLw&utm_campaign=yelp_api_v3&utm_medium=api_v3_business_search&utm_source=Klanz-jboxl2XzqrjP6LLw", "review_count": 150, "categories": [{"alias": "chinese", "title": "Chinese"}, {"alias": "newamerican", "title": "American (New)"}, {"alias": "seafood", "title": "Seafood"}], "rating": 3.0, "coordinates": {"latitude": 37.736985, "longitude": -122.469769}, "transactions": ["pickup", "delivery"], "price": "$$", "location": {"address1": "361 W Portal Ave", "address2": "", "address3": "", "city": "San Francisco", "zip_code": "94127", "country": "US", "state": "CA", "display_address": ["361 W Portal Ave", "San Francisco, CA 94127"]}, "phone": "+14156816808", "display_phone": "(415) 681-6808", "distance": 3957.069951053844}, {"id": "iMMgu0pMigDVBIJ7whYXdw", "alias": "h\u00e9n-zh\u00ec-san-francisco", "name": "H\u00e9n-zh\u00ec", "image_url": "https://s3-media2.fl.yelpcdn.com/bphoto/bc-Rg7mVvnTqu_mJOj57vQ/o.jpg", "is_closed": false, "url": "https://www.yelp.com/biz/h%C3%A9n-zh%C3%AC-san-francisco?adjust_creative=Klanz-jboxl2XzqrjP6LLw&utm_campaign=yelp_api_v3&utm_medium=api_v3_business_search&utm_source=Klanz-jboxl2XzqrjP6LLw", "review_count": 4, "categories": [{"alias": "taiwanese", "title": "Taiwanese"}, {"alias": "popuprestaurants", "title": "Pop-Up Restaurants"}, {"alias": "personalchefs", "title": "Personal Chefs"}], "rating": 5.0, "coordinates": {"latitude": 37.76065, "longitude": -122.39406}, "transactions": [], "location": {"address1": "", "address2": "", "address3": null, "city": "San Francisco", "zip_code": "94107", "country": "US", "state": "CA", "display_address": ["San Francisco, CA 94107"]}, "phone": "+14152899808", "display_phone": "(415) 289-9808", "distance": 3329.753807159828}, {"id": "4De0iMwSPF2aJ_QGTye4TQ", "alias": "nan-king-china-bistro-san-francisco", "name": "Nan King China Bistro", "image_url": "https://s3-media4.fl.yelpcdn.com/bphoto/knJuIEwyGPS1dyDikWakWg/o.jpg", "is_closed": false, "url": "https://www.yelp.com/biz/nan-king-china-bistro-san-francisco?adjust_creative=Klanz-jboxl2XzqrjP6LLw&utm_campaign=yelp_api_v3&utm_medium=api_v3_business_search&utm_source=Klanz-jboxl2XzqrjP6LLw", "review_count": 612, "categories": [{"alias": "chinese", "title": "Chinese"}, {"alias": "noodles", "title": "Noodles"}], "rating": 4.0, "coordinates": {"latitude": 37.76291, "longitude": -122.4659}, "transactions": ["pickup", "delivery"], "price": "$$", "location": {"address1": "1360 9th Ave", "address2": "", "address3": "", "city": "San Francisco", "zip_code": "94122", "country": "US", "state": "CA", "display_address": ["1360 9th Ave", "San Francisco, CA 94122"]}, "phone": "+14157532900", "display_phone": "(415) 753-2900", "distance": 2606.408764414947}, {"id": "-BKIqDQ3CawzwyN9kW1-FQ", "alias": "mangrove-kitchen-san-francisco", "name": "Mangrove Kitchen", "image_url": "https://s3-media2.fl.yelpcdn.com/bphoto/5p-s9YIaFxhZUpApYtjAcQ/o.jpg", "is_closed": false, "url": "https://www.yelp.com/biz/mangrove-kitchen-san-francisco?adjust_creative=Klanz-jboxl2XzqrjP6LLw&utm_campaign=yelp_api_v3&utm_medium=api_v3_business_search&utm_source=Klanz-jboxl2XzqrjP6LLw", "review_count": 312, "categories": [{"alias": "thai", "title": "Thai"}, {"alias": "ramen", "title": "Ramen"}], "rating": 4.0, "coordinates": {"latitude": 37.77251, "longitude": -122.43696}, "transactions": ["pickup", "delivery"], "price": "$$", "location": {"address1": "312 Divisadero St", "address2": "", "address3": null, "city": "San Francisco", "zip_code": "94117", "country": "US", "state": "CA", "display_address": ["312 Divisadero St", "San Francisco, CA 94117"]}, "phone": "+14155526881", "display_phone": "(415) 552-6881", "distance": 1292.4569284214758}, {"id": "ugfxjGQZ8sHeIQBZjjaw2w", "alias": "iyasare-berkeley", "name": "Iyasare", "image_url": "https://s3-media3.fl.yelpcdn.com/bphoto/xemWtBind80yat9Zif0AGw/o.jpg", "is_closed": false, "url": "https://www.yelp.com/biz/iyasare-berkeley?adjust_creative=Klanz-jboxl2XzqrjP6LLw&utm_campaign=yelp_api_v3&utm_medium=api_v3_business_search&utm_source=Klanz-jboxl2XzqrjP6LLw", "review_count": 681, "categories": [{"alias": "japanese", "title": "Japanese"}, {"alias": "bars", "title": "Bars"}], "rating": 4.0, "coordinates": {"latitude": 37.86932, "longitude": -122.30061}, "transactions": ["delivery"], "price": "$$$", "location": {"address1": "1830 Fourth St", "address2": "", "address3": "", "city": "Berkeley", "zip_code": "94710", "country": "US", "state": "CA", "display_address": ["1830 Fourth St", "Berkeley, CA 94710"]}, "phone": "+15108458100", "display_phone": "(510) 845-8100", "distance": 16953.0405623478}, {"id": "9ZI1raHw9oRbe_gGU0kDCQ", "alias": "an-chi-san-francisco-2", "name": "An Chi", "image_url": "https://s3-media4.fl.yelpcdn.com/bphoto/OT7mLa4aMi2ajo5kd0dPOw/o.jpg", "is_closed": false, "url": "https://www.yelp.com/biz/an-chi-san-francisco-2?adjust_creative=Klanz-jboxl2XzqrjP6LLw&utm_campaign=yelp_api_v3&utm_medium=api_v3_business_search&utm_source=Klanz-jboxl2XzqrjP6LLw", "review_count": 258, "categories": [{"alias": "vietnamese", "title": "Vietnamese"}, {"alias": "sandwiches", "title": "Sandwiches"}], "rating": 4.0, "coordinates": {"latitude": 37.7233618630315, "longitude": -122.435641810298}, "transactions": ["pickup", "delivery"], "price": "$", "location": {"address1": "4683 Mission St", "address2": "", "address3": null, "city": "San Francisco", "zip_code": "94112", "country": "US", "state": "CA", "display_address": ["4683 Mission St", "San Francisco, CA 94112"]}, "phone": "+14153339997", "display_phone": "(415) 333-9997", "distance": 4174.5785405326205}, {"id": "Wa3mj3Vo4ixhpOpAb7_NVQ", "alias": "taiwan-bento-oakland-4", "name": "Taiwan Bento", "image_url": "https://s3-media2.fl.yelpcdn.com/bphoto/Jf9IC6Zp2F_vJyk_r00Pxw/o.jpg", "is_closed": false, "url": "https://www.yelp.com/biz/taiwan-bento-oakland-4?adjust_creative=Klanz-jboxl2XzqrjP6LLw&utm_campaign=yelp_api_v3&utm_medium=api_v3_business_search&utm_source=Klanz-jboxl2XzqrjP6LLw", "review_count": 500, "categories": [{"alias": "taiwanese", "title": "Taiwanese"}, {"alias": "bubbletea", "title": "Bubble Tea"}, {"alias": "noodles", "title": "Noodles"}], "rating": 4.0, "coordinates": {"latitude": 37.81097, "longitude": -122.26651}, "transactions": ["pickup", "delivery"], "price": "$$", "location": {"address1": "412 22nd St", "address2": null, "address3": "", "city": "Oakland", "zip_code": "94612", "country": "US", "state": "CA", "display_address": ["412 22nd St", "Oakland, CA 94612"]}, "phone": "+15102509858", "display_phone": "(510) 250-9858", "distance": 15941.270024940202}, {"id": "8zVnG-g4dRNQtheaTv6t1Q", "alias": "peninsula-seafood-restaurant-san-francisco-2", "name": "Peninsula Seafood Restaurant", "image_url": "https://s3-media2.fl.yelpcdn.com/bphoto/NpmuAZdb_gPfnZAtC3giBA/o.jpg", "is_closed": false, "url": "https://www.yelp.com/biz/peninsula-seafood-restaurant-san-francisco-2?adjust_creative=Klanz-jboxl2XzqrjP6LLw&utm_campaign=yelp_api_v3&utm_medium=api_v3_business_search&utm_source=Klanz-jboxl2XzqrjP6LLw", "review_count": 233, "categories": [{"alias": "seafood", "title": "Seafood"}, {"alias": "dimsum", "title": "Dim Sum"}], "rating": 3.0, "coordinates": {"latitude": 37.79595, "longitude": -122.40574}, "transactions": ["pickup", "delivery"], "price": "$$", "location": {"address1": "641 Jackson St", "address2": "", "address3": "", "city": "San Francisco", "zip_code": "94133", "country": "US", "state": "CA", "display_address": ["641 Jackson St", "San Francisco, CA 94133"]}, "phone": "+14153988383", "display_phone": "(415) 398-8383", "distance": 4741.115452903552}, {"id": "_4xgvSsDuGgsyfSOVrneag", "alias": "house-of-hunan-san-francisco-2", "name": "House Of Hunan", "image_url": "https://s3-media2.fl.yelpcdn.com/bphoto/vDARW3-0E2N5mF1XlwN3dQ/o.jpg", "is_closed": false, "url": "https://www.yelp.com/biz/house-of-hunan-san-francisco-2?adjust_creative=Klanz-jboxl2XzqrjP6LLw&utm_campaign=yelp_api_v3&utm_medium=api_v3_business_search&utm_source=Klanz-jboxl2XzqrjP6LLw", "review_count": 235, "categories": [{"alias": "chinese", "title": "Chinese"}], "rating": 3.0, "coordinates": {"latitude": 37.78274841174951, "longitude": -122.38900502624327}, "transactions": ["pickup", "delivery"], "price": "$", "location": {"address1": "2 Townsend St", "address2": "", "address3": "", "city": "San Francisco", "zip_code": "94107", "country": "US", "state": "CA", "display_address": ["2 Townsend St", "San Francisco, CA 94107"]}, "phone": "+14158962638", "display_phone": "(415) 896-2638", "distance": 4826.032278718733}, {"id": "KhG-jWIr7-TJj3isz3ZIFQ", "alias": "my-tofu-house-san-francisco", "name": "My Tofu House", "image_url": "https://s3-media1.fl.yelpcdn.com/bphoto/S7JMyrYv3dsBmAqPtbj_qA/o.jpg", "is_closed": false, "url": "https://www.yelp.com/biz/my-tofu-house-san-francisco?adjust_creative=Klanz-jboxl2XzqrjP6LLw&utm_campaign=yelp_api_v3&utm_medium=api_v3_business_search&utm_source=Klanz-jboxl2XzqrjP6LLw", "review_count": 1686, "categories": [{"alias": "korean", "title": "Korean"}], "rating": 4.0, "coordinates": {"latitude": 37.7806563, "longitude": -122.4691286}, "transactions": ["delivery"], "price": "$$", "location": {"address1": "4627 Geary Blvd", "address2": "", "address3": "", "city": "San Francisco", "zip_code": "94118", "country": "US", "state": "CA", "display_address": ["4627 Geary Blvd", "San Francisco, CA 94118"]}, "phone": "+14157501818", "display_phone": "(415) 750-1818", "distance": 3616.331071494143}, {"id": "VCcKS-6s2UQ_XqtL9xC0PQ", "alias": "harborview-go-san-francisco-8", "name": "Harborview Go", "image_url": "https://s3-media2.fl.yelpcdn.com/bphoto/jR2JN8KYybMwxviMuFTE6g/o.jpg", "is_closed": false, "url": "https://www.yelp.com/biz/harborview-go-san-francisco-8?adjust_creative=Klanz-jboxl2XzqrjP6LLw&utm_campaign=yelp_api_v3&utm_medium=api_v3_business_search&utm_source=Klanz-jboxl2XzqrjP6LLw", "review_count": 6, "categories": [{"alias": "cantonese", "title": "Cantonese"}, {"alias": "dimsum", "title": "Dim Sum"}, {"alias": "seafood", "title": "Seafood"}], "rating": 3.5, "coordinates": {"latitude": 37.794747, "longitude": -122.396169}, "transactions": ["delivery"], "location": {"address1": "4 Embarcadero Ctr", "address2": "", "address3": "Street Level on Sacramento Alley", "city": "San Francisco", "zip_code": "94111", "country": "US", "state": "CA", "display_address": ["4 Embarcadero Ctr", "Street Level on Sacramento Alley", "San Francisco, CA 94111"]}, "phone": "+14153991200", "display_phone": "(415) 399-1200", "distance": 5166.864388334319}, {"id": "rsK-zEYo7apESEDBh4m3dw", "alias": "nomad-tibetan-restaurant-berkeley", "name": "Nomad Tibetan Restaurant", "image_url": "https://s3-media4.fl.yelpcdn.com/bphoto/Zxc40Ee7MaVYgtfYgo_Syw/o.jpg", "is_closed": false, "url": "https://www.yelp.com/biz/nomad-tibetan-restaurant-berkeley?adjust_creative=Klanz-jboxl2XzqrjP6LLw&utm_campaign=yelp_api_v3&utm_medium=api_v3_business_search&utm_source=Klanz-jboxl2XzqrjP6LLw", "review_count": 275, "categories": [{"alias": "himalayan", "title": "Himalayan/Nepalese"}], "rating": 4.5, "coordinates": {"latitude": 37.8912864, "longitude": -122.2847308}, "transactions": ["pickup", "delivery"], "price": "$$", "location": {"address1": "1593 Solano Ave", "address2": "", "address3": "", "city": "Berkeley", "zip_code": "94707", "country": "US", "state": "CA", "display_address": ["1593 Solano Ave", "Berkeley, CA 94707"]}, "phone": "+15109840738", "display_phone": "(510) 984-0738", "distance": 19691.741076844224}, {"id": "6LgVPqC6HFU_q0KrIW1B1Q", "alias": "ben-tre-vietnamese-homestyle-cuisine-south-san-francisco", "name": "Ben Tre Vietnamese Homestyle Cuisine", "image_url": "https://s3-media1.fl.yelpcdn.com/bphoto/Z1_8uArjVHO49OBQ17iyXA/o.jpg", "is_closed": false, "url": "https://www.yelp.com/biz/ben-tre-vietnamese-homestyle-cuisine-south-san-francisco?adjust_creative=Klanz-jboxl2XzqrjP6LLw&utm_campaign=yelp_api_v3&utm_medium=api_v3_business_search&utm_source=Klanz-jboxl2XzqrjP6LLw", "review_count": 1902, "categories": [{"alias": "vietnamese", "title": "Vietnamese"}, {"alias": "noodles", "title": "Noodles"}, {"alias": "soup", "title": "Soup"}], "rating": 4.0, "coordinates": {"latitude": 37.6557878294219, "longitude": -122.412228137255}, "transactions": ["delivery"], "price": "$$", "location": {"address1": "398 Grand Ave", "address2": "", "address3": "", "city": "South San Francisco", "zip_code": "94080", "country": "US", "state": "CA", "display_address": ["398 Grand Ave", "South San Francisco, CA 94080"]}, "phone": "+16509522243", "display_phone": "(650) 952-2243", "distance": 11880.457965117068}, {"id": "ZWvXWUhJUBph9Ip1a2j-xw", "alias": "ananda-fuara-san-francisco", "name": "Ananda Fuara", "image_url": "https://s3-media1.fl.yelpcdn.com/bphoto/d_KP_fHwOw8N2sPUGOcvaQ/o.jpg", "is_closed": false, "url": "https://www.yelp.com/biz/ananda-fuara-san-francisco?adjust_creative=Klanz-jboxl2XzqrjP6LLw&utm_campaign=yelp_api_v3&utm_medium=api_v3_business_search&utm_source=Klanz-jboxl2XzqrjP6LLw", "review_count": 1120, "categories": [{"alias": "vegetarian", "title": "Vegetarian"}, {"alias": "vegan", "title": "Vegan"}, {"alias": "breakfast_brunch", "title": "Breakfast & Brunch"}], "rating": 4.0, "coordinates": {"latitude": 37.7778988, "longitude": -122.41629668434057}, "transactions": ["pickup", "delivery"], "price": "$$", "location": {"address1": "1298 Market St", "address2": "", "address3": "", "city": "San Francisco", "zip_code": "94102", "country": "US", "state": "CA", "display_address": ["1298 Market St", "San Francisco, CA 94102"]}, "phone": "+14156211994", "display_phone": "(415) 621-1994", "distance": 2590.384579014605}, {"id": "IdqBJvRIA0YPwLZaoUNM0w", "alias": "waraku-san-francisco-2", "name": "Waraku", "image_url": "https://s3-media2.fl.yelpcdn.com/bphoto/mPSJ-0E3SIg8wNiWulIIMQ/o.jpg", "is_closed": false, "url": "https://www.yelp.com/biz/waraku-san-francisco-2?adjust_creative=Klanz-jboxl2XzqrjP6LLw&utm_campaign=yelp_api_v3&utm_medium=api_v3_business_search&utm_source=Klanz-jboxl2XzqrjP6LLw", "review_count": 939, "categories": [{"alias": "ramen", "title": "Ramen"}, {"alias": "noodles", "title": "Noodles"}, {"alias": "izakaya", "title": "Izakaya"}], "rating": 4.0, "coordinates": {"latitude": 37.785902199528174, "longitude": -122.4287742}, "transactions": ["pickup", "delivery"], "price": "$$", "location": {"address1": "1638 Post St", "address2": "", "address3": "", "city": "San Francisco", "zip_code": "94115", "country": "US", "state": "CA", "display_address": ["1638 Post St", "San Francisco, CA 94115"]}, "phone": "+14152923388", "display_phone": "(415) 292-3388", "distance": 2860.8084551964525}, {"id": "FhPbn34bMq1dw9YcNWYWAg", "alias": "gateway-kitchen-daly-city", "name": "Gateway Kitchen", "image_url": "https://s3-media2.fl.yelpcdn.com/bphoto/hqvtJajnN7RcDMoFucOPAw/o.jpg", "is_closed": false, "url": "https://www.yelp.com/biz/gateway-kitchen-daly-city?adjust_creative=Klanz-jboxl2XzqrjP6LLw&utm_campaign=yelp_api_v3&utm_medium=api_v3_business_search&utm_source=Klanz-jboxl2XzqrjP6LLw", "review_count": 347, "categories": [{"alias": "filipino", "title": "Filipino"}, {"alias": "chinese", "title": "Chinese"}, {"alias": "breakfast_brunch", "title": "Breakfast & Brunch"}], "rating": 4.5, "coordinates": {"latitude": 37.7068693, "longitude": -122.4579278}, "transactions": ["pickup"], "price": "$", "location": {"address1": "6165 Mission St", "address2": "", "address3": "", "city": "Daly City", "zip_code": "94014", "country": "US", "state": "CA", "display_address": ["6165 Mission St", "Daly City, CA 94014"]}, "phone": "+14152398371", "display_phone": "(415) 239-8371", "distance": 6301.735945709498}, {"id": "UT3eod0jmPmT_Iwuz45Drg", "alias": "porridge-and-things-millbrae", "name": "Porridge & Things", "image_url": "https://s3-media2.fl.yelpcdn.com/bphoto/afASeDITV_e7URJTKAAHTw/o.jpg", "is_closed": false, "url": "https://www.yelp.com/biz/porridge-and-things-millbrae?adjust_creative=Klanz-jboxl2XzqrjP6LLw&utm_campaign=yelp_api_v3&utm_medium=api_v3_business_search&utm_source=Klanz-jboxl2XzqrjP6LLw", "review_count": 87, "categories": [{"alias": "chinese", "title": "Chinese"}, {"alias": "soup", "title": "Soup"}, {"alias": "seafood", "title": "Seafood"}], "rating": 3.5, "coordinates": {"latitude": 37.600076, "longitude": -122.391195}, "transactions": ["pickup", "delivery"], "price": "$$", "location": {"address1": "235 Broadway", "address2": "", "address3": null, "city": "Millbrae", "zip_code": "94030", "country": "US", "state": "CA", "display_address": ["235 Broadway", "Millbrae, CA 94030"]}, "phone": "+16506922992", "display_phone": "(650) 692-2992", "distance": 18317.836761182974}, {"id": "ssI9ivccrDBT-RH_52fPBQ", "alias": "greens-restaurant-san-francisco-5", "name": "Greens Restaurant", "image_url": "https://s3-media3.fl.yelpcdn.com/bphoto/aTlxXQRqnrAZSk2sCa2H6g/o.jpg", "is_closed": false, "url": "https://www.yelp.com/biz/greens-restaurant-san-francisco-5?adjust_creative=Klanz-jboxl2XzqrjP6LLw&utm_campaign=yelp_api_v3&utm_medium=api_v3_business_search&utm_source=Klanz-jboxl2XzqrjP6LLw", "review_count": 2172, "categories": [{"alias": "vegetarian", "title": "Vegetarian"}, {"alias": "vegan", "title": "Vegan"}, {"alias": "gluten_free", "title": "Gluten-Free"}], "rating": 4.0, "coordinates": {"latitude": 37.80668033302732, "longitude": -122.43210032743212}, "transactions": ["pickup", "delivery"], "price": "$$$", "location": {"address1": "2 Marina Blvd", "address2": "Bldg A", "address3": "Fort Mason", "city": "San Francisco", "zip_code": "94123", "country": "US", "state": "CA", "display_address": ["2 Marina Blvd", "Bldg A", "Fort Mason", "San Francisco, CA 94123"]}, "phone": "+14157716222", "display_phone": "(415) 771-6222", "distance": 5104.915541217035}, {"id": "WeTsdr6tFEzlGyD2JX_06g", "alias": "zomsa-el-cerrito-4", "name": "Zomsa", "image_url": "https://s3-media2.fl.yelpcdn.com/bphoto/hESxoBCvbHTMtNTcOhxItg/o.jpg", "is_closed": false, "url": "https://www.yelp.com/biz/zomsa-el-cerrito-4?adjust_creative=Klanz-jboxl2XzqrjP6LLw&utm_campaign=yelp_api_v3&utm_medium=api_v3_business_search&utm_source=Klanz-jboxl2XzqrjP6LLw", "review_count": 110, "categories": [{"alias": "himalayan", "title": "Himalayan/Nepalese"}], "rating": 4.5, "coordinates": {"latitude": 37.91083133, "longitude": -122.30752167}, "transactions": ["pickup", "delivery"], "price": "$$", "location": {"address1": "10558 San Pablo Ave", "address2": null, "address3": "", "city": "El Cerrito", "zip_code": "94530", "country": "US", "state": "CA", "display_address": ["10558 San Pablo Ave", "El Cerrito, CA 94530"]}, "phone": "+15105294008", "display_phone": "(510) 529-4008", "distance": 20154.84596697394}, {"id": "Fe-YjAdSRLqDC2H_pqPcSw", "alias": "hinodeya-ramen-bar-san-francisco", "name": "Hinodeya Ramen Bar", "image_url": "https://s3-media3.fl.yelpcdn.com/bphoto/9B_YcZvpGTZjKhAkR9BaWQ/o.jpg", "is_closed": false, "url": "https://www.yelp.com/biz/hinodeya-ramen-bar-san-francisco?adjust_creative=Klanz-jboxl2XzqrjP6LLw&utm_campaign=yelp_api_v3&utm_medium=api_v3_business_search&utm_source=Klanz-jboxl2XzqrjP6LLw", "review_count": 1485, "categories": [{"alias": "ramen", "title": "Ramen"}], "rating": 4.0, "coordinates": {"latitude": 37.7861574638014, "longitude": -122.430057115853}, "transactions": ["pickup", "delivery"], "price": "$$", "location": {"address1": "1737 Buchanan St", "address2": "", "address3": null, "city": "San Francisco", "zip_code": "94115", "country": "US", "state": "CA", "display_address": ["1737 Buchanan St", "San Francisco, CA 94115"]}, "phone": "+14152165011", "display_phone": "(415) 216-5011", "distance": 2864.172030534964}, {"id": "znjP_ZGYsVTw3NIgsW1hjQ", "alias": "grumpy-cafe-san-francisco", "name": "Grumpy Cafe", "image_url": "https://s3-media1.fl.yelpcdn.com/bphoto/NtUrCaWBZLkNM2BVBRVbWQ/o.jpg", "is_closed": false, "url": "https://www.yelp.com/biz/grumpy-cafe-san-francisco?adjust_creative=Klanz-jboxl2XzqrjP6LLw&utm_campaign=yelp_api_v3&utm_medium=api_v3_business_search&utm_source=Klanz-jboxl2XzqrjP6LLw", "review_count": 33, "categories": [{"alias": "japanese", "title": "Japanese"}, {"alias": "korean", "title": "Korean"}, {"alias": "tradamerican", "title": "American (Traditional)"}], "rating": 4.0, "coordinates": {"latitude": 37.73978, "longitude": -122.40344}, "transactions": ["delivery"], "price": "$", "location": {"address1": "66 Dorman Ave", "address2": null, "address3": "", "city": "San Francisco", "zip_code": "94124", "country": "US", "state": "CA", "display_address": ["66 Dorman Ave", "San Francisco, CA 94124"]}, "phone": "+14152852461", "display_phone": "(415) 285-2461", "distance": 3727.5287346178393}, {"id": "r19XhpINtQxhMwB0eKnmjA", "alias": "kingdom-of-dumplings-san-francisco", "name": "Kingdom Of Dumplings", "image_url": "https://s3-media2.fl.yelpcdn.com/bphoto/a6T8_qRVUPGswRZ44aKWRg/o.jpg", "is_closed": false, "url": "https://www.yelp.com/biz/kingdom-of-dumplings-san-francisco?adjust_creative=Klanz-jboxl2XzqrjP6LLw&utm_campaign=yelp_api_v3&utm_medium=api_v3_business_search&utm_source=Klanz-jboxl2XzqrjP6LLw", "review_count": 2213, "categories": [{"alias": "dimsum", "title": "Dim Sum"}], "rating": 3.5, "coordinates": {"latitude": 37.7424600303507, "longitude": -122.48463414418}, "transactions": ["pickup", "delivery"], "price": "$$", "location": {"address1": "1713 Taraval St", "address2": null, "address3": "", "city": "San Francisco", "zip_code": "94116", "country": "US", "state": "CA", "display_address": ["1713 Taraval St", "San Francisco, CA 94116"]}, "phone": "+14155666143", "display_phone": "(415) 566-6143", "distance": 4706.610939989563}, {"id": "V3x7BG-ExlkPQgqxVdduJw", "alias": "the-anchovy-bar-san-francisco", "name": "The Anchovy Bar", "image_url": "https://s3-media3.fl.yelpcdn.com/bphoto/M9SE2W86w6F6xfc_7G5ecA/o.jpg", "is_closed": false, "url": "https://www.yelp.com/biz/the-anchovy-bar-san-francisco?adjust_creative=Klanz-jboxl2XzqrjP6LLw&utm_campaign=yelp_api_v3&utm_medium=api_v3_business_search&utm_source=Klanz-jboxl2XzqrjP6LLw", "review_count": 103, "categories": [{"alias": "seafood", "title": "Seafood"}], "rating": 4.5, "coordinates": {"latitude": 37.783374, "longitude": -122.4332}, "transactions": [], "location": {"address1": "1740 O'Farrell St", "address2": null, "address3": null, "city": "San Francisco", "zip_code": "94115", "country": "US", "state": "CA", "display_address": ["1740 O'Farrell St", "San Francisco, CA 94115"]}, "phone": "+14157962710", "display_phone": "(415) 796-2710", "distance": 2518.2669415721657}, {"id": "kUxtjTa2vCSWQvr00YwxQw", "alias": "kazan-san-francisco", "name": "Kazan", "image_url": "https://s3-media3.fl.yelpcdn.com/bphoto/YFjJ96YGoB-U2j0GFpZ7UQ/o.jpg", "is_closed": false, "url": "https://www.yelp.com/biz/kazan-san-francisco?adjust_creative=Klanz-jboxl2XzqrjP6LLw&utm_campaign=yelp_api_v3&utm_medium=api_v3_business_search&utm_source=Klanz-jboxl2XzqrjP6LLw", "review_count": 508, "categories": [{"alias": "japanese", "title": "Japanese"}, {"alias": "sushi", "title": "Sushi Bars"}, {"alias": "soup", "title": "Soup"}], "rating": 4.5, "coordinates": {"latitude": 37.752694, "longitude": -122.408469}, "transactions": ["delivery"], "price": "$$", "location": {"address1": "2809 24th St", "address2": "", "address3": "", "city": "San Francisco", "zip_code": "94110", "country": "US", "state": "CA", "display_address": ["2809 24th St", "San Francisco, CA 94110"]}, "phone": "+14152822001", "display_phone": "(415) 282-2001", "distance": 2622.6059855964513}, {"id": "_gHU7DSK2gFVRLx651c8ig", "alias": "spice-of-america-san-francisco-2", "name": "Spice of America", "image_url": "https://s3-media4.fl.yelpcdn.com/bphoto/rZXeGwMSTae3fg5epnItxA/o.jpg", "is_closed": false, "url": "https://www.yelp.com/biz/spice-of-america-san-francisco-2?adjust_creative=Klanz-jboxl2XzqrjP6LLw&utm_campaign=yelp_api_v3&utm_medium=api_v3_business_search&utm_source=Klanz-jboxl2XzqrjP6LLw", "review_count": 283, "categories": [{"alias": "indpak", "title": "Indian"}, {"alias": "himalayan", "title": "Himalayan/Nepalese"}, {"alias": "desserts", "title": "Desserts"}], "rating": 4.5, "coordinates": {"latitude": 37.7732557, "longitude": -122.4214596}, "transactions": ["restaurant_reservation", "pickup", "delivery"], "price": "$$", "location": {"address1": "1655 Market St", "address2": null, "address3": null, "city": "San Francisco", "zip_code": "94103", "country": "US", "state": "CA", "display_address": ["1655 Market St", "San Francisco, CA 94103"]}, "phone": "+14158727187", "display_phone": "(415) 872-7187", "distance": 1914.3938260155508}, {"id": "LsGkxQK217twdzZzVXsSRg", "alias": "creola-san-francisco-3", "name": "CreoLa", "image_url": "https://s3-media3.fl.yelpcdn.com/bphoto/NOc9lbscSGKfU-Ug8F6Vuw/o.jpg", "is_closed": false, "url": "https://www.yelp.com/biz/creola-san-francisco-3?adjust_creative=Klanz-jboxl2XzqrjP6LLw&utm_campaign=yelp_api_v3&utm_medium=api_v3_business_search&utm_source=Klanz-jboxl2XzqrjP6LLw", "review_count": 96, "categories": [{"alias": "seafood", "title": "Seafood"}, {"alias": "cajun", "title": "Cajun/Creole"}, {"alias": "cocktailbars", "title": "Cocktail Bars"}], "rating": 4.5, "coordinates": {"latitude": 37.7662642, "longitude": -122.4527631}, "transactions": ["delivery"], "price": "$$", "location": {"address1": "900 Stanyan St", "address2": "", "address3": null, "city": "San Francisco", "zip_code": "94117", "country": "US", "state": "CA", "display_address": ["900 Stanyan St", "San Francisco, CA 94117"]}, "phone": "+14152603143", "display_phone": "(415) 260-3143", "distance": 1550.8836410478934}, {"id": "G3nORz3a6ZnHkOwc7xppdw", "alias": "lucky-pig-san-francisco", "name": "Lucky Pig", "image_url": "https://s3-media1.fl.yelpcdn.com/bphoto/vjfY4GhtaoRJlhcpbiZoog/o.jpg", "is_closed": false, "url": "https://www.yelp.com/biz/lucky-pig-san-francisco?adjust_creative=Klanz-jboxl2XzqrjP6LLw&utm_campaign=yelp_api_v3&utm_medium=api_v3_business_search&utm_source=Klanz-jboxl2XzqrjP6LLw", "review_count": 220, "categories": [{"alias": "korean", "title": "Korean"}], "rating": 4.0, "coordinates": {"latitude": 37.78509974066, "longitude": -122.417556957263}, "transactions": ["pickup", "delivery"], "price": "$$", "location": {"address1": "791 O'farrell St", "address2": "", "address3": null, "city": "San Francisco", "zip_code": "94109", "country": "US", "state": "CA", "display_address": ["791 O'farrell St", "San Francisco, CA 94109"]}, "phone": "+14159992628", "display_phone": "(415) 999-2628", "distance": 3161.944118839851}, {"id": "QWZO1RdLbG5h0RGDiItoAA", "alias": "zaoh-restaurant-san-francisco", "name": "Zaoh Restaurant", "image_url": "https://s3-media3.fl.yelpcdn.com/bphoto/vwfE4NWNJrmxHVIkkY7nfw/o.jpg", "is_closed": false, "url": "https://www.yelp.com/biz/zaoh-restaurant-san-francisco?adjust_creative=Klanz-jboxl2XzqrjP6LLw&utm_campaign=yelp_api_v3&utm_medium=api_v3_business_search&utm_source=Klanz-jboxl2XzqrjP6LLw", "review_count": 317, "categories": [{"alias": "sushi", "title": "Sushi Bars"}, {"alias": "japanese", "title": "Japanese"}], "rating": 4.0, "coordinates": {"latitude": 37.7733077, "longitude": -122.41804976441779}, "transactions": ["restaurant_reservation", "pickup", "delivery"], "price": "$$", "location": {"address1": "1555 Mission St", "address2": "", "address3": "", "city": "San Francisco", "zip_code": "94103", "country": "US", "state": "CA", "display_address": ["1555 Mission St", "San Francisco, CA 94103"]}, "phone": "+14154313930", "display_phone": "(415) 431-3930", "distance": 2125.7479286509883}, {"id": "2WImgWUXjKq0OKhu9hWhOA", "alias": "ajisen-ramen-san-francisco", "name": "Ajisen Ramen", "image_url": "https://s3-media2.fl.yelpcdn.com/bphoto/xcfr8AfNk1pLgArFTsDcZQ/o.jpg", "is_closed": false, "url": "https://www.yelp.com/biz/ajisen-ramen-san-francisco?adjust_creative=Klanz-jboxl2XzqrjP6LLw&utm_campaign=yelp_api_v3&utm_medium=api_v3_business_search&utm_source=Klanz-jboxl2XzqrjP6LLw", "review_count": 1041, "categories": [{"alias": "ramen", "title": "Ramen"}], "rating": 3.5, "coordinates": {"latitude": 37.784099, "longitude": -122.406434}, "transactions": ["delivery"], "price": "$$", "location": {"address1": "865 Market St", "address2": "Ste C-12 865", "address3": "", "city": "San Francisco", "zip_code": "94103", "country": "US", "state": "CA", "display_address": ["865 Market St", "Ste C-12 865", "San Francisco, CA 94103"]}, "phone": "+14153570288", "display_phone": "(415) 357-0288", "distance": 3702.8759084036733}, {"id": "52y-wsYUilqzoNbbV8anwA", "alias": "lins-kitchen-san-francisco", "name": "Lin's Kitchen", "image_url": "https://s3-media2.fl.yelpcdn.com/bphoto/G7OHNShT0bxQb5mVtDbwDQ/o.jpg", "is_closed": false, "url": "https://www.yelp.com/biz/lins-kitchen-san-francisco?adjust_creative=Klanz-jboxl2XzqrjP6LLw&utm_campaign=yelp_api_v3&utm_medium=api_v3_business_search&utm_source=Klanz-jboxl2XzqrjP6LLw", "review_count": 81, "categories": [{"alias": "chinese", "title": "Chinese"}], "rating": 3.5, "coordinates": {"latitude": 37.78442, "longitude": -122.41296}, "transactions": ["pickup", "delivery"], "price": "$$", "location": {"address1": "337 Jones St", "address2": "", "address3": null, "city": "San Francisco", "zip_code": "94102", "country": "US", "state": "CA", "display_address": ["337 Jones St", "San Francisco, CA 94102"]}, "phone": "+14156587387", "display_phone": "(415) 658-7387", "distance": 3328.944942490163}, {"id": "vLWF4EPYGOg0F5T348-VyQ", "alias": "rose-indian-cuisine-san-francisco", "name": "Rose Indian Cuisine", "image_url": "https://s3-media2.fl.yelpcdn.com/bphoto/ZbuPN7atknqm9wMzTN64Jg/o.jpg", "is_closed": false, "url": "https://www.yelp.com/biz/rose-indian-cuisine-san-francisco?adjust_creative=Klanz-jboxl2XzqrjP6LLw&utm_campaign=yelp_api_v3&utm_medium=api_v3_business_search&utm_source=Klanz-jboxl2XzqrjP6LLw", "review_count": 301, "categories": [{"alias": "indpak", "title": "Indian"}, {"alias": "himalayan", "title": "Himalayan/Nepalese"}], "rating": 4.5, "coordinates": {"latitude": 37.762469, "longitude": -122.465914}, "transactions": ["pickup", "delivery"], "price": "$$", "location": {"address1": "1386 9th Ave", "address2": null, "address3": "", "city": "San Francisco", "zip_code": "94122", "country": "US", "state": "CA", "display_address": ["1386 9th Ave", "San Francisco, CA 94122"]}, "phone": "+14152135654", "display_phone": "(415) 213-5654", "distance": 2599.6511328180677}, {"id": "9-TPmOn6AbW2fLMiugQCiA", "alias": "osso-steakhouse-san-francisco", "name": "Osso Steakhouse", "image_url": "https://s3-media3.fl.yelpcdn.com/bphoto/cvffWDgrBhilIOdQigAdng/o.jpg", "is_closed": false, "url": "https://www.yelp.com/biz/osso-steakhouse-san-francisco?adjust_creative=Klanz-jboxl2XzqrjP6LLw&utm_campaign=yelp_api_v3&utm_medium=api_v3_business_search&utm_source=Klanz-jboxl2XzqrjP6LLw", "review_count": 803, "categories": [{"alias": "steak", "title": "Steakhouses"}, {"alias": "seafood", "title": "Seafood"}], "rating": 3.5, "coordinates": {"latitude": 37.791026, "longitude": -122.413648}, "transactions": ["delivery"], "price": "$$$", "location": {"address1": "1177 California St", "address2": "", "address3": "", "city": "San Francisco", "zip_code": "94108", "country": "US", "state": "CA", "display_address": ["1177 California St", "San Francisco, CA 94108"]}, "phone": "+14157716776", "display_phone": "(415) 771-6776", "distance": 3903.4902253690816}, {"id": "IZ5ya4olYUc19-EIWRCyuQ", "alias": "azit-oakland", "name": "AZIT", "image_url": "https://s3-media2.fl.yelpcdn.com/bphoto/dZ-XIox3WTWaNX0OOLa_KQ/o.jpg", "is_closed": false, "url": "https://www.yelp.com/biz/azit-oakland?adjust_creative=Klanz-jboxl2XzqrjP6LLw&utm_campaign=yelp_api_v3&utm_medium=api_v3_business_search&utm_source=Klanz-jboxl2XzqrjP6LLw", "review_count": 626, "categories": [{"alias": "korean", "title": "Korean"}, {"alias": "lounges", "title": "Lounges"}, {"alias": "asianfusion", "title": "Asian Fusion"}], "rating": 4.5, "coordinates": {"latitude": 37.832103729248, "longitude": -122.263084411621}, "transactions": ["pickup", "delivery"], "price": "$$", "location": {"address1": "4390 Telegraph Ave", "address2": "Ste A", "address3": "", "city": "Oakland", "zip_code": "94609", "country": "US", "state": "CA", "display_address": ["4390 Telegraph Ave", "Ste A", "Oakland, CA 94609"]}, "phone": "+15102509988", "display_phone": "(510) 250-9988", "distance": 17130.49571255782}, {"id": "kKm6pi-NazSJArAyVNH7RA", "alias": "noodle-station-daly-city", "name": "Noodle Station", "image_url": "https://s3-media3.fl.yelpcdn.com/bphoto/To7SaOrZP_AFVCXqYk6MnQ/o.jpg", "is_closed": false, "url": "https://www.yelp.com/biz/noodle-station-daly-city?adjust_creative=Klanz-jboxl2XzqrjP6LLw&utm_campaign=yelp_api_v3&utm_medium=api_v3_business_search&utm_source=Klanz-jboxl2XzqrjP6LLw", "review_count": 186, "categories": [{"alias": "asianfusion", "title": "Asian Fusion"}, {"alias": "noodles", "title": "Noodles"}], "rating": 4.0, "coordinates": {"latitude": 37.70749, "longitude": -122.45575}, "transactions": ["pickup", "delivery"], "price": "$$", "location": {"address1": "6055 Mission St", "address2": null, "address3": "", "city": "Daly City", "zip_code": "94014", "country": "US", "state": "CA", "display_address": ["6055 Mission St", "Daly City, CA 94014"]}, "phone": "+14153333888", "display_phone": "(415) 333-3888", "distance": 6172.120407989293}, {"id": "_5qJymUwaveMVuvRdtvipA", "alias": "china-north-dumpling-san-francisco", "name": "China North Dumpling", "image_url": "https://s3-media3.fl.yelpcdn.com/bphoto/uEkd6y18ZCJqfZxo7VlPWg/o.jpg", "is_closed": false, "url": "https://www.yelp.com/biz/china-north-dumpling-san-francisco?adjust_creative=Klanz-jboxl2XzqrjP6LLw&utm_campaign=yelp_api_v3&utm_medium=api_v3_business_search&utm_source=Klanz-jboxl2XzqrjP6LLw", "review_count": 220, "categories": [{"alias": "chinese", "title": "Chinese"}], "rating": 3.5, "coordinates": {"latitude": 37.7540632, "longitude": -122.4780274}, "transactions": ["pickup", "delivery"], "price": "$$", "location": {"address1": "1311 Noriega St", "address2": "", "address3": "", "city": "San Francisco", "zip_code": "94122", "country": "US", "state": "CA", "display_address": ["1311 Noriega St", "San Francisco, CA 94122"]}, "phone": "+14156659777", "display_phone": "(415) 665-9777", "distance": 3733.5913049488213}, {"id": "EF8WoEUdt-qTZ2P-DLYYNQ", "alias": "new-england-lobster-market-and-eatery-burlingame", "name": "New England Lobster Market & Eatery", "image_url": "https://s3-media3.fl.yelpcdn.com/bphoto/eIEvQKEdybaW7Xx3ZYRsyw/o.jpg", "is_closed": false, "url": "https://www.yelp.com/biz/new-england-lobster-market-and-eatery-burlingame?adjust_creative=Klanz-jboxl2XzqrjP6LLw&utm_campaign=yelp_api_v3&utm_medium=api_v3_business_search&utm_source=Klanz-jboxl2XzqrjP6LLw", "review_count": 4371, "categories": [{"alias": "seafoodmarkets", "title": "Seafood Markets"}, {"alias": "seafood", "title": "Seafood"}, {"alias": "tapasmallplates", "title": "Tapas/Small Plates"}], "rating": 4.5, "coordinates": {"latitude": 37.602687, "longitude": -122.374733}, "transactions": ["pickup", "delivery"], "price": "$$", "location": {"address1": "824 Cowan Rd", "address2": "", "address3": "", "city": "Burlingame", "zip_code": "94010", "country": "US", "state": "CA", "display_address": ["824 Cowan Rd", "Burlingame, CA 94010"]}, "phone": "+16504431559", "display_phone": "(650) 443-1559", "distance": 18411.611545679087}, {"id": "pKP6ikrLyM5Gtua13kVoUw", "alias": "izakaya-sozai-san-francisco", "name": "Izakaya Sozai", "image_url": "https://s3-media4.fl.yelpcdn.com/bphoto/XWj7FATx9EG9gteTQBXhgA/o.jpg", "is_closed": false, "url": "https://www.yelp.com/biz/izakaya-sozai-san-francisco?adjust_creative=Klanz-jboxl2XzqrjP6LLw&utm_campaign=yelp_api_v3&utm_medium=api_v3_business_search&utm_source=Klanz-jboxl2XzqrjP6LLw", "review_count": 2104, "categories": [{"alias": "ramen", "title": "Ramen"}, {"alias": "izakaya", "title": "Izakaya"}, {"alias": "noodles", "title": "Noodles"}], "rating": 4.0, "coordinates": {"latitude": 37.763879, "longitude": -122.47413}, "transactions": ["delivery"], "price": "$$", "location": {"address1": "1500 Irving St", "address2": null, "address3": "", "city": "San Francisco", "zip_code": "94122", "country": "US", "state": "CA", "display_address": ["1500 Irving St", "San Francisco, CA 94122"]}, "phone": "+14157425122", "display_phone": "(415) 742-5122", "distance": 3329.071252002252}, {"id": "Qg212xDjeaClPSI9Rlfh-g", "alias": "restaurant-anzu-san-francisco-7", "name": "Restaurant Anzu", "image_url": "https://s3-media3.fl.yelpcdn.com/bphoto/YBypkYTkBl5XhjIKdSBAPg/o.jpg", "is_closed": false, "url": "https://www.yelp.com/biz/restaurant-anzu-san-francisco-7?adjust_creative=Klanz-jboxl2XzqrjP6LLw&utm_campaign=yelp_api_v3&utm_medium=api_v3_business_search&utm_source=Klanz-jboxl2XzqrjP6LLw", "review_count": 599, "categories": [{"alias": "japanese", "title": "Japanese"}, {"alias": "bars", "title": "Bars"}, {"alias": "newamerican", "title": "American (New)"}], "rating": 3.5, "coordinates": {"latitude": 37.78601, "longitude": -122.409296}, "transactions": ["delivery"], "price": "$$$", "location": {"address1": "222 Mason St", "address2": "", "address3": "", "city": "San Francisco", "zip_code": "94102", "country": "US", "state": "CA", "display_address": ["222 Mason St", "San Francisco, CA 94102"]}, "phone": "+14153941100", "display_phone": "(415) 394-1100", "distance": 3673.0169454641054}, {"id": "8E6dU2QprKhQqyKpghe-aQ", "alias": "hana-japan-steak-and-seafood-berkeley", "name": "Hana Japan Steak & Seafood", "image_url": "https://s3-media2.fl.yelpcdn.com/bphoto/EGBvQ7rikSK3ETe6KUuywA/o.jpg", "is_closed": false, "url": "https://www.yelp.com/biz/hana-japan-steak-and-seafood-berkeley?adjust_creative=Klanz-jboxl2XzqrjP6LLw&utm_campaign=yelp_api_v3&utm_medium=api_v3_business_search&utm_source=Klanz-jboxl2XzqrjP6LLw", "review_count": 683, "categories": [{"alias": "japanese", "title": "Japanese"}, {"alias": "steak", "title": "Steakhouses"}, {"alias": "seafood", "title": "Seafood"}], "rating": 3.0, "coordinates": {"latitude": 37.8640124737336, "longitude": -122.313666343689}, "transactions": ["pickup", "delivery"], "price": "$$$", "location": {"address1": "235 University Ave", "address2": "", "address3": "Berkeley Marina", "city": "Berkeley", "zip_code": "94710", "country": "US", "state": "CA", "display_address": ["235 University Ave", "Berkeley Marina", "Berkeley, CA 94710"]}, "phone": "+15108488515", "display_phone": "(510) 848-8515", "distance": 15741.509838321519}, {"id": "1pq5mmp71nXWBK_jG9VxHg", "alias": "golden-star-vietnamese-restaurant-san-francisco", "name": "Golden Star Vietnamese Restaurant", "image_url": "https://s3-media1.fl.yelpcdn.com/bphoto/rJwIt06PIKb7aDpesMsWWw/o.jpg", "is_closed": false, "url": "https://www.yelp.com/biz/golden-star-vietnamese-restaurant-san-francisco?adjust_creative=Klanz-jboxl2XzqrjP6LLw&utm_campaign=yelp_api_v3&utm_medium=api_v3_business_search&utm_source=Klanz-jboxl2XzqrjP6LLw", "review_count": 1261, "categories": [{"alias": "vietnamese", "title": "Vietnamese"}, {"alias": "noodles", "title": "Noodles"}, {"alias": "soup", "title": "Soup"}], "rating": 4.0, "coordinates": {"latitude": 37.7945505827665, "longitude": -122.405742555857}, "transactions": ["delivery"], "price": "$$", "location": {"address1": "11 Walter U Lum Pl", "address2": "", "address3": "", "city": "San Francisco", "zip_code": "94108", "country": "US", "state": "CA", "display_address": ["11 Walter U Lum Pl", "San Francisco, CA 94108"]}, "phone": "+14153981215", "display_phone": "(415) 398-1215", "distance": 4607.920811944101}, {"id": "w45rq7jonVT2z8nEIhm96g", "alias": "sanraku-san-francisco-4", "name": "Sanraku", "image_url": "https://s3-media2.fl.yelpcdn.com/bphoto/znfHJ_8dPGilaEFUt_aDXQ/o.jpg", "is_closed": false, "url": "https://www.yelp.com/biz/sanraku-san-francisco-4?adjust_creative=Klanz-jboxl2XzqrjP6LLw&utm_campaign=yelp_api_v3&utm_medium=api_v3_business_search&utm_source=Klanz-jboxl2XzqrjP6LLw", "review_count": 674, "categories": [{"alias": "japanese", "title": "Japanese"}, {"alias": "sushi", "title": "Sushi Bars"}], "rating": 3.5, "coordinates": {"latitude": 37.7842785394116, "longitude": -122.402876615525}, "transactions": ["pickup"], "price": "$$", "location": {"address1": "135 4th St", "address2": "", "address3": "", "city": "San Francisco", "zip_code": "94103", "country": "US", "state": "CA", "display_address": ["135 4th St", "San Francisco, CA 94103"]}, "phone": "+14153696166", "display_phone": "(415) 369-6166", "distance": 3932.4797135284725}, {"id": "5DeL87rp02kT8xHn1CJS1g", "alias": "jasmine-garden-san-francisco", "name": "Jasmine Garden", "image_url": "https://s3-media2.fl.yelpcdn.com/bphoto/8-aLidQXaYXCfBA0H2E1jw/o.jpg", "is_closed": false, "url": "https://www.yelp.com/biz/jasmine-garden-san-francisco?adjust_creative=Klanz-jboxl2XzqrjP6LLw&utm_campaign=yelp_api_v3&utm_medium=api_v3_business_search&utm_source=Klanz-jboxl2XzqrjP6LLw", "review_count": 692, "categories": [{"alias": "vietnamese", "title": "Vietnamese"}], "rating": 4.0, "coordinates": {"latitude": 37.76783, "longitude": -122.42933}, "transactions": ["pickup", "delivery"], "price": "$$", "location": {"address1": "708 14th St", "address2": "", "address3": "", "city": "San Francisco", "zip_code": "94114", "country": "US", "state": "CA", "display_address": ["708 14th St", "San Francisco, CA 94114"]}, "phone": "+14158612682", "display_phone": "(415) 861-2682", "distance": 990.1681747307066}, {"id": "V5974FAv8IJmMU_fkG3w0A", "alias": "mikawa-teriyaki-san-francisco", "name": "Mikawa Teriyaki", "image_url": "https://s3-media2.fl.yelpcdn.com/bphoto/Dg4ENxejczP4xSaLva_skQ/o.jpg", "is_closed": false, "url": "https://www.yelp.com/biz/mikawa-teriyaki-san-francisco?adjust_creative=Klanz-jboxl2XzqrjP6LLw&utm_campaign=yelp_api_v3&utm_medium=api_v3_business_search&utm_source=Klanz-jboxl2XzqrjP6LLw", "review_count": 16, "categories": [{"alias": "japanese", "title": "Japanese"}], "rating": 4.0, "coordinates": {"latitude": 37.78181187836246, "longitude": -122.4855282}, "transactions": ["pickup", "delivery"], "price": "$$", "location": {"address1": "2435 Clement St", "address2": null, "address3": "", "city": "San Francisco", "zip_code": "94121", "country": "US", "state": "CA", "display_address": ["2435 Clement St", "San Francisco, CA 94121"]}, "phone": "+14157026296", "display_phone": "(415) 702-6296", "distance": 4900.795697400559}, {"id": "msESLp0PLBVBlbUnYbIj8w", "alias": "pagan-restaurant-san-francisco", "name": "Pagan Restaurant", "image_url": "https://s3-media1.fl.yelpcdn.com/bphoto/tbuOUCXEDP_Mx0tI5Zy3Dw/o.jpg", "is_closed": false, "url": "https://www.yelp.com/biz/pagan-restaurant-san-francisco?adjust_creative=Klanz-jboxl2XzqrjP6LLw&utm_campaign=yelp_api_v3&utm_medium=api_v3_business_search&utm_source=Klanz-jboxl2XzqrjP6LLw", "review_count": 552, "categories": [{"alias": "thai", "title": "Thai"}, {"alias": "burmese", "title": "Burmese"}], "rating": 4.0, "coordinates": {"latitude": 37.781458, "longitude": -122.493306}, "transactions": ["delivery"], "price": "$$", "location": {"address1": "3199 Clement St", "address2": "", "address3": "", "city": "San Francisco", "zip_code": "94121", "country": "US", "state": "CA", "display_address": ["3199 Clement St", "San Francisco, CA 94121"]}, "phone": "+14157512598", "display_phone": "(415) 751-2598", "distance": 5495.650035814325}, {"id": "r2xcmIvO0pIMPNQTxuN9yg", "alias": "thai-spice-san-francisco-2", "name": "Thai Spice", "image_url": "https://s3-media3.fl.yelpcdn.com/bphoto/heXRCr2jsIvu_u1o45BeTA/o.jpg", "is_closed": false, "url": "https://www.yelp.com/biz/thai-spice-san-francisco-2?adjust_creative=Klanz-jboxl2XzqrjP6LLw&utm_campaign=yelp_api_v3&utm_medium=api_v3_business_search&utm_source=Klanz-jboxl2XzqrjP6LLw", "review_count": 4, "categories": [{"alias": "thai", "title": "Thai"}], "rating": 4.5, "coordinates": {"latitude": 37.79282, "longitude": -122.42084}, "transactions": ["pickup", "delivery"], "price": "$$", "location": {"address1": "1730 Polk St", "address2": null, "address3": "", "city": "San Francisco", "zip_code": "94109", "country": "US", "state": "CA", "display_address": ["1730 Polk St", "San Francisco, CA 94109"]}, "phone": "+14157754777", "display_phone": "(415) 775-4777", "distance": 3804.985520738715}, {"id": "aor5U_cIBBQJWZLu90qmXg", "alias": "buffalo-kitchen-san-francisco-2", "name": "Buffalo Kitchen", "image_url": "https://s3-media1.fl.yelpcdn.com/bphoto/pqyGgd1n0Y0q_8XhyZHA6g/o.jpg", "is_closed": false, "url": "https://www.yelp.com/biz/buffalo-kitchen-san-francisco-2?adjust_creative=Klanz-jboxl2XzqrjP6LLw&utm_campaign=yelp_api_v3&utm_medium=api_v3_business_search&utm_source=Klanz-jboxl2XzqrjP6LLw", "review_count": 66, "categories": [{"alias": "dimsum", "title": "Dim Sum"}], "rating": 3.5, "coordinates": {"latitude": 37.7118, "longitude": -122.40592}, "transactions": ["delivery"], "price": "$", "location": {"address1": "107 Leland Ave", "address2": "", "address3": "", "city": "San Francisco", "zip_code": "94134", "country": "US", "state": "CA", "display_address": ["107 Leland Ave", "San Francisco, CA 94134"]}, "phone": "+14155862986", "display_phone": "(415) 586-2986", "distance": 6080.1579419510945}], "total": 1800, "region": {"center": {"longitude": -122.43644714355469, "latitude": 37.76089938976322}}}