{"businesses": [{"id": "QmG1Oh-41OxKC40kRWtSlQ", "alias": "noodles-fresh-berkeley", "name": "Noodles Fresh", "image_url": "https://s3-media4.fl.yelpcdn.com/bphoto/764IVsMRot0dUv-M9GlgWQ/o.jpg", "is_closed": false, "url": "https://www.yelp.com/biz/noodles-fresh-berkeley?adjust_creative=Klanz-jboxl2XzqrjP6LLw&utm_campaign=yelp_api_v3&utm_medium=api_v3_business_search&utm_source=Klanz-jboxl2XzqrjP6LLw", "review_count": 109, "categories": [{"alias": "chinese", "title": "Chinese"}, {"alias": "noodles", "title": "Noodles"}], "rating": 4.5, "coordinates": {"latitude": 37.865198, "longitude": -122.2679365}, "transactions": ["delivery"], "price": "$$", "location": {"address1": "2430 Shattuck Ave", "address2": null, "address3": "", "city": "Berkeley", "zip_code": "94704", "country": "US", "state": "CA", "display_address": ["2430 Shattuck Ave", "Berkeley, CA 94704"]}, "phone": "+15109068800", "display_phone": "(510) 906-8800", "distance": 18804.98250108174}, {"id": "5zKrxtjKK09F_Dwgs5Kxwg", "alias": "lahore-karahi-san-francisco-2", "name": "Lahore Karahi", "image_url": "https://s3-media2.fl.yelpcdn.com/bphoto/iAS-VDtAPpgRszy-0bhOLw/o.jpg", "is_closed": false, "url": "https://www.yelp.com/biz/lahore-karahi-san-francisco-2?adjust_creative=Klanz-jboxl2XzqrjP6LLw&utm_campaign=yelp_api_v3&utm_medium=api_v3_business_search&utm_source=Klanz-jboxl2XzqrjP6LLw", "review_count": 1452, "categories": [{"alias": "indpak", "title": "Indian"}, {"alias": "pakistani", "title": "Pakistani"}, {"alias": "halal", "title": "Halal"}], "rating": 4.0, "coordinates": {"latitude": 37.78568, "longitude": -122.4149}, "transactions": ["delivery", "pickup"], "price": "$$", "location": {"address1": "612 O'Farrell St", "address2": "", "address3": "", "city": "San Francisco", "zip_code": "94109", "country": "US", "state": "CA", "display_address": ["612 O'Farrell St", "San Francisco, CA 94109"]}, "phone": "+14155678603", "display_phone": "(415) 567-8603", "distance": 3335.3449947554}, {"id": "MNsB9Tn1DQpZzP1Q1Vit1g", "alias": "gintei-san-bruno", "name": "Gintei", "image_url": "https://s3-media3.fl.yelpcdn.com/bphoto/AD4drEDOUFj5OCHkcqniuA/o.jpg", "is_closed": false, "url": "https://www.yelp.com/biz/gintei-san-bruno?adjust_creative=Klanz-jboxl2XzqrjP6LLw&utm_campaign=yelp_api_v3&utm_medium=api_v3_business_search&utm_source=Klanz-jboxl2XzqrjP6LLw", "review_count": 477, "categories": [{"alias": "japanese", "title": "Japanese"}, {"alias": "sushi", "title": "Sushi Bars"}], "rating": 4.0, "coordinates": {"latitude": 37.618545, "longitude": -122.40979}, "transactions": ["delivery", "pickup"], "price": "$$$", "location": {"address1": "235 El Camino Real", "address2": null, "address3": "", "city": "San Bruno", "zip_code": "94066", "country": "US", "state": "CA", "display_address": ["235 El Camino Real", "San Bruno, CA 94066"]}, "phone": "+16506364135", "display_phone": "(650) 636-4135", "distance": 16001.046175516944}, {"id": "Qbr2JG96K6d31NqqAUxf9g", "alias": "la-mar-cebicher\u00eda-peruana-san-francisco-4", "name": "La Mar Cebicher\u00eda Peruana", "image_url": "https://s3-media4.fl.yelpcdn.com/bphoto/hI4L8cMY1JY_UKq7ZYBpTw/o.jpg", "is_closed": false, "url": "https://www.yelp.com/biz/la-mar-cebicher%C3%ADa-peruana-san-francisco-4?adjust_creative=Klanz-jboxl2XzqrjP6LLw&utm_campaign=yelp_api_v3&utm_medium=api_v3_business_search&utm_source=Klanz-jboxl2XzqrjP6LLw", "review_count": 4032, "categories": [{"alias": "latin", "title": "Latin American"}, {"alias": "seafood", "title": "Seafood"}, {"alias": "peruvian", "title": "Peruvian"}], "rating": 4.0, "coordinates": {"latitude": 37.7974182368553, "longitude": -122.395129846558}, "transactions": ["delivery", "pickup"], "price": "$$$", "location": {"address1": "Pier 1 1/2 The Embarcadero", "address2": "Ste 100", "address3": "", "city": "San Francisco", "zip_code": "94111", "country": "US", "state": "CA", "display_address": ["Pier 1 1/2 The Embarcadero", "Ste 100", "San Francisco, CA 94111"]}, "phone": "+14153978880", "display_phone": "(415) 397-8880", "distance": 5447.477112361181}, {"id": "BRz0ocqDzNlGS-AG1IpXtA", "alias": "pabu-izakaya-san-francisco-san-francisco", "name": "PABU Izakaya San Francisco", "image_url": "https://s3-media3.fl.yelpcdn.com/bphoto/DkfEfb2IRhCHxenRV6dnhw/o.jpg", "is_closed": false, "url": "https://www.yelp.com/biz/pabu-izakaya-san-francisco-san-francisco?adjust_creative=Klanz-jboxl2XzqrjP6LLw&utm_campaign=yelp_api_v3&utm_medium=api_v3_business_search&utm_source=Klanz-jboxl2XzqrjP6LLw", "review_count": 1123, "categories": [{"alias": "japanese", "title": "Japanese"}, {"alias": "sushi", "title": "Sushi Bars"}, {"alias": "cocktailbars", "title": "Cocktail Bars"}], "rating": 4.0, "coordinates": {"latitude": 37.792795, "longitude": -122.397989}, "transactions": ["delivery", "pickup"], "price": "$$$$", "location": {"address1": "101 California St", "address2": null, "address3": "", "city": "San Francisco", "zip_code": "94111", "country": "US", "state": "CA", "display_address": ["101 California St", "San Francisco, CA 94111"]}, "phone": "+14155350184", "display_phone": "(415) 535-0184", "distance": 4899.3051885514615}, {"id": "mk2WW5bA-0WfQP1Uo17_Sg", "alias": "happy-donuts-san-francisco-19", "name": "Happy Donuts", "image_url": "https://s3-media1.fl.yelpcdn.com/bphoto/YEhZbhrD36jWEChMbVqEUA/o.jpg", "is_closed": false, "url": "https://www.yelp.com/biz/happy-donuts-san-francisco-19?adjust_creative=Klanz-jboxl2XzqrjP6LLw&utm_campaign=yelp_api_v3&utm_medium=api_v3_business_search&utm_source=Klanz-jboxl2XzqrjP6LLw", "review_count": 218, "categories": [{"alias": "donuts", "title": "Donuts"}, {"alias": "vietnamese", "title": "Vietnamese"}, {"alias": "thai", "title": "Thai"}], "rating": 3.5, "coordinates": {"latitude": 37.791478, "longitude": -122.399946}, "transactions": ["pickup"], "price": "$", "location": {"address1": "100 Bush St", "address2": "", "address3": "", "city": "San Francisco", "zip_code": "94111", "country": "US", "state": "CA", "display_address": ["100 Bush St", "San Francisco, CA 94111"]}, "phone": "+14153986769", "display_phone": "(415) 398-6769", "distance": 4674.71107004836}, {"id": "xE3LQfzixJfqqQsNt2GTXQ", "alias": "vip-coffee-and-cake-shop-san-francisco", "name": "VIP Coffee & Cake Shop", "image_url": "https://s3-media2.fl.yelpcdn.com/bphoto/pDnB6VXj1O3NMelFcKFz9Q/o.jpg", "is_closed": false, "url": "https://www.yelp.com/biz/vip-coffee-and-cake-shop-san-francisco?adjust_creative=Klanz-jboxl2XzqrjP6LLw&utm_campaign=yelp_api_v3&utm_medium=api_v3_business_search&utm_source=Klanz-jboxl2XzqrjP6LLw", "review_count": 264, "categories": [{"alias": "bakeries", "title": "Bakeries"}, {"alias": "cantonese", "title": "Cantonese"}, {"alias": "hkcafe", "title": "Hong Kong Style Cafe"}], "rating": 3.5, "coordinates": {"latitude": 37.7975, "longitude": -122.408042}, "transactions": ["delivery"], "price": "$", "location": {"address1": "671 Broadway", "address2": "", "address3": "", "city": "San Francisco", "zip_code": "94133", "country": "US", "state": "CA", "display_address": ["671 Broadway", "San Francisco, CA 94133"]}, "phone": "+14159897118", "display_phone": "(415) 989-7118", "distance": 4775.164603211439}, {"id": "VaEpEGJd5qmtpEjzGedXWw", "alias": "kiss-my-seoul-san-francisco-2", "name": "Kiss My Seoul", "image_url": "https://s3-media2.fl.yelpcdn.com/bphoto/aHrwvc-UxS9zMIfMeJHP3Q/o.jpg", "is_closed": false, "url": "https://www.yelp.com/biz/kiss-my-seoul-san-francisco-2?adjust_creative=Klanz-jboxl2XzqrjP6LLw&utm_campaign=yelp_api_v3&utm_medium=api_v3_business_search&utm_source=Klanz-jboxl2XzqrjP6LLw", "review_count": 32, "categories": [{"alias": "korean", "title": "Korean"}, {"alias": "catering", "title": "Caterers"}], "rating": 4.5, "coordinates": {"latitude": 37.7726402, "longitude": -122.4099154}, "transactions": [], "location": {"address1": "", "address2": null, "address3": "", "city": "San Francisco", "zip_code": "94103", "country": "US", "state": "CA", "display_address": ["San Francisco, CA 94103"]}, "phone": "+16268238999", "display_phone": "(626) 823-8999", "distance": 2672.7013543084}, {"id": "UC8lpcaAtFIK-Ar2vmSiwQ", "alias": "noodle-theory-oakland", "name": "Noodle Theory", "image_url": "https://s3-media3.fl.yelpcdn.com/bphoto/frmOkJNrK1EDsaw1Iv3uzw/o.jpg", "is_closed": false, "url": "https://www.yelp.com/biz/noodle-theory-oakland?adjust_creative=Klanz-jboxl2XzqrjP6LLw&utm_campaign=yelp_api_v3&utm_medium=api_v3_business_search&utm_source=Klanz-jboxl2XzqrjP6LLw", "review_count": 1228, "categories": [{"alias": "ramen", "title": "Ramen"}, {"alias": "noodles", "title": "Noodles"}], "rating": 4.0, "coordinates": {"latitude": 37.8492607, "longitude": -122.2525755}, "transactions": ["delivery"], "price": "$$", "location": {"address1": "6099 Claremont Ave", "address2": "", "address3": "", "city": "Oakland", "zip_code": "94618", "country": "US", "state": "CA", "display_address": ["6099 Claremont Ave", "Oakland, CA 94618"]}, "phone": "+15105956988", "display_phone": "(510) 595-6988", "distance": 18907.413677656627}, {"id": "MbzmHmgqD3UqrJ7eQBn_Kg", "alias": "queens-san-francisco-2", "name": "Queens", "image_url": "https://s3-media4.fl.yelpcdn.com/bphoto/HmWxmbp72a949MbJXGeI1g/o.jpg", "is_closed": false, "url": "https://www.yelp.com/biz/queens-san-francisco-2?adjust_creative=Klanz-jboxl2XzqrjP6LLw&utm_campaign=yelp_api_v3&utm_medium=api_v3_business_search&utm_source=Klanz-jboxl2XzqrjP6LLw", "review_count": 53, "categories": [{"alias": "delis", "title": "Delis"}, {"alias": "korean", "title": "Korean"}, {"alias": "beer_and_wine", "title": "Beer, Wine & Spirits"}], "rating": 4.5, "coordinates": {"latitude": 37.76526, "longitude": -122.46672}, "transactions": [], "price": "$$", "location": {"address1": "1235 9th Ave", "address2": null, "address3": "", "city": "San Francisco", "zip_code": "94122", "country": "US", "state": "CA", "display_address": ["1235 9th Ave", "San Francisco, CA 94122"]}, "phone": "+14157029382", "display_phone": "(415) 702-9382", "distance": 2710.7433449057694}, {"id": "rCykzuvpujfR8M6lwDK0pA", "alias": "l-amour-de-saigon-san-francisco-2", "name": "L'Amour De Saigon", "image_url": "https://s3-media3.fl.yelpcdn.com/bphoto/RlzVkEnzhzFgujTnoCgHXA/o.jpg", "is_closed": false, "url": "https://www.yelp.com/biz/l-amour-de-saigon-san-francisco-2?adjust_creative=Klanz-jboxl2XzqrjP6LLw&utm_campaign=yelp_api_v3&utm_medium=api_v3_business_search&utm_source=Klanz-jboxl2XzqrjP6LLw", "review_count": 121, "categories": [{"alias": "vietnamese", "title": "Vietnamese"}, {"alias": "salad", "title": "Salad"}, {"alias": "coffee", "title": "Coffee & Tea"}], "rating": 4.0, "coordinates": {"latitude": 37.73751, "longitude": -122.46913}, "transactions": ["delivery", "pickup"], "price": "$$", "location": {"address1": "321A W Portal Ave", "address2": "", "address3": null, "city": "San Francisco", "zip_code": "94127", "country": "US", "state": "CA", "display_address": ["321A W Portal Ave", "San Francisco, CA 94127"]}, "phone": "+14155928482", "display_phone": "(415) 592-8482", "distance": 3882.190284025492}, {"id": "ZtyGnHpot_v9t3Anr66Bpg", "alias": "bangkok-house-thai-noodles-san-francisco", "name": "Bangkok House Thai Noodles", "image_url": "https://s3-media3.fl.yelpcdn.com/bphoto/B2-bTUQqKrB3HNwgq6reZQ/o.jpg", "is_closed": false, "url": "https://www.yelp.com/biz/bangkok-house-thai-noodles-san-francisco?adjust_creative=Klanz-jboxl2XzqrjP6LLw&utm_campaign=yelp_api_v3&utm_medium=api_v3_business_search&utm_source=Klanz-jboxl2XzqrjP6LLw", "review_count": 41, "categories": [{"alias": "thai", "title": "Thai"}, {"alias": "noodles", "title": "Noodles"}], "rating": 4.5, "coordinates": {"latitude": 37.76316, "longitude": -122.48075}, "transactions": ["delivery", "pickup"], "price": "$$", "location": {"address1": "2123 Irving St", "address2": null, "address3": "", "city": "San Francisco", "zip_code": "94122", "country": "US", "state": "CA", "display_address": ["2123 Irving St", "San Francisco, CA 94122"]}, "phone": "+14157533347", "display_phone": "(415) 753-3347", "distance": 3909.828681125405}, {"id": "WyBN8MGM6LVuDNBD4cBEqA", "alias": "doobu-san-francisco", "name": "Doobu", "image_url": "https://s3-media2.fl.yelpcdn.com/bphoto/BYcGGfflLyJK7i7Pwn6fuA/o.jpg", "is_closed": false, "url": "https://www.yelp.com/biz/doobu-san-francisco?adjust_creative=Klanz-jboxl2XzqrjP6LLw&utm_campaign=yelp_api_v3&utm_medium=api_v3_business_search&utm_source=Klanz-jboxl2XzqrjP6LLw", "review_count": 493, "categories": [{"alias": "korean", "title": "Korean"}], "rating": 3.5, "coordinates": {"latitude": 37.78599, "longitude": -122.43013}, "transactions": ["delivery"], "price": "$$", "location": {"address1": "1723 Buchanan St", "address2": null, "address3": "", "city": "San Francisco", "zip_code": "94115", "country": "US", "state": "CA", "display_address": ["1723 Buchanan St", "San Francisco, CA 94115"]}, "phone": "+14152926002", "display_phone": "(415) 292-6002", "distance": 2847.098652443328}, {"id": "_-7VgjSfibitQ1-TBvE0Aw", "alias": "mau-san-francisco", "name": "Mau", "image_url": "https://s3-media1.fl.yelpcdn.com/bphoto/lMmkscTVjRHzdteH1B5rzg/o.jpg", "is_closed": false, "url": "https://www.yelp.com/biz/mau-san-francisco?adjust_creative=Klanz-jboxl2XzqrjP6LLw&utm_campaign=yelp_api_v3&utm_medium=api_v3_business_search&utm_source=Klanz-jboxl2XzqrjP6LLw", "review_count": 910, "categories": [{"alias": "vietnamese", "title": "Vietnamese"}, {"alias": "noodles", "title": "Noodles"}, {"alias": "sandwiches", "title": "Sandwiches"}], "rating": 4.0, "coordinates": {"latitude": 37.79135, "longitude": -122.39311}, "transactions": ["delivery", "pickup"], "price": "$$", "location": {"address1": "180 Spear St", "address2": "", "address3": "", "city": "San Francisco", "zip_code": "94105", "country": "US", "state": "CA", "display_address": ["180 Spear St", "San Francisco, CA 94105"]}, "phone": "+14159348889", "display_phone": "(415) 934-8889", "distance": 5148.704616406487}, {"id": "Z-fTFkb_AQ-Wu6qss3Wm1Q", "alias": "utopia-cafe-san-francisco", "name": "Utopia Cafe", "image_url": "https://s3-media1.fl.yelpcdn.com/bphoto/T_FuCWjHqRLrjK9rXP5sgw/o.jpg", "is_closed": false, "url": "https://www.yelp.com/biz/utopia-cafe-san-francisco?adjust_creative=Klanz-jboxl2XzqrjP6LLw&utm_campaign=yelp_api_v3&utm_medium=api_v3_business_search&utm_source=Klanz-jboxl2XzqrjP6LLw", "review_count": 308, "categories": [{"alias": "cantonese", "title": "Cantonese"}, {"alias": "noodles", "title": "Noodles"}, {"alias": "cafes", "title": "Cafes"}], "rating": 3.5, "coordinates": {"latitude": 37.79469, "longitude": -122.40709}, "transactions": ["delivery", "pickup"], "price": "$", "location": {"address1": "139 Waverly Pl", "address2": "", "address3": "", "city": "San Francisco", "zip_code": "94108", "country": "US", "state": "CA", "display_address": ["139 Waverly Pl", "San Francisco, CA 94108"]}, "phone": "+14159562902", "display_phone": "(415) 956-2902", "distance": 4558.686180662585}, {"id": "JPIsHSqd1-6tefmKNEc_Tg", "alias": "xing-yuan-chinese-restaurant-alameda", "name": "Xing Yuan Chinese Restaurant", "image_url": "https://s3-media4.fl.yelpcdn.com/bphoto/6BzzK38wWXpf0LFXVyJOpg/o.jpg", "is_closed": false, "url": "https://www.yelp.com/biz/xing-yuan-chinese-restaurant-alameda?adjust_creative=Klanz-jboxl2XzqrjP6LLw&utm_campaign=yelp_api_v3&utm_medium=api_v3_business_search&utm_source=Klanz-jboxl2XzqrjP6LLw", "review_count": 290, "categories": [{"alias": "chinese", "title": "Chinese"}], "rating": 3.5, "coordinates": {"latitude": 37.783673065657, "longitude": -122.273182086647}, "transactions": ["delivery", "pickup"], "price": "$$", "location": {"address1": "839 Marina Village Pkwy", "address2": "", "address3": "", "city": "Alameda", "zip_code": "94501", "country": "US", "state": "CA", "display_address": ["839 Marina Village Pkwy", "Alameda, CA 94501"]}, "phone": "+15105228215", "display_phone": "(510) 522-8215", "distance": 14571.753545813921}, {"id": "gWbsBFjQIXe-F7PQDcf4_w", "alias": "baoz-san-francisco", "name": "BAOZ", "image_url": "https://s3-media3.fl.yelpcdn.com/bphoto/sdeajUBxhTH-WPqscjndyg/o.jpg", "is_closed": false, "url": "https://www.yelp.com/biz/baoz-san-francisco?adjust_creative=Klanz-jboxl2XzqrjP6LLw&utm_campaign=yelp_api_v3&utm_medium=api_v3_business_search&utm_source=Klanz-jboxl2XzqrjP6LLw", "review_count": 65, "categories": [{"alias": "asianfusion", "title": "Asian Fusion"}, {"alias": "comfortfood", "title": "Comfort Food"}], "rating": 4.5, "coordinates": {"latitude": 37.75097, "longitude": -122.394127}, "transactions": ["delivery", "pickup"], "location": {"address1": "1750 Cesar Chavez", "address2": "Unit D", "address3": "", "city": "San Francisco", "zip_code": "94124", "country": "US", "state": "CA", "display_address": ["1750 Cesar Chavez", "Unit D", "San Francisco, CA 94124"]}, "phone": "+14159928180", "display_phone": "(415) 992-8180", "distance": 3883.9655330521978}, {"id": "1OOM2z1zRmVXGZghiuTJmA", "alias": "ramen-goku-san-francisco", "name": "Ramen  Goku", "image_url": "https://s3-media2.fl.yelpcdn.com/bphoto/BdoAtcukuGv6KGgO9AcmuQ/o.jpg", "is_closed": false, "url": "https://www.yelp.com/biz/ramen-goku-san-francisco?adjust_creative=Klanz-jboxl2XzqrjP6LLw&utm_campaign=yelp_api_v3&utm_medium=api_v3_business_search&utm_source=Klanz-jboxl2XzqrjP6LLw", "review_count": 548, "categories": [{"alias": "tapasmallplates", "title": "Tapas/Small Plates"}, {"alias": "ramen", "title": "Ramen"}, {"alias": "izakaya", "title": "Izakaya"}], "rating": 3.5, "coordinates": {"latitude": 37.7649454732539, "longitude": -122.424988349703}, "transactions": ["delivery", "pickup"], "price": "$$", "location": {"address1": "3232 16th St", "address2": "", "address3": "", "city": "San Francisco", "zip_code": "94103", "country": "US", "state": "CA", "display_address": ["3232 16th St", "San Francisco, CA 94103"]}, "phone": "+14159340321", "display_phone": "(415) 934-0321", "distance": 1103.1961393226445}, {"id": "Ojg9pSTfH1sw3otsvyG7bA", "alias": "china-delights-san-francisco-2", "name": "China Delights", "image_url": "https://s3-media3.fl.yelpcdn.com/bphoto/Db8M6hkUM1yfUT97xXvyOg/o.jpg", "is_closed": false, "url": "https://www.yelp.com/biz/china-delights-san-francisco-2?adjust_creative=Klanz-jboxl2XzqrjP6LLw&utm_campaign=yelp_api_v3&utm_medium=api_v3_business_search&utm_source=Klanz-jboxl2XzqrjP6LLw", "review_count": 3, "categories": [{"alias": "chinese", "title": "Chinese"}], "rating": 3.5, "coordinates": {"latitude": 37.71412, "longitude": -122.462974}, "transactions": ["delivery", "pickup"], "location": {"address1": "295 Orizaba Ave", "address2": null, "address3": null, "city": "San Francisco", "zip_code": "94132", "country": "US", "state": "CA", "display_address": ["295 Orizaba Ave", "San Francisco, CA 94132"]}, "phone": "+14155868000", "display_phone": "(415) 586-8000", "distance": 5698.498830566151}, {"id": "wfp9fhCN-XRlJI01JQxHnw", "alias": "cheung-hing-restaurant-millbrae", "name": "Cheung Hing Restaurant", "image_url": "https://s3-media4.fl.yelpcdn.com/bphoto/f0ClRtCWSyibpwtTMZogCg/o.jpg", "is_closed": false, "url": "https://www.yelp.com/biz/cheung-hing-restaurant-millbrae?adjust_creative=Klanz-jboxl2XzqrjP6LLw&utm_campaign=yelp_api_v3&utm_medium=api_v3_business_search&utm_source=Klanz-jboxl2XzqrjP6LLw", "review_count": 380, "categories": [{"alias": "chinese", "title": "Chinese"}], "rating": 3.0, "coordinates": {"latitude": 37.6007772002234, "longitude": -122.390512557415}, "transactions": ["delivery", "pickup"], "price": "$$", "location": {"address1": "245 El Camino Real", "address2": "", "address3": "", "city": "Millbrae", "zip_code": "94030", "country": "US", "state": "CA", "display_address": ["245 El Camino Real", "Millbrae, CA 94030"]}, "phone": "+16506523938", "display_phone": "(650) 652-3938", "distance": 18257.87536365326}, {"id": "1MgaMxXgO5RQv7uP59pOvA", "alias": "common-sage-san-francisco-3", "name": "Common Sage", "image_url": "https://s3-media4.fl.yelpcdn.com/bphoto/-SRZ0jvn6SFluW2VedbKBQ/o.jpg", "is_closed": false, "url": "https://www.yelp.com/biz/common-sage-san-francisco-3?adjust_creative=Klanz-jboxl2XzqrjP6LLw&utm_campaign=yelp_api_v3&utm_medium=api_v3_business_search&utm_source=Klanz-jboxl2XzqrjP6LLw", "review_count": 242, "categories": [{"alias": "beer_and_wine", "title": "Beer, Wine & Spirits"}, {"alias": "ramen", "title": "Ramen"}, {"alias": "cafes", "title": "Cafes"}], "rating": 4.0, "coordinates": {"latitude": 37.7913965249709, "longitude": -122.420708946884}, "transactions": ["delivery", "pickup"], "price": "$$", "location": {"address1": "1552 Polk St", "address2": "", "address3": "", "city": "San Francisco", "zip_code": "94109", "country": "US", "state": "CA", "display_address": ["1552 Polk St", "San Francisco, CA 94109"]}, "phone": "+14155807178", "display_phone": "(415) 580-7178", "distance": 3662.3787732773812}, {"id": "IHcOOCDt_NOENttBE7lWSg", "alias": "phuket-thai-restaurant-san-francisco", "name": "Phuket Thai Restaurant", "image_url": "https://s3-media1.fl.yelpcdn.com/bphoto/ZNoPSIMYkteyFrNcqGmwUQ/o.jpg", "is_closed": false, "url": "https://www.yelp.com/biz/phuket-thai-restaurant-san-francisco?adjust_creative=Klanz-jboxl2XzqrjP6LLw&utm_campaign=yelp_api_v3&utm_medium=api_v3_business_search&utm_source=Klanz-jboxl2XzqrjP6LLw", "review_count": 161, "categories": [{"alias": "thai", "title": "Thai"}, {"alias": "seafood", "title": "Seafood"}], "rating": 3.0, "coordinates": {"latitude": 37.77118, "longitude": -122.43669}, "transactions": ["delivery", "pickup"], "price": "$", "location": {"address1": "248 Divisadero St", "address2": "", "address3": "", "city": "San Francisco", "zip_code": "94117", "country": "US", "state": "CA", "display_address": ["248 Divisadero St", "San Francisco, CA 94117"]}, "phone": "+14158648584", "display_phone": "(415) 864-8584", "distance": 1143.0491634141213}, {"id": "LubmEMi9H4tjsd_PN3cZWQ", "alias": "ping-yang-thai-grill-and-dessert-san-francisco", "name": "Ping Yang Thai Grill & Dessert", "image_url": "https://s3-media2.fl.yelpcdn.com/bphoto/l9-XTB0UWo_-QKM70lBhiw/o.jpg", "is_closed": false, "url": "https://www.yelp.com/biz/ping-yang-thai-grill-and-dessert-san-francisco?adjust_creative=Klanz-jboxl2XzqrjP6LLw&utm_campaign=yelp_api_v3&utm_medium=api_v3_business_search&utm_source=Klanz-jboxl2XzqrjP6LLw", "review_count": 149, "categories": [{"alias": "thai", "title": "Thai"}, {"alias": "desserts", "title": "Desserts"}], "rating": 4.0, "coordinates": {"latitude": 37.786934, "longitude": -122.418521}, "transactions": ["delivery", "pickup"], "price": "$$", "location": {"address1": "955 Larkin St", "address2": "", "address3": null, "city": "San Francisco", "zip_code": "94109", "country": "US", "state": "CA", "display_address": ["955 Larkin St", "San Francisco, CA 94109"]}, "phone": "+14157926899", "display_phone": "(415) 792-6899", "distance": 3295.8967578339916}, {"id": "UdmSl1heJtSBMjjTsi-ndQ", "alias": "little-shin-shin-oakland", "name": "Little Shin Shin", "image_url": "https://s3-media1.fl.yelpcdn.com/bphoto/XyJyU5EQns9k0rXd7_ewzQ/o.jpg", "is_closed": false, "url": "https://www.yelp.com/biz/little-shin-shin-oakland?adjust_creative=Klanz-jboxl2XzqrjP6LLw&utm_campaign=yelp_api_v3&utm_medium=api_v3_business_search&utm_source=Klanz-jboxl2XzqrjP6LLw", "review_count": 545, "categories": [{"alias": "chinese", "title": "Chinese"}], "rating": 3.5, "coordinates": {"latitude": 37.8283729, "longitude": -122.2495552}, "transactions": ["delivery"], "price": "$$", "location": {"address1": "4258 Piedmont Ave", "address2": "", "address3": "", "city": "Oakland", "zip_code": "94611", "country": "US", "state": "CA", "display_address": ["4258 Piedmont Ave", "Oakland, CA 94611"]}, "phone": "+15106589799", "display_phone": "(510) 658-9799", "distance": 18041.433999729947}, {"id": "oXF3H0m8pV-u-L9-PTF66Q", "alias": "ipot-plus-millbrae", "name": "IPOT Plus", "image_url": "https://s3-media1.fl.yelpcdn.com/bphoto/9zY_F2Tt3Mt-8mkfQoKNKA/o.jpg", "is_closed": false, "url": "https://www.yelp.com/biz/ipot-plus-millbrae?adjust_creative=Klanz-jboxl2XzqrjP6LLw&utm_campaign=yelp_api_v3&utm_medium=api_v3_business_search&utm_source=Klanz-jboxl2XzqrjP6LLw", "review_count": 195, "categories": [{"alias": "hotpot", "title": "Hot Pot"}, {"alias": "chinese", "title": "Chinese"}], "rating": 4.0, "coordinates": {"latitude": 37.599537, "longitude": -122.389134}, "transactions": [], "price": "$$$", "location": {"address1": "121 El Camino Real", "address2": "", "address3": null, "city": "Millbrae", "zip_code": "94030", "country": "US", "state": "CA", "display_address": ["121 El Camino Real", "Millbrae, CA 94030"]}, "phone": "+16508678860", "display_phone": "(650) 867-8860", "distance": 18419.43366777371}, {"id": "4Dx_LtGrciojBXixDZoCvw", "alias": "fuji-japanese-restaurant-san-francisco", "name": "Fuji Japanese Restaurant", "image_url": "https://s3-media2.fl.yelpcdn.com/bphoto/LwvWRMaGXsFHGWv-683wIA/o.jpg", "is_closed": false, "url": "https://www.yelp.com/biz/fuji-japanese-restaurant-san-francisco?adjust_creative=Klanz-jboxl2XzqrjP6LLw&utm_campaign=yelp_api_v3&utm_medium=api_v3_business_search&utm_source=Klanz-jboxl2XzqrjP6LLw", "review_count": 519, "categories": [{"alias": "sushi", "title": "Sushi Bars"}, {"alias": "japanese", "title": "Japanese"}, {"alias": "raw_food", "title": "Live/Raw Food"}], "rating": 3.5, "coordinates": {"latitude": 37.737683, "longitude": -122.468924}, "transactions": ["pickup"], "price": "$$", "location": {"address1": "301 W Portal Ave", "address2": "", "address3": "", "city": "San Francisco", "zip_code": "94127", "country": "US", "state": "CA", "display_address": ["301 W Portal Ave", "San Francisco, CA 94127"]}, "phone": "+14155646360", "display_phone": "(415) 564-6360", "distance": 3846.7515088643663}, {"id": "GA1dcvaT7I_4fnTLzeFhsg", "alias": "oma-sushi-san-francisco", "name": "Oma Sushi", "image_url": "https://s3-media2.fl.yelpcdn.com/bphoto/OSr_dH2c0lnq0YZH0ECNyQ/o.jpg", "is_closed": false, "url": "https://www.yelp.com/biz/oma-sushi-san-francisco?adjust_creative=Klanz-jboxl2XzqrjP6LLw&utm_campaign=yelp_api_v3&utm_medium=api_v3_business_search&utm_source=Klanz-jboxl2XzqrjP6LLw", "review_count": 192, "categories": [{"alias": "japanese", "title": "Japanese"}, {"alias": "sushi", "title": "Sushi Bars"}], "rating": 4.0, "coordinates": {"latitude": 37.7859447, "longitude": -122.4110567}, "transactions": ["delivery", "pickup"], "price": "$$", "location": {"address1": "330 O'Farrell St", "address2": "", "address3": null, "city": "San Francisco", "zip_code": "94102", "country": "US", "state": "CA", "display_address": ["330 O'Farrell St", "San Francisco, CA 94102"]}, "phone": "+14157570066", "display_phone": "(415) 757-0066", "distance": 3568.740875821537}, {"id": "BLcV0Z4nzKLkCjneKrTclA", "alias": "tekka-japanese-restaurant-san-francisco", "name": "Tekka Japanese Restaurant", "image_url": "https://s3-media3.fl.yelpcdn.com/bphoto/lvZcGffraPp12WynuC8WSw/o.jpg", "is_closed": false, "url": "https://www.yelp.com/biz/tekka-japanese-restaurant-san-francisco?adjust_creative=Klanz-jboxl2XzqrjP6LLw&utm_campaign=yelp_api_v3&utm_medium=api_v3_business_search&utm_source=Klanz-jboxl2XzqrjP6LLw", "review_count": 419, "categories": [{"alias": "japanese", "title": "Japanese"}, {"alias": "sushi", "title": "Sushi Bars"}], "rating": 4.0, "coordinates": {"latitude": 37.7770524, "longitude": -122.4647183}, "transactions": ["delivery"], "price": "$$$", "location": {"address1": "537 Balboa St", "address2": "", "address3": "", "city": "San Francisco", "zip_code": "94118", "country": "US", "state": "CA", "display_address": ["537 Balboa St", "San Francisco, CA 94118"]}, "phone": "", "display_phone": "", "distance": 3066.1848590815976}, {"id": "bHQzZz8E6PMs5WWXoaVWlQ", "alias": "thai-time-restaurant-san-francisco", "name": "Thai Time Restaurant", "image_url": "https://s3-media3.fl.yelpcdn.com/bphoto/dZ2m122q_tWfbVpnfY3iyg/o.jpg", "is_closed": false, "url": "https://www.yelp.com/biz/thai-time-restaurant-san-francisco?adjust_creative=Klanz-jboxl2XzqrjP6LLw&utm_campaign=yelp_api_v3&utm_medium=api_v3_business_search&utm_source=Klanz-jboxl2XzqrjP6LLw", "review_count": 937, "categories": [{"alias": "thai", "title": "Thai"}], "rating": 4.0, "coordinates": {"latitude": 37.7824738, "longitude": -122.466704}, "transactions": ["delivery", "pickup"], "price": "$$", "location": {"address1": "315 8th Ave", "address2": "", "address3": "", "city": "San Francisco", "zip_code": "94118", "country": "US", "state": "CA", "display_address": ["315 8th Ave", "San Francisco, CA 94118"]}, "phone": "+14158313663", "display_phone": "(415) 831-3663", "distance": 3588.0372770191357}, {"id": "_PEiTpmT2gGp5cObcnKRPQ", "alias": "sf-kebab-san-francisco-4", "name": "SF Kebab", "image_url": "https://s3-media4.fl.yelpcdn.com/bphoto/-6Iq83PZnNXaDx4fA2ryYA/o.jpg", "is_closed": false, "url": "https://www.yelp.com/biz/sf-kebab-san-francisco-4?adjust_creative=Klanz-jboxl2XzqrjP6LLw&utm_campaign=yelp_api_v3&utm_medium=api_v3_business_search&utm_source=Klanz-jboxl2XzqrjP6LLw", "review_count": 379, "categories": [{"alias": "mediterranean", "title": "Mediterranean"}, {"alias": "mideastern", "title": "Middle Eastern"}, {"alias": "kebab", "title": "Kebab"}], "rating": 4.0, "coordinates": {"latitude": 37.767008, "longitude": -122.3901191}, "transactions": ["pickup"], "price": "$$", "location": {"address1": "550 16th St", "address2": "", "address3": null, "city": "San Francisco", "zip_code": "94158", "country": "US", "state": "CA", "display_address": ["550 16th St", "San Francisco, CA 94158"]}, "phone": "+14152552262", "display_phone": "(415) 255-2262", "distance": 4116.4199637994425}, {"id": "ZF9pQ-zfY57ok-BPrlmm6w", "alias": "muraccis-berkeley-berkeley", "name": "Muracci's Berkeley", "image_url": "https://s3-media4.fl.yelpcdn.com/bphoto/FfeFVxbT7NPgFoegwmFX9A/o.jpg", "is_closed": false, "url": "https://www.yelp.com/biz/muraccis-berkeley-berkeley?adjust_creative=Klanz-jboxl2XzqrjP6LLw&utm_campaign=yelp_api_v3&utm_medium=api_v3_business_search&utm_source=Klanz-jboxl2XzqrjP6LLw", "review_count": 354, "categories": [{"alias": "japacurry", "title": "Japanese Curry"}], "rating": 3.5, "coordinates": {"latitude": 37.86638, "longitude": -122.2589}, "transactions": ["pickup"], "price": "$$", "location": {"address1": "2428 Telegraph Ave", "address2": "", "address3": "", "city": "Berkeley", "zip_code": "94704", "country": "US", "state": "CA", "display_address": ["2428 Telegraph Ave", "Berkeley, CA 94704"]}, "phone": "+15108451101", "display_phone": "(510) 845-1101", "distance": 19514.884397620146}, {"id": "HP3RbEPJaP-R-HoUkm611Q", "alias": "h-mart-san-francisco-san-francisco-2", "name": "H Mart - San Francisco", "image_url": "https://s3-media1.fl.yelpcdn.com/bphoto/7wXKxSMMeMfwLnzA5O1lZw/o.jpg", "is_closed": false, "url": "https://www.yelp.com/biz/h-mart-san-francisco-san-francisco-2?adjust_creative=Klanz-jboxl2XzqrjP6LLw&utm_campaign=yelp_api_v3&utm_medium=api_v3_business_search&utm_source=Klanz-jboxl2XzqrjP6LLw", "review_count": 216, "categories": [{"alias": "food_court", "title": "Food Court"}, {"alias": "grocery", "title": "Grocery"}, {"alias": "korean", "title": "Korean"}], "rating": 3.5, "coordinates": {"latitude": 37.710441244186484, "longitude": -122.46754266321658}, "transactions": [], "location": {"address1": "3995 Alemany Blvd", "address2": "", "address3": null, "city": "San Francisco", "zip_code": "94132", "country": "US", "state": "CA", "display_address": ["3995 Alemany Blvd", "San Francisco, CA 94132"]}, "phone": "+16509937450", "display_phone": "(650) 993-7450", "distance": 6241.5597946739645}, {"id": "xErl0-LbQO9n-5e6ZQQ-Uw", "alias": "shabu-club-san-francisco", "name": "Shabu Club", "image_url": "https://s3-media1.fl.yelpcdn.com/bphoto/JO9h2WxHb5dIx4GBAe6PiQ/o.jpg", "is_closed": false, "url": "https://www.yelp.com/biz/shabu-club-san-francisco?adjust_creative=Klanz-jboxl2XzqrjP6LLw&utm_campaign=yelp_api_v3&utm_medium=api_v3_business_search&utm_source=Klanz-jboxl2XzqrjP6LLw", "review_count": 879, "categories": [{"alias": "japanese", "title": "Japanese"}, {"alias": "hotpot", "title": "Hot Pot"}, {"alias": "bars", "title": "Bars"}], "rating": 4.0, "coordinates": {"latitude": 37.782569137755, "longitude": -122.469567032772}, "transactions": ["delivery", "restaurant_reservation", "pickup"], "price": "$$$", "location": {"address1": "951 Clement St", "address2": "", "address3": "", "city": "San Francisco", "zip_code": "94118", "country": "US", "state": "CA", "display_address": ["951 Clement St", "San Francisco, CA 94118"]}, "phone": "+14157425265", "display_phone": "(415) 742-5265", "distance": 3778.9270350381084}, {"id": "cBTzK6nOOEIt_In98CF0fA", "alias": "na-nas-kitchen-brisbane", "name": "Na Na's Kitchen", "image_url": "https://s3-media4.fl.yelpcdn.com/bphoto/WbtYxGibh54BOsx9Gz7oSQ/o.jpg", "is_closed": false, "url": "https://www.yelp.com/biz/na-nas-kitchen-brisbane?adjust_creative=Klanz-jboxl2XzqrjP6LLw&utm_campaign=yelp_api_v3&utm_medium=api_v3_business_search&utm_source=Klanz-jboxl2XzqrjP6LLw", "review_count": 186, "categories": [{"alias": "chinese", "title": "Chinese"}, {"alias": "asianfusion", "title": "Asian Fusion"}], "rating": 4.0, "coordinates": {"latitude": 37.68218, "longitude": -122.40344}, "transactions": ["pickup"], "price": "$$", "location": {"address1": "301 Visitacion Ave", "address2": "", "address3": "", "city": "Brisbane", "zip_code": "94005", "country": "US", "state": "CA", "display_address": ["301 Visitacion Ave", "Brisbane, CA 94005"]}, "phone": "+14154675370", "display_phone": "(415) 467-5370", "distance": 9206.238867505306}, {"id": "VOpy1XqELG_qiFc6JAzWfg", "alias": "monkey-king-pub-and-grub-alameda", "name": "Monkey King Pub & Grub", "image_url": "https://s3-media4.fl.yelpcdn.com/bphoto/veT29iEx4_1CuvsSgzA9EQ/o.jpg", "is_closed": false, "url": "https://www.yelp.com/biz/monkey-king-pub-and-grub-alameda?adjust_creative=Klanz-jboxl2XzqrjP6LLw&utm_campaign=yelp_api_v3&utm_medium=api_v3_business_search&utm_source=Klanz-jboxl2XzqrjP6LLw", "review_count": 1237, "categories": [{"alias": "asianfusion", "title": "Asian Fusion"}, {"alias": "pubs", "title": "Pubs"}], "rating": 3.5, "coordinates": {"latitude": 37.76297, "longitude": -122.24407}, "transactions": ["delivery"], "price": "$$", "location": {"address1": "1315 Park St", "address2": "", "address3": "", "city": "Alameda", "zip_code": "94501", "country": "US", "state": "CA", "display_address": ["1315 Park St", "Alameda, CA 94501"]}, "phone": "+15105228882", "display_phone": "(510) 522-8882", "distance": 16891.092230985425}, {"id": "I5ecjIlXPoXptu7Kwnq4iw", "alias": "umai-ramen-house-san-francisco", "name": "Umai Ramen House", "image_url": "https://s3-media3.fl.yelpcdn.com/bphoto/R_lXh3mUIROmS57rI05cjw/o.jpg", "is_closed": false, "url": "https://www.yelp.com/biz/umai-ramen-house-san-francisco?adjust_creative=Klanz-jboxl2XzqrjP6LLw&utm_campaign=yelp_api_v3&utm_medium=api_v3_business_search&utm_source=Klanz-jboxl2XzqrjP6LLw", "review_count": 51, "categories": [{"alias": "ramen", "title": "Ramen"}, {"alias": "japacurry", "title": "Japanese Curry"}, {"alias": "wine_bars", "title": "Wine Bars"}], "rating": 4.0, "coordinates": {"latitude": 37.785216, "longitude": -122.429108}, "transactions": ["delivery", "pickup"], "price": "$$", "location": {"address1": "22 Peace Plz", "address2": "Ste 560", "address3": "", "city": "San Francisco", "zip_code": "94115", "country": "US", "state": "CA", "display_address": ["22 Peace Plz", "Ste 560", "San Francisco, CA 94115"]}, "phone": "+14156587370", "display_phone": "(415) 658-7370", "distance": 2779.7614894266953}, {"id": "PnNIN3TP2kFJ-JOfcw7ROQ", "alias": "monkey-thai-restaurant-and-bar-alameda-3", "name": "Monkey Thai Restaurant & Bar", "image_url": "https://s3-media3.fl.yelpcdn.com/bphoto/OgIrgJAq9o_kLlC9kEMyFw/o.jpg", "is_closed": false, "url": "https://www.yelp.com/biz/monkey-thai-restaurant-and-bar-alameda-3?adjust_creative=Klanz-jboxl2XzqrjP6LLw&utm_campaign=yelp_api_v3&utm_medium=api_v3_business_search&utm_source=Klanz-jboxl2XzqrjP6LLw", "review_count": 346, "categories": [{"alias": "thai", "title": "Thai"}, {"alias": "bars", "title": "Bars"}, {"alias": "seafood", "title": "Seafood"}], "rating": 4.0, "coordinates": {"latitude": 37.757222, "longitude": -122.252783596625}, "transactions": ["delivery", "pickup"], "price": "$$", "location": {"address1": "2210 S Shore Ctr", "address2": "Unit H", "address3": null, "city": "Alameda", "zip_code": "94501", "country": "US", "state": "CA", "display_address": ["2210 S Shore Ctr", "Unit H", "Alameda, CA 94501"]}, "phone": "+15102638505", "display_phone": "(510) 263-8505", "distance": 16151.001150397411}, {"id": "YViYcQcxUawVKfo94eOS6Q", "alias": "lava-lounge-san-francisco", "name": "Lava Lounge", "image_url": "https://s3-media2.fl.yelpcdn.com/bphoto/qTl91UrEtZyJibEkdMatvA/o.jpg", "is_closed": false, "url": "https://www.yelp.com/biz/lava-lounge-san-francisco?adjust_creative=Klanz-jboxl2XzqrjP6LLw&utm_campaign=yelp_api_v3&utm_medium=api_v3_business_search&utm_source=Klanz-jboxl2XzqrjP6LLw", "review_count": 254, "categories": [{"alias": "lounges", "title": "Lounges"}, {"alias": "ramen", "title": "Ramen"}, {"alias": "cocktailbars", "title": "Cocktail Bars"}], "rating": 3.5, "coordinates": {"latitude": 37.780574798584, "longitude": -122.396392822266}, "transactions": ["delivery", "pickup"], "price": "$$", "location": {"address1": "527 Bryant St", "address2": "", "address3": "", "city": "San Francisco", "zip_code": "94107", "country": "US", "state": "CA", "display_address": ["527 Bryant St", "San Francisco, CA 94107"]}, "phone": "+14157771333", "display_phone": "(415) 777-1333", "distance": 4144.577516266747}, {"id": "CABtCkwmr-W7J4pq8Rl5Hg", "alias": "caf\u00e9-2238-san-francisco", "name": "Caf\u00e9 2238", "image_url": "https://s3-media3.fl.yelpcdn.com/bphoto/bpTSYWJssSpig0DIc0O5Bg/o.jpg", "is_closed": false, "url": "https://www.yelp.com/biz/caf%C3%A9-2238-san-francisco?adjust_creative=Klanz-jboxl2XzqrjP6LLw&utm_campaign=yelp_api_v3&utm_medium=api_v3_business_search&utm_source=Klanz-jboxl2XzqrjP6LLw", "review_count": 73, "categories": [{"alias": "dimsum", "title": "Dim Sum"}, {"alias": "coffee", "title": "Coffee & Tea"}, {"alias": "soup", "title": "Soup"}], "rating": 2.5, "coordinates": {"latitude": 37.783994, "longitude": -122.440377}, "transactions": ["delivery", "pickup"], "price": "$", "location": {"address1": "2238 Geary Blvd", "address2": "", "address3": "Kaiser Hospital", "city": "San Francisco", "zip_code": "94115", "country": "US", "state": "CA", "display_address": ["2238 Geary Blvd", "Kaiser Hospital", "San Francisco, CA 94115"]}, "phone": "+14159318880", "display_phone": "(415) 931-8880", "distance": 2591.126325644728}, {"id": "rycqgJttdqwEjbOCMAOQ3w", "alias": "bowl-d-bbq-alameda-alameda", "name": "Bowl\u2019d BBQ Alameda", "image_url": "https://s3-media2.fl.yelpcdn.com/bphoto/BZv3OF7kPF_Qt-BXtbE5yQ/o.jpg", "is_closed": false, "url": "https://www.yelp.com/biz/bowl-d-bbq-alameda-alameda?adjust_creative=Klanz-jboxl2XzqrjP6LLw&utm_campaign=yelp_api_v3&utm_medium=api_v3_business_search&utm_source=Klanz-jboxl2XzqrjP6LLw", "review_count": 593, "categories": [{"alias": "korean", "title": "Korean"}, {"alias": "bbq", "title": "Barbeque"}], "rating": 3.5, "coordinates": {"latitude": 37.7575664691313, "longitude": -122.25219078362}, "transactions": ["delivery"], "price": "$$", "location": {"address1": "2201D S Shore Center Dr", "address2": "", "address3": "", "city": "Alameda", "zip_code": "94501", "country": "US", "state": "CA", "display_address": ["2201D S Shore Center Dr", "Alameda, CA 94501"]}, "phone": "+15102638717", "display_phone": "(510) 263-8717", "distance": 16202.13946295066}, {"id": "pocVe2xSz38GVH_ctMpq4Q", "alias": "pharaohs-mediterranean-sandwiches-san-francisco-9", "name": "Pharaohs Mediterranean Sandwiches", "image_url": "https://s3-media2.fl.yelpcdn.com/bphoto/Znt-ExRrw9J8EUayB2pXLA/o.jpg", "is_closed": false, "url": "https://www.yelp.com/biz/pharaohs-mediterranean-sandwiches-san-francisco-9?adjust_creative=Klanz-jboxl2XzqrjP6LLw&utm_campaign=yelp_api_v3&utm_medium=api_v3_business_search&utm_source=Klanz-jboxl2XzqrjP6LLw", "review_count": 484, "categories": [{"alias": "mediterranean", "title": "Mediterranean"}, {"alias": "halal", "title": "Halal"}, {"alias": "egyptian", "title": "Egyptian"}], "rating": 4.0, "coordinates": {"latitude": 37.78693, "longitude": -122.41364}, "transactions": ["delivery", "pickup"], "price": "$$", "location": {"address1": "608 Geary St", "address2": "", "address3": "", "city": "San Francisco", "zip_code": "94102", "country": "US", "state": "CA", "display_address": ["608 Geary St", "San Francisco, CA 94102"]}, "phone": "+14152927271", "display_phone": "(415) 292-7271", "distance": 3512.9953483569648}, {"id": "cWubVwhqzpY6i4718HTsww", "alias": "fish-and-bird-sousaku-izakaya-berkeley", "name": "Fish & Bird Sousaku Izakaya", "image_url": "https://s3-media2.fl.yelpcdn.com/bphoto/OFTULtDTZbjyFmGrmY-uIA/o.jpg", "is_closed": false, "url": "https://www.yelp.com/biz/fish-and-bird-sousaku-izakaya-berkeley?adjust_creative=Klanz-jboxl2XzqrjP6LLw&utm_campaign=yelp_api_v3&utm_medium=api_v3_business_search&utm_source=Klanz-jboxl2XzqrjP6LLw", "review_count": 213, "categories": [{"alias": "izakaya", "title": "Izakaya"}, {"alias": "cocktailbars", "title": "Cocktail Bars"}], "rating": 4.0, "coordinates": {"latitude": 37.86468, "longitude": -122.26684}, "transactions": ["delivery"], "location": {"address1": "2451 Shattuck Ave", "address2": null, "address3": "", "city": "Berkeley", "zip_code": "94704", "country": "US", "state": "CA", "display_address": ["2451 Shattuck Ave", "Berkeley, CA 94704"]}, "phone": "+15107051539", "display_phone": "(510) 705-1539", "distance": 18828.60248967129}, {"id": "9MFLfb1ps5ah4laOnKZwqw", "alias": "miyozen-emeryville", "name": "Miyozen", "image_url": "https://s3-media2.fl.yelpcdn.com/bphoto/MXaYMM9V5aI4-YsoZbOKNA/o.jpg", "is_closed": false, "url": "https://www.yelp.com/biz/miyozen-emeryville?adjust_creative=Klanz-jboxl2XzqrjP6LLw&utm_campaign=yelp_api_v3&utm_medium=api_v3_business_search&utm_source=Klanz-jboxl2XzqrjP6LLw", "review_count": 585, "categories": [{"alias": "sushi", "title": "Sushi Bars"}, {"alias": "japanese", "title": "Japanese"}], "rating": 3.5, "coordinates": {"latitude": 37.830870018516, "longitude": -122.279501677151}, "transactions": ["delivery", "pickup"], "price": "$$", "location": {"address1": "1147 40th St", "address2": null, "address3": "", "city": "Emeryville", "zip_code": "94608", "country": "US", "state": "CA", "display_address": ["1147 40th St", "Emeryville, CA 94608"]}, "phone": "+15109230311", "display_phone": "(510) 923-0311", "distance": 15833.602307674413}, {"id": "UA5uLFfgLYxZVAd3BLfKZA", "alias": "thai-cottage-restaurant-san-francisco", "name": "Thai Cottage Restaurant", "image_url": "https://s3-media1.fl.yelpcdn.com/bphoto/cIfz8nQNmT_5-oOOSuTomQ/o.jpg", "is_closed": false, "url": "https://www.yelp.com/biz/thai-cottage-restaurant-san-francisco?adjust_creative=Klanz-jboxl2XzqrjP6LLw&utm_campaign=yelp_api_v3&utm_medium=api_v3_business_search&utm_source=Klanz-jboxl2XzqrjP6LLw", "review_count": 251, "categories": [{"alias": "thai", "title": "Thai"}], "rating": 4.0, "coordinates": {"latitude": 37.7602448, "longitude": -122.5055466}, "transactions": ["delivery"], "price": "$$", "location": {"address1": "4041 Judah St", "address2": "", "address3": "", "city": "San Francisco", "zip_code": "94122", "country": "US", "state": "CA", "display_address": ["4041 Judah St", "San Francisco, CA 94122"]}, "phone": "+14155665311", "display_phone": "(415) 566-5311", "distance": 6074.831574738104}, {"id": "OWvTwaKT3C4Do5BhTtbWSQ", "alias": "krispy-krunchy-chicken-san-francisco-9", "name": "Krispy Krunchy Chicken", "image_url": "https://s3-media1.fl.yelpcdn.com/bphoto/IX3gYbuzYiRztiVxZSIgGA/o.jpg", "is_closed": false, "url": "https://www.yelp.com/biz/krispy-krunchy-chicken-san-francisco-9?adjust_creative=Klanz-jboxl2XzqrjP6LLw&utm_campaign=yelp_api_v3&utm_medium=api_v3_business_search&utm_source=Klanz-jboxl2XzqrjP6LLw", "review_count": 69, "categories": [{"alias": "seafood", "title": "Seafood"}, {"alias": "chicken_wings", "title": "Chicken Wings"}, {"alias": "cajun", "title": "Cajun/Creole"}], "rating": 4.0, "coordinates": {"latitude": 37.763666, "longitude": -122.480958}, "transactions": ["delivery", "pickup"], "location": {"address1": "2130 Irving St", "address2": "", "address3": "Inside Irving Seafood Market", "city": "San Francisco", "zip_code": "94122", "country": "US", "state": "CA", "display_address": ["2130 Irving St", "Inside Irving Seafood Market", "San Francisco, CA 94122"]}, "phone": "+14156813282", "display_phone": "(415) 681-3282", "distance": 3926.511626848104}, {"id": "G8gnLXjHU-c7rf5Oiksqwg", "alias": "yum-yum-sushi-house-san-francisco", "name": "Yum Yum Sushi House", "image_url": "https://s3-media3.fl.yelpcdn.com/bphoto/Wojqbpd7s0AhpZxVF8PESQ/o.jpg", "is_closed": false, "url": "https://www.yelp.com/biz/yum-yum-sushi-house-san-francisco?adjust_creative=Klanz-jboxl2XzqrjP6LLw&utm_campaign=yelp_api_v3&utm_medium=api_v3_business_search&utm_source=Klanz-jboxl2XzqrjP6LLw", "review_count": 153, "categories": [{"alias": "sushi", "title": "Sushi Bars"}], "rating": 3.5, "coordinates": {"latitude": 37.7632329661983, "longitude": -122.481109276414}, "transactions": ["delivery", "pickup"], "price": "$$", "location": {"address1": "2181 Irving St", "address2": "", "address3": null, "city": "San Francisco", "zip_code": "94122", "country": "US", "state": "CA", "display_address": ["2181 Irving St", "San Francisco, CA 94122"]}, "phone": "+16282562799", "display_phone": "(628) 256-2799", "distance": 3934.6452915046552}, {"id": "GhzBKgG7dtYD68vWczsETA", "alias": "taqueria-gonzalez-san-francisco-4", "name": "Taqueria Gonzalez", "image_url": "https://s3-media1.fl.yelpcdn.com/bphoto/YvPheAqdy7d07UzUcoE-pQ/o.jpg", "is_closed": false, "url": "https://www.yelp.com/biz/taqueria-gonzalez-san-francisco-4?adjust_creative=Klanz-jboxl2XzqrjP6LLw&utm_campaign=yelp_api_v3&utm_medium=api_v3_business_search&utm_source=Klanz-jboxl2XzqrjP6LLw", "review_count": 63, "categories": [{"alias": "mexican", "title": "Mexican"}, {"alias": "seafood", "title": "Seafood"}, {"alias": "breakfast_brunch", "title": "Breakfast & Brunch"}], "rating": 4.5, "coordinates": {"latitude": 37.72984, "longitude": -122.40423}, "transactions": ["delivery"], "price": "$$", "location": {"address1": "2531 San Bruno Ave", "address2": "", "address3": null, "city": "San Francisco", "zip_code": "94134", "country": "US", "state": "CA", "display_address": ["2531 San Bruno Ave", "San Francisco, CA 94134"]}, "phone": "+14154684293", "display_phone": "(415) 468-4293", "distance": 4463.674214433685}, {"id": "JTV1h_xD_3ZFzFomGWnp-w", "alias": "imm-thai-street-food-berkeley-5", "name": "Imm Thai Street Food", "image_url": "https://s3-media3.fl.yelpcdn.com/bphoto/wikqWvNLFD5310Avgc9UWw/o.jpg", "is_closed": false, "url": "https://www.yelp.com/biz/imm-thai-street-food-berkeley-5?adjust_creative=Klanz-jboxl2XzqrjP6LLw&utm_campaign=yelp_api_v3&utm_medium=api_v3_business_search&utm_source=Klanz-jboxl2XzqrjP6LLw", "review_count": 1452, "categories": [{"alias": "thai", "title": "Thai"}], "rating": 4.0, "coordinates": {"latitude": 37.87172, "longitude": -122.26902}, "transactions": ["delivery"], "price": "$$", "location": {"address1": "2068 University Ave", "address2": "", "address3": "", "city": "Berkeley", "zip_code": "94704", "country": "US", "state": "CA", "display_address": ["2068 University Ave", "Berkeley, CA 94704"]}, "phone": "+15108981123", "display_phone": "(510) 898-1123", "distance": 19192.736021398934}, {"id": "mnpBIXtI8f1_My6v7sXfYA", "alias": "mas-dimsum-and-cafe-san-francisco", "name": "Ma's Dimsum & Cafe", "image_url": "https://s3-media2.fl.yelpcdn.com/bphoto/KQ0877j0nk9a4VarmcPyFQ/o.jpg", "is_closed": false, "url": "https://www.yelp.com/biz/mas-dimsum-and-cafe-san-francisco?adjust_creative=Klanz-jboxl2XzqrjP6LLw&utm_campaign=yelp_api_v3&utm_medium=api_v3_business_search&utm_source=Klanz-jboxl2XzqrjP6LLw", "review_count": 67, "categories": [{"alias": "dimsum", "title": "Dim Sum"}], "rating": 4.0, "coordinates": {"latitude": 37.79665, "longitude": -122.4103}, "transactions": ["delivery"], "price": "$", "location": {"address1": "1315 Powell St", "address2": "", "address3": "", "city": "San Francisco", "zip_code": "94133", "country": "US", "state": "CA", "display_address": ["1315 Powell St", "San Francisco, CA 94133"]}, "phone": "+14157883532", "display_phone": "(415) 788-3532", "distance": 4593.025179982995}, {"id": "PNxwbgtfdpldd3CyJFIw3w", "alias": "ozumo-san-francisco", "name": "Ozumo", "image_url": "https://s3-media3.fl.yelpcdn.com/bphoto/-0mvOcG1Xr1vTCfn_YH3ZQ/o.jpg", "is_closed": false, "url": "https://www.yelp.com/biz/ozumo-san-francisco?adjust_creative=Klanz-jboxl2XzqrjP6LLw&utm_campaign=yelp_api_v3&utm_medium=api_v3_business_search&utm_source=Klanz-jboxl2XzqrjP6LLw", "review_count": 2501, "categories": [{"alias": "sushi", "title": "Sushi Bars"}, {"alias": "japanese", "title": "Japanese"}, {"alias": "steak", "title": "Steakhouses"}], "rating": 4.0, "coordinates": {"latitude": 37.792673, "longitude": -122.392236}, "transactions": ["delivery", "pickup"], "price": "$$$", "location": {"address1": "161 Steuart St", "address2": "", "address3": "", "city": "San Francisco", "zip_code": "94105", "country": "US", "state": "CA", "display_address": ["161 Steuart St", "San Francisco, CA 94105"]}, "phone": "+14158821333", "display_phone": "(415) 882-1333", "distance": 5250.752014599581}], "total": 1800, "region": {"center": {"longitude": -122.43644714355469, "latitude": 37.76089938976322}}}