{"businesses": [{"id": "If5hVcf5uRbuq4pKXdyOjA", "alias": "mr-banh-mi-san-francisco-2", "name": "Mr Banh Mi", "image_url": "https://s3-media2.fl.yelpcdn.com/bphoto/GAHvkKzXDFanUoi4egqyng/o.jpg", "is_closed": false, "url": "https://www.yelp.com/biz/mr-banh-mi-san-francisco-2?adjust_creative=Klanz-jboxl2XzqrjP6LLw&utm_campaign=yelp_api_v3&utm_medium=api_v3_business_search&utm_source=Klanz-jboxl2XzqrjP6LLw", "review_count": 318, "categories": [{"alias": "vietnamese", "title": "Vietnamese"}, {"alias": "coffee", "title": "Coffee & Tea"}, {"alias": "sandwiches", "title": "Sandwiches"}], "rating": 4.5, "coordinates": {"latitude": 37.775581837885525, "longitude": -122.49757530345666}, "transactions": ["delivery", "pickup"], "price": "$", "location": {"address1": "3605 Balboa St", "address2": null, "address3": "", "city": "San Francisco", "zip_code": "94121", "country": "US", "state": "CA", "display_address": ["3605 Balboa St", "San Francisco, CA 94121"]}, "phone": "+14154636588", "display_phone": "(415) 463-6588", "distance": 5615.656604300562}, {"id": "8ZmEszI4ZMncK9kuJYQjuA", "alias": "udupi-palace-san-francisco", "name": "Udupi Palace", "image_url": "https://s3-media1.fl.yelpcdn.com/bphoto/lHCZEvE4h3-SFzFY1FYMdQ/o.jpg", "is_closed": false, "url": "https://www.yelp.com/biz/udupi-palace-san-francisco?adjust_creative=Klanz-jboxl2XzqrjP6LLw&utm_campaign=yelp_api_v3&utm_medium=api_v3_business_search&utm_source=Klanz-jboxl2XzqrjP6LLw", "review_count": 1421, "categories": [{"alias": "indpak", "title": "Indian"}, {"alias": "vegetarian", "title": "Vegetarian"}, {"alias": "vegan", "title": "Vegan"}], "rating": 4.0, "coordinates": {"latitude": 37.75667, "longitude": -122.42091}, "transactions": ["delivery", "pickup"], "price": "$$", "location": {"address1": "1007 Valencia St", "address2": "", "address3": "", "city": "San Francisco", "zip_code": "94110", "country": "US", "state": "CA", "display_address": ["1007 Valencia St", "San Francisco, CA 94110"]}, "phone": "+14159708000", "display_phone": "(415) 970-8000", "distance": 1436.549312701709}, {"id": "Bfc3RwM7UAEohk9e19Q1xw", "alias": "pho-huynh-hiep-2-kevins-noodle-house-san-francisco", "name": "Pho Huynh Hiep 2 - Kevin's Noodle House", "image_url": "https://s3-media2.fl.yelpcdn.com/bphoto/2Rf3Sn81uXVSHA6ylGTQHQ/o.jpg", "is_closed": false, "url": "https://www.yelp.com/biz/pho-huynh-hiep-2-kevins-noodle-house-san-francisco?adjust_creative=Klanz-jboxl2XzqrjP6LLw&utm_campaign=yelp_api_v3&utm_medium=api_v3_business_search&utm_source=Klanz-jboxl2XzqrjP6LLw", "review_count": 1775, "categories": [{"alias": "vietnamese", "title": "Vietnamese"}, {"alias": "noodles", "title": "Noodles"}], "rating": 4.0, "coordinates": {"latitude": 37.763338, "longitude": -122.477795}, "transactions": ["delivery"], "price": "$$", "location": {"address1": "1833 Irving St", "address2": "", "address3": "", "city": "San Francisco", "zip_code": "94122", "country": "US", "state": "CA", "display_address": ["1833 Irving St", "San Francisco, CA 94122"]}, "phone": "+14156640469", "display_phone": "(415) 664-0469", "distance": 3644.8323360827158}, {"id": "pbMboA8clIwdpV0qPUsCFw", "alias": "broadway-dim-sum-cafe-san-francisco-2", "name": "Broadway Dim Sum Cafe", "image_url": "https://s3-media1.fl.yelpcdn.com/bphoto/IP8_clalUtL00M1heeaeTQ/o.jpg", "is_closed": false, "url": "https://www.yelp.com/biz/broadway-dim-sum-cafe-san-francisco-2?adjust_creative=Klanz-jboxl2XzqrjP6LLw&utm_campaign=yelp_api_v3&utm_medium=api_v3_business_search&utm_source=Klanz-jboxl2XzqrjP6LLw", "review_count": 56, "categories": [{"alias": "noodles", "title": "Noodles"}, {"alias": "breakfast_brunch", "title": "Breakfast & Brunch"}, {"alias": "dimsum", "title": "Dim Sum"}], "rating": 3.5, "coordinates": {"latitude": 37.7977477759123, "longitude": -122.408256456256}, "transactions": [], "price": "$", "location": {"address1": "684 Broadway", "address2": "", "address3": "", "city": "San Francisco", "zip_code": "94133", "country": "US", "state": "CA", "display_address": ["684 Broadway", "San Francisco, CA 94133"]}, "phone": "+14159892038", "display_phone": "(415) 989-2038", "distance": 4779.680628612095}, {"id": "BICl7jNq4IHnJKBN6H4emg", "alias": "pot-and-noodle-san-francisco-2", "name": "Pot & Noodle", "image_url": "https://s3-media4.fl.yelpcdn.com/bphoto/nZYtvyPxZGQBF3EBSbHkVw/o.jpg", "is_closed": false, "url": "https://www.yelp.com/biz/pot-and-noodle-san-francisco-2?adjust_creative=Klanz-jboxl2XzqrjP6LLw&utm_campaign=yelp_api_v3&utm_medium=api_v3_business_search&utm_source=Klanz-jboxl2XzqrjP6LLw", "review_count": 135, "categories": [{"alias": "szechuan", "title": "Szechuan"}, {"alias": "hotpot", "title": "Hot Pot"}, {"alias": "noodles", "title": "Noodles"}], "rating": 3.0, "coordinates": {"latitude": 37.796362, "longitude": -122.406106}, "transactions": ["pickup"], "price": "$$", "location": {"address1": "650 Jackson St", "address2": "", "address3": null, "city": "San Francisco", "zip_code": "94133", "country": "US", "state": "CA", "display_address": ["650 Jackson St", "San Francisco, CA 94133"]}, "phone": "+14159810803", "display_phone": "(415) 981-0803", "distance": 4760.48444555418}, {"id": "Up3f6yrU2eFcxukXUZdXXQ", "alias": "avatars-restaurant-mill-valley", "name": "Avatar's Restaurant", "image_url": "https://s3-media1.fl.yelpcdn.com/bphoto/xSBcDybyFx96E0Z4i72hMA/o.jpg", "is_closed": false, "url": "https://www.yelp.com/biz/avatars-restaurant-mill-valley?adjust_creative=Klanz-jboxl2XzqrjP6LLw&utm_campaign=yelp_api_v3&utm_medium=api_v3_business_search&utm_source=Klanz-jboxl2XzqrjP6LLw", "review_count": 368, "categories": [{"alias": "indpak", "title": "Indian"}, {"alias": "asianfusion", "title": "Asian Fusion"}], "rating": 4.0, "coordinates": {"latitude": 37.90578, "longitude": -122.54943}, "transactions": ["delivery"], "price": "$", "location": {"address1": "15 Madrona St", "address2": "", "address3": "", "city": "Mill Valley", "zip_code": "94941", "country": "US", "state": "CA", "display_address": ["15 Madrona St", "Mill Valley, CA 94941"]}, "phone": "+14153818293", "display_phone": "(415) 381-8293", "distance": 18931.881965731784}, {"id": "3Reec-_JZaemqsI0MlW_SQ", "alias": "wago-sushi-san-francisco", "name": "Wago sushi", "image_url": "https://s3-media4.fl.yelpcdn.com/bphoto/XEzeM5reuw7K487snDV5QA/o.jpg", "is_closed": false, "url": "https://www.yelp.com/biz/wago-sushi-san-francisco?adjust_creative=Klanz-jboxl2XzqrjP6LLw&utm_campaign=yelp_api_v3&utm_medium=api_v3_business_search&utm_source=Klanz-jboxl2XzqrjP6LLw", "review_count": 163, "categories": [{"alias": "japanese", "title": "Japanese"}, {"alias": "sushi", "title": "Sushi Bars"}, {"alias": "wine_bars", "title": "Wine Bars"}], "rating": 4.5, "coordinates": {"latitude": 37.79992, "longitude": -122.44225}, "transactions": ["pickup", "delivery"], "price": "$$", "location": {"address1": "2365 Chestnut St", "address2": null, "address3": "", "city": "San Francisco", "zip_code": "94123", "country": "US", "state": "CA", "display_address": ["2365 Chestnut St", "San Francisco, CA 94123"]}, "phone": "+14153458263", "display_phone": "(415) 345-8263", "distance": 4360.809839289162}, {"id": "_GpFQcVns2ro364TBu7-VA", "alias": "sakesan-sushi-and-robata-san-francisco-6", "name": "Sakesan Sushi & Robata", "image_url": "https://s3-media4.fl.yelpcdn.com/bphoto/C_wHgECuULE4CUcMgMiLCw/o.jpg", "is_closed": false, "url": "https://www.yelp.com/biz/sakesan-sushi-and-robata-san-francisco-6?adjust_creative=Klanz-jboxl2XzqrjP6LLw&utm_campaign=yelp_api_v3&utm_medium=api_v3_business_search&utm_source=Klanz-jboxl2XzqrjP6LLw", "review_count": 396, "categories": [{"alias": "japanese", "title": "Japanese"}, {"alias": "sushi", "title": "Sushi Bars"}], "rating": 4.0, "coordinates": {"latitude": 37.7243585192671, "longitude": -122.457495672167}, "transactions": ["restaurant_reservation", "delivery", "pickup"], "price": "$$", "location": {"address1": "1400 Ocean Ave", "address2": "", "address3": null, "city": "San Francisco", "zip_code": "94112", "country": "US", "state": "CA", "display_address": ["1400 Ocean Ave", "San Francisco, CA 94112"]}, "phone": "+14153477898", "display_phone": "(415) 347-7898", "distance": 4464.82084179}, {"id": "qVc7u4fu0HHWCUeYGxhRyg", "alias": "chili-cha-cha-2-san-francisco", "name": "Chili Cha Cha 2", "image_url": "https://s3-media3.fl.yelpcdn.com/bphoto/4QF82i3gIrme5WSkwZloYw/o.jpg", "is_closed": false, "url": "https://www.yelp.com/biz/chili-cha-cha-2-san-francisco?adjust_creative=Klanz-jboxl2XzqrjP6LLw&utm_campaign=yelp_api_v3&utm_medium=api_v3_business_search&utm_source=Klanz-jboxl2XzqrjP6LLw", "review_count": 401, "categories": [{"alias": "thai", "title": "Thai"}], "rating": 4.0, "coordinates": {"latitude": 37.75261, "longitude": -122.41565}, "transactions": ["delivery", "pickup"], "price": "$$", "location": {"address1": "3166 24th St", "address2": "", "address3": "", "city": "San Francisco", "zip_code": "94110", "country": "US", "state": "CA", "display_address": ["3166 24th St", "San Francisco, CA 94110"]}, "phone": "+14158292960", "display_phone": "(415) 829-2960", "distance": 2046.0346751750692}, {"id": "METk5cHv8bBJGxkOosw2fw", "alias": "rins-thai-restaurant-san-francisco", "name": "Rin's Thai Restaurant", "image_url": "https://s3-media1.fl.yelpcdn.com/bphoto/CSzXArWz-7sl6pKe0YUzyw/o.jpg", "is_closed": false, "url": "https://www.yelp.com/biz/rins-thai-restaurant-san-francisco?adjust_creative=Klanz-jboxl2XzqrjP6LLw&utm_campaign=yelp_api_v3&utm_medium=api_v3_business_search&utm_source=Klanz-jboxl2XzqrjP6LLw", "review_count": 377, "categories": [{"alias": "thai", "title": "Thai"}, {"alias": "asianfusion", "title": "Asian Fusion"}, {"alias": "laotian", "title": "Laotian"}], "rating": 4.0, "coordinates": {"latitude": 37.750947153706, "longitude": -122.43860176587}, "transactions": ["delivery", "pickup"], "price": "$$", "location": {"address1": "4301 24th St", "address2": "", "address3": "", "city": "San Francisco", "zip_code": "94114", "country": "US", "state": "CA", "display_address": ["4301 24th St", "San Francisco, CA 94114"]}, "phone": "+14158214776", "display_phone": "(415) 821-4776", "distance": 1122.7312268692592}, {"id": "U9HWtltvf_U2y1wYSOwFUA", "alias": "fresh-brew-coffee-san-francisco", "name": "Fresh Brew Coffee", "image_url": "https://s3-media4.fl.yelpcdn.com/bphoto/SlLWGAvf2uyQ94KFUh4k_Q/o.jpg", "is_closed": false, "url": "https://www.yelp.com/biz/fresh-brew-coffee-san-francisco?adjust_creative=Klanz-jboxl2XzqrjP6LLw&utm_campaign=yelp_api_v3&utm_medium=api_v3_business_search&utm_source=Klanz-jboxl2XzqrjP6LLw", "review_count": 636, "categories": [{"alias": "coffee", "title": "Coffee & Tea"}, {"alias": "sandwiches", "title": "Sandwiches"}, {"alias": "vietnamese", "title": "Vietnamese"}], "rating": 4.5, "coordinates": {"latitude": 37.79001, "longitude": -122.41177}, "transactions": ["delivery"], "price": "$", "location": {"address1": "882 Bush St", "address2": "", "address3": "", "city": "San Francisco", "zip_code": "94108", "country": "US", "state": "CA", "display_address": ["882 Bush St", "San Francisco, CA 94108"]}, "phone": "+14155670915", "display_phone": "(415) 567-0915", "distance": 3894.3089300471233}, {"id": "oXjd7i1LAgeAWcMup0N1zg", "alias": "aburaya-japanese-fried-chicken-oakland-2", "name": "Aburaya Japanese Fried Chicken", "image_url": "https://s3-media4.fl.yelpcdn.com/bphoto/Wi8T9wybSihGmtOpv-YpHg/o.jpg", "is_closed": false, "url": "https://www.yelp.com/biz/aburaya-japanese-fried-chicken-oakland-2?adjust_creative=Klanz-jboxl2XzqrjP6LLw&utm_campaign=yelp_api_v3&utm_medium=api_v3_business_search&utm_source=Klanz-jboxl2XzqrjP6LLw", "review_count": 823, "categories": [{"alias": "izakaya", "title": "Izakaya"}], "rating": 4.0, "coordinates": {"latitude": 37.8059903, "longitude": -122.2676427}, "transactions": ["delivery", "pickup"], "price": "$$", "location": {"address1": "362 17th St", "address2": null, "address3": "", "city": "Oakland", "zip_code": "94612", "country": "US", "state": "CA", "display_address": ["362 17th St", "Oakland, CA 94612"]}, "phone": "+15105027743", "display_phone": "(510) 502-7743", "distance": 15663.342021742701}, {"id": "CBeM82Cl4Lxf4cmNOtGA-w", "alias": "daeho-kalbijjim-and-beef-soup-san-francisco-10", "name": "Daeho Kalbijjim & Beef Soup", "image_url": "https://s3-media3.fl.yelpcdn.com/bphoto/bSZVhXRFS74wEgEJ07bbfg/o.jpg", "is_closed": false, "url": "https://www.yelp.com/biz/daeho-kalbijjim-and-beef-soup-san-francisco-10?adjust_creative=Klanz-jboxl2XzqrjP6LLw&utm_campaign=yelp_api_v3&utm_medium=api_v3_business_search&utm_source=Klanz-jboxl2XzqrjP6LLw", "review_count": 74, "categories": [{"alias": "korean", "title": "Korean"}], "rating": 4.0, "coordinates": {"latitude": 37.710417, "longitude": -122.467703}, "transactions": ["delivery", "pickup"], "location": {"address1": "3995 Alemany Blvd", "address2": null, "address3": "", "city": "San Francisco", "zip_code": "94132", "country": "US", "state": "CA", "display_address": ["3995 Alemany Blvd", "San Francisco, CA 94132"]}, "phone": "+16288950505", "display_phone": "(628) 895-0505", "distance": 6273.8973600670715}, {"id": "vth2jtXfVUCRJeIP680CyA", "alias": "udon-mugizo-san-francisco-11", "name": "Udon Mugizo", "image_url": "https://s3-media3.fl.yelpcdn.com/bphoto/7M2QWfxKnGU8qCMl1edeMQ/o.jpg", "is_closed": false, "url": "https://www.yelp.com/biz/udon-mugizo-san-francisco-11?adjust_creative=Klanz-jboxl2XzqrjP6LLw&utm_campaign=yelp_api_v3&utm_medium=api_v3_business_search&utm_source=Klanz-jboxl2XzqrjP6LLw", "review_count": 1082, "categories": [{"alias": "japanese", "title": "Japanese"}, {"alias": "noodles", "title": "Noodles"}], "rating": 4.0, "coordinates": {"latitude": 37.78501, "longitude": -122.431741}, "transactions": ["pickup", "delivery"], "price": "$$", "location": {"address1": "1581 Webster St", "address2": "Ste 217", "address3": "", "city": "San Francisco", "zip_code": "94115", "country": "US", "state": "CA", "display_address": ["1581 Webster St", "Ste 217", "San Francisco, CA 94115"]}, "phone": "+14159313118", "display_phone": "(415) 931-3118", "distance": 2712.696327480518}, {"id": "AeMidC6u6o-oy9E0ZzfLPg", "alias": "golden-lotus-san-francisco", "name": "Golden Lotus", "image_url": "https://s3-media3.fl.yelpcdn.com/bphoto/_ewzU3wmSw3M3oT7mPVKeQ/o.jpg", "is_closed": false, "url": "https://www.yelp.com/biz/golden-lotus-san-francisco?adjust_creative=Klanz-jboxl2XzqrjP6LLw&utm_campaign=yelp_api_v3&utm_medium=api_v3_business_search&utm_source=Klanz-jboxl2XzqrjP6LLw", "review_count": 277, "categories": [{"alias": "vietnamese", "title": "Vietnamese"}, {"alias": "noodles", "title": "Noodles"}], "rating": 4.0, "coordinates": {"latitude": 37.7838416865229, "longitude": -122.417792251626}, "transactions": ["delivery", "pickup"], "price": "$", "location": {"address1": "631 Larkin St", "address2": "", "address3": "", "city": "San Francisco", "zip_code": "94109", "country": "US", "state": "CA", "display_address": ["631 Larkin St", "San Francisco, CA 94109"]}, "phone": "+14153451355", "display_phone": "(415) 345-1355", "distance": 3032.554967970085}, {"id": "nzL-ngmLV_f63XID0ydkiA", "alias": "new-dumpling-el-cerrito", "name": "New Dumpling", "image_url": "https://s3-media2.fl.yelpcdn.com/bphoto/Z_mUuRm4y_Ihv_Ba1IfKbg/o.jpg", "is_closed": false, "url": "https://www.yelp.com/biz/new-dumpling-el-cerrito?adjust_creative=Klanz-jboxl2XzqrjP6LLw&utm_campaign=yelp_api_v3&utm_medium=api_v3_business_search&utm_source=Klanz-jboxl2XzqrjP6LLw", "review_count": 205, "categories": [{"alias": "chinese", "title": "Chinese"}], "rating": 4.5, "coordinates": {"latitude": 37.9018, "longitude": -122.30272}, "transactions": ["delivery"], "price": "$$", "location": {"address1": "10064 San Pablo Ave", "address2": null, "address3": "", "city": "El Cerrito", "zip_code": "94530", "country": "US", "state": "CA", "display_address": ["10064 San Pablo Ave", "El Cerrito, CA 94530"]}, "phone": "+15105294161", "display_phone": "(510) 529-4161", "distance": 19579.250140258693}, {"id": "GxSG_5RgtNAcNuvaSCEgcw", "alias": "thainery-san-francisco", "name": "Thainery", "image_url": "https://s3-media2.fl.yelpcdn.com/bphoto/W3D14PywMuNR0tQSJ61btw/o.jpg", "is_closed": false, "url": "https://www.yelp.com/biz/thainery-san-francisco?adjust_creative=Klanz-jboxl2XzqrjP6LLw&utm_campaign=yelp_api_v3&utm_medium=api_v3_business_search&utm_source=Klanz-jboxl2XzqrjP6LLw", "review_count": 65, "categories": [{"alias": "thai", "title": "Thai"}], "rating": 3.5, "coordinates": {"latitude": 37.7909300869066, "longitude": -122.403867648283}, "transactions": ["pickup", "delivery"], "price": "$$", "location": {"address1": "380 Bush St", "address2": "Ste 3", "address3": "", "city": "San Francisco", "zip_code": "94104", "country": "US", "state": "CA", "display_address": ["380 Bush St", "Ste 3", "San Francisco, CA 94104"]}, "phone": "+14157570288", "display_phone": "(415) 757-0288", "distance": 4398.832194320275}, {"id": "2wzgA2Irg81LG9GWyjYDTg", "alias": "ppq-dungeness-island-millbrae-millbrae", "name": "PPQ Dungeness Island - Millbrae", "image_url": "https://s3-media1.fl.yelpcdn.com/bphoto/MA5kN-wrLv-nfNnzxRKlnw/o.jpg", "is_closed": false, "url": "https://www.yelp.com/biz/ppq-dungeness-island-millbrae-millbrae?adjust_creative=Klanz-jboxl2XzqrjP6LLw&utm_campaign=yelp_api_v3&utm_medium=api_v3_business_search&utm_source=Klanz-jboxl2XzqrjP6LLw", "review_count": 230, "categories": [{"alias": "seafood", "title": "Seafood"}, {"alias": "vietnamese", "title": "Vietnamese"}, {"alias": "asianfusion", "title": "Asian Fusion"}], "rating": 4.0, "coordinates": {"latitude": 37.60008, "longitude": -122.38977}, "transactions": ["restaurant_reservation", "delivery", "pickup"], "price": "$$", "location": {"address1": "195 El Camino Real", "address2": null, "address3": "", "city": "Millbrae", "zip_code": "94030", "country": "US", "state": "CA", "display_address": ["195 El Camino Real", "Millbrae, CA 94030"]}, "phone": "+16506866126", "display_phone": "(650) 686-6126", "distance": 18341.631341786047}, {"id": "7N9Bqb5bB-Iqu1ho9Us9fg", "alias": "ithai-san-francisco", "name": "iThai", "image_url": "https://s3-media2.fl.yelpcdn.com/bphoto/CCaYOn1Vi4mKjUcH2w-guA/o.jpg", "is_closed": false, "url": "https://www.yelp.com/biz/ithai-san-francisco?adjust_creative=Klanz-jboxl2XzqrjP6LLw&utm_campaign=yelp_api_v3&utm_medium=api_v3_business_search&utm_source=Klanz-jboxl2XzqrjP6LLw", "review_count": 433, "categories": [{"alias": "thai", "title": "Thai"}], "rating": 3.5, "coordinates": {"latitude": 37.78781, "longitude": -122.41366}, "transactions": ["pickup", "delivery"], "price": "$$", "location": {"address1": "720 Post St", "address2": "", "address3": "", "city": "San Francisco", "zip_code": "94109", "country": "US", "state": "CA", "display_address": ["720 Post St", "San Francisco, CA 94109"]}, "phone": "+14153459999", "display_phone": "(415) 345-9999", "distance": 3592.78674763006}, {"id": "f_xCKwGnx5FY0yVWJjxW4A", "alias": "ultra-sushi-san-francisco", "name": "Ultra Sushi", "image_url": "https://s3-media2.fl.yelpcdn.com/bphoto/4YEFqpeg7qgLoJQLeOCWRg/o.jpg", "is_closed": false, "url": "https://www.yelp.com/biz/ultra-sushi-san-francisco?adjust_creative=Klanz-jboxl2XzqrjP6LLw&utm_campaign=yelp_api_v3&utm_medium=api_v3_business_search&utm_source=Klanz-jboxl2XzqrjP6LLw", "review_count": 143, "categories": [{"alias": "japanese", "title": "Japanese"}, {"alias": "sushi", "title": "Sushi Bars"}], "rating": 3.5, "coordinates": {"latitude": 37.7211, "longitude": -122.43786}, "transactions": ["delivery", "pickup"], "price": "$$$", "location": {"address1": "4808 Mission St", "address2": null, "address3": "", "city": "San Francisco", "zip_code": "94112", "country": "US", "state": "CA", "display_address": ["4808 Mission St", "San Francisco, CA 94112"]}, "phone": "+14155855055", "display_phone": "(415) 585-5055", "distance": 4429.1043090011835}, {"id": "_fskSC0Z0k27FrLj2OGI9Q", "alias": "manivanh-thai-restaurant-san-francisco", "name": "Manivanh Thai Restaurant", "image_url": "https://s3-media1.fl.yelpcdn.com/bphoto/PO_PQddMrI2phy-I7ivzqA/o.jpg", "is_closed": false, "url": "https://www.yelp.com/biz/manivanh-thai-restaurant-san-francisco?adjust_creative=Klanz-jboxl2XzqrjP6LLw&utm_campaign=yelp_api_v3&utm_medium=api_v3_business_search&utm_source=Klanz-jboxl2XzqrjP6LLw", "review_count": 247, "categories": [{"alias": "thai", "title": "Thai"}], "rating": 4.0, "coordinates": {"latitude": 37.75307, "longitude": -122.40707}, "transactions": ["delivery"], "price": "$$", "location": {"address1": "2732 24th St", "address2": "", "address3": "", "city": "San Francisco", "zip_code": "94110", "country": "US", "state": "CA", "display_address": ["2732 24th St", "San Francisco, CA 94110"]}, "phone": "+14158246059", "display_phone": "(415) 824-6059", "distance": 2727.5046233011813}, {"id": "BO45tCdHsoFixt8nHzJC3w", "alias": "slurp-ramen-san-francisco", "name": "Slurp Ramen", "image_url": "https://s3-media1.fl.yelpcdn.com/bphoto/ug65ehZlvB29TxwFnIFMOQ/o.jpg", "is_closed": false, "url": "https://www.yelp.com/biz/slurp-ramen-san-francisco?adjust_creative=Klanz-jboxl2XzqrjP6LLw&utm_campaign=yelp_api_v3&utm_medium=api_v3_business_search&utm_source=Klanz-jboxl2XzqrjP6LLw", "review_count": 442, "categories": [{"alias": "ramen", "title": "Ramen"}, {"alias": "noodles", "title": "Noodles"}, {"alias": "soup", "title": "Soup"}], "rating": 4.0, "coordinates": {"latitude": 37.79403, "longitude": -122.40509}, "transactions": ["delivery", "pickup"], "price": "$$", "location": {"address1": "710 Commercial St", "address2": "", "address3": "", "city": "San Francisco", "zip_code": "94108", "country": "US", "state": "CA", "display_address": ["710 Commercial St", "San Francisco, CA 94108"]}, "phone": "+14153991042", "display_phone": "(415) 399-1042", "distance": 4600.713391516469}, {"id": "f31oQcjKRPrLs_G4ny9_xQ", "alias": "pho-ga-san-francisco", "name": "Pho Ga", "image_url": "https://s3-media2.fl.yelpcdn.com/bphoto/D8rp4dM4zT8Lmocx75kkNw/o.jpg", "is_closed": false, "url": "https://www.yelp.com/biz/pho-ga-san-francisco?adjust_creative=Klanz-jboxl2XzqrjP6LLw&utm_campaign=yelp_api_v3&utm_medium=api_v3_business_search&utm_source=Klanz-jboxl2XzqrjP6LLw", "review_count": 141, "categories": [{"alias": "vietnamese", "title": "Vietnamese"}, {"alias": "noodles", "title": "Noodles"}], "rating": 4.0, "coordinates": {"latitude": 37.75436, "longitude": -122.47783}, "transactions": ["delivery", "pickup"], "price": "$$", "location": {"address1": "1310 Noriega St", "address2": "", "address3": null, "city": "San Francisco", "zip_code": "94122", "country": "US", "state": "CA", "display_address": ["1310 Noriega St", "San Francisco, CA 94122"]}, "phone": "+14155661688", "display_phone": "(415) 566-1688", "distance": 3707.8926711436416}, {"id": "k8UnUjLkikZSdJ8NYWl6zA", "alias": "maruya-san-francisco", "name": "Maruya", "image_url": "https://s3-media1.fl.yelpcdn.com/bphoto/odD0rKaBOUgnh8LeBT30ew/o.jpg", "is_closed": false, "url": "https://www.yelp.com/biz/maruya-san-francisco?adjust_creative=Klanz-jboxl2XzqrjP6LLw&utm_campaign=yelp_api_v3&utm_medium=api_v3_business_search&utm_source=Klanz-jboxl2XzqrjP6LLw", "review_count": 381, "categories": [{"alias": "japanese", "title": "Japanese"}, {"alias": "sushi", "title": "Sushi Bars"}, {"alias": "vegetarian", "title": "Vegetarian"}], "rating": 4.0, "coordinates": {"latitude": 37.7649327, "longitude": -122.4183186}, "transactions": [], "price": "$$$$", "location": {"address1": "2931 16th St", "address2": "", "address3": "", "city": "San Francisco", "zip_code": "94103", "country": "US", "state": "CA", "display_address": ["2931 16th St", "San Francisco, CA 94103"]}, "phone": "+14155030702", "display_phone": "(415) 503-0702", "distance": 1655.499290175055}, {"id": "U0GqpXzcIDlad7vQHbB63Q", "alias": "kusakabe-san-francisco", "name": "KUSAKABE", "image_url": "https://s3-media1.fl.yelpcdn.com/bphoto/iXZ1Ts45fAl83jO9XhOELQ/o.jpg", "is_closed": false, "url": "https://www.yelp.com/biz/kusakabe-san-francisco?adjust_creative=Klanz-jboxl2XzqrjP6LLw&utm_campaign=yelp_api_v3&utm_medium=api_v3_business_search&utm_source=Klanz-jboxl2XzqrjP6LLw", "review_count": 959, "categories": [{"alias": "sushi", "title": "Sushi Bars"}, {"alias": "japanese", "title": "Japanese"}], "rating": 4.5, "coordinates": {"latitude": 37.7957017702111, "longitude": -122.402884835582}, "transactions": ["delivery", "pickup"], "price": "$$$$", "location": {"address1": "584 Washington St", "address2": "", "address3": "", "city": "San Francisco", "zip_code": "94111", "country": "US", "state": "CA", "display_address": ["584 Washington St", "San Francisco, CA 94111"]}, "phone": "+14157570155", "display_phone": "(415) 757-0155", "distance": 4865.835208903343}, {"id": "FbwDeMgaZnGwLUKWh2DZbA", "alias": "lin-jia-asian-kitchen-oakland", "name": "Lin Jia Asian Kitchen", "image_url": "https://s3-media4.fl.yelpcdn.com/bphoto/KkjwKlhu3bqS9ibE9yJ6yw/o.jpg", "is_closed": false, "url": "https://www.yelp.com/biz/lin-jia-asian-kitchen-oakland?adjust_creative=Klanz-jboxl2XzqrjP6LLw&utm_campaign=yelp_api_v3&utm_medium=api_v3_business_search&utm_source=Klanz-jboxl2XzqrjP6LLw", "review_count": 471, "categories": [{"alias": "asianfusion", "title": "Asian Fusion"}, {"alias": "chinese", "title": "Chinese"}], "rating": 4.0, "coordinates": {"latitude": 37.81159, "longitude": -122.24264}, "transactions": ["delivery"], "price": "$$", "location": {"address1": "3437 Lakeshore Ave", "address2": "", "address3": "", "city": "Oakland", "zip_code": "94610", "country": "US", "state": "CA", "display_address": ["3437 Lakeshore Ave", "Oakland, CA 94610"]}, "phone": "+15108358322", "display_phone": "(510) 835-8322", "distance": 17936.104332746363}, {"id": "dDfwSYtN0wbaXHN0gTahpw", "alias": "b-b-q-king-san-bruno", "name": "B.B.Q king", "image_url": "https://s3-media3.fl.yelpcdn.com/bphoto/z-bxyi9eG9QiEmOFToRzww/o.jpg", "is_closed": false, "url": "https://www.yelp.com/biz/b-b-q-king-san-bruno?adjust_creative=Klanz-jboxl2XzqrjP6LLw&utm_campaign=yelp_api_v3&utm_medium=api_v3_business_search&utm_source=Klanz-jboxl2XzqrjP6LLw", "review_count": 109, "categories": [{"alias": "bbq", "title": "Barbeque"}, {"alias": "chinese", "title": "Chinese"}], "rating": 2.5, "coordinates": {"latitude": 37.6173263344788, "longitude": -122.408736668601}, "transactions": ["delivery", "pickup"], "price": "$$", "location": {"address1": "189 El Camino Real", "address2": "", "address3": "", "city": "San Bruno", "zip_code": "94066", "country": "US", "state": "CA", "display_address": ["189 El Camino Real", "San Bruno, CA 94066"]}, "phone": "+16508880058", "display_phone": "(650) 888-0058", "distance": 16149.710674700853}, {"id": "1hZO9SO0wXsx3CeeECfNng", "alias": "enjoy-vegetarian-restaurant-san-francisco-3", "name": "Enjoy Vegetarian Restaurant", "image_url": "https://s3-media1.fl.yelpcdn.com/bphoto/Vc7fS5BUEbdJFz-T8B4xbQ/o.jpg", "is_closed": false, "url": "https://www.yelp.com/biz/enjoy-vegetarian-restaurant-san-francisco-3?adjust_creative=Klanz-jboxl2XzqrjP6LLw&utm_campaign=yelp_api_v3&utm_medium=api_v3_business_search&utm_source=Klanz-jboxl2XzqrjP6LLw", "review_count": 563, "categories": [{"alias": "chinese", "title": "Chinese"}], "rating": 4.0, "coordinates": {"latitude": 37.760425567627, "longitude": -122.469100952148}, "transactions": ["pickup", "delivery"], "price": "$$", "location": {"address1": "754 Kirkham St", "address2": "", "address3": "", "city": "San Francisco", "zip_code": "94122", "country": "US", "state": "CA", "display_address": ["754 Kirkham St", "San Francisco, CA 94122"]}, "phone": "+14156820826", "display_phone": "(415) 682-0826", "distance": 2873.6918981279177}, {"id": "LbluzciGYhn1pKrsQCY1Sw", "alias": "kura-revolving-sushi-bar-san-francisco-2", "name": "Kura Revolving Sushi Bar", "image_url": "https://s3-media1.fl.yelpcdn.com/bphoto/5zk3xSWt7xJQcxcoyBcqUQ/o.jpg", "is_closed": false, "url": "https://www.yelp.com/biz/kura-revolving-sushi-bar-san-francisco-2?adjust_creative=Klanz-jboxl2XzqrjP6LLw&utm_campaign=yelp_api_v3&utm_medium=api_v3_business_search&utm_source=Klanz-jboxl2XzqrjP6LLw", "review_count": 119, "categories": [{"alias": "sushi", "title": "Sushi Bars"}, {"alias": "conveyorsushi", "title": "Conveyor Belt Sushi"}], "rating": 3.5, "coordinates": {"latitude": 37.72791788061855, "longitude": -122.4772126}, "transactions": [], "location": {"address1": "3251 20th Ave", "address2": "Ste 220", "address3": null, "city": "San Francisco", "zip_code": "94132", "country": "US", "state": "CA", "display_address": ["3251 20th Ave", "Ste 220", "San Francisco, CA 94132"]}, "phone": "+16509770707", "display_phone": "(650) 977-0707", "distance": 5128.108103085309}, {"id": "pBrHCp0X_SxMslzt-Kk5uQ", "alias": "the-old-siam-thai-restaurant-san-francisco", "name": "The Old Siam Thai Restaurant", "image_url": "https://s3-media1.fl.yelpcdn.com/bphoto/aEixSxfUufVdAX3lOpe2ag/o.jpg", "is_closed": false, "url": "https://www.yelp.com/biz/the-old-siam-thai-restaurant-san-francisco?adjust_creative=Klanz-jboxl2XzqrjP6LLw&utm_campaign=yelp_api_v3&utm_medium=api_v3_business_search&utm_source=Klanz-jboxl2XzqrjP6LLw", "review_count": 639, "categories": [{"alias": "thai", "title": "Thai"}, {"alias": "noodles", "title": "Noodles"}], "rating": 3.5, "coordinates": {"latitude": 37.7851623, "longitude": -122.4096288}, "transactions": ["delivery"], "price": "$$", "location": {"address1": "201 Ellis St", "address2": "", "address3": "", "city": "San Francisco", "zip_code": "94102", "country": "US", "state": "CA", "display_address": ["201 Ellis St", "San Francisco, CA 94102"]}, "phone": "+14158855144", "display_phone": "(415) 885-5144", "distance": 3579.6142494483233}, {"id": "wSsuLcdgXat_g69PswYWxw", "alias": "ichika-sushi-house-brisbane", "name": "Ichika Sushi House", "image_url": "https://s3-media3.fl.yelpcdn.com/bphoto/AFE4nVLEFW1A5CTRjqT2jw/o.jpg", "is_closed": false, "url": "https://www.yelp.com/biz/ichika-sushi-house-brisbane?adjust_creative=Klanz-jboxl2XzqrjP6LLw&utm_campaign=yelp_api_v3&utm_medium=api_v3_business_search&utm_source=Klanz-jboxl2XzqrjP6LLw", "review_count": 548, "categories": [{"alias": "sushi", "title": "Sushi Bars"}, {"alias": "ramen", "title": "Ramen"}, {"alias": "japacurry", "title": "Japanese Curry"}], "rating": 4.5, "coordinates": {"latitude": 37.68559, "longitude": -122.39976}, "transactions": ["delivery", "pickup"], "price": "$$", "location": {"address1": "118 Old County Rd", "address2": null, "address3": "", "city": "Brisbane", "zip_code": "94005", "country": "US", "state": "CA", "display_address": ["118 Old County Rd", "Brisbane, CA 94005"]}, "phone": "+14158255790", "display_phone": "(415) 825-5790", "distance": 8944.94073431498}, {"id": "wk1R0R2atEs9w4jgeibWqg", "alias": "rice-n-roll-pacifica", "name": "Rice N Roll", "image_url": "https://s3-media4.fl.yelpcdn.com/bphoto/cIAABar4GwEYiwukmo8BWQ/o.jpg", "is_closed": false, "url": "https://www.yelp.com/biz/rice-n-roll-pacifica?adjust_creative=Klanz-jboxl2XzqrjP6LLw&utm_campaign=yelp_api_v3&utm_medium=api_v3_business_search&utm_source=Klanz-jboxl2XzqrjP6LLw", "review_count": 743, "categories": [{"alias": "chinese", "title": "Chinese"}, {"alias": "vegetarian", "title": "Vegetarian"}], "rating": 3.5, "coordinates": {"latitude": 37.6460435, "longitude": -122.4716853}, "transactions": ["delivery", "pickup"], "price": "$$", "location": {"address1": "683 Manor Dr", "address2": null, "address3": "", "city": "Pacifica", "zip_code": "94044", "country": "US", "state": "CA", "display_address": ["683 Manor Dr", "Pacifica, CA 94044"]}, "phone": "+16507380218", "display_phone": "(650) 738-0218", "distance": 13140.299363974953}, {"id": "sHv8wKtB4JaZHrOoVEyXvg", "alias": "gangnam-jajang-oakland", "name": "Gangnam Jajang", "image_url": "https://s3-media4.fl.yelpcdn.com/bphoto/NWjMu0qbIr6Ye4wyquC76g/o.jpg", "is_closed": false, "url": "https://www.yelp.com/biz/gangnam-jajang-oakland?adjust_creative=Klanz-jboxl2XzqrjP6LLw&utm_campaign=yelp_api_v3&utm_medium=api_v3_business_search&utm_source=Klanz-jboxl2XzqrjP6LLw", "review_count": 29, "categories": [{"alias": "korean", "title": "Korean"}, {"alias": "asianfusion", "title": "Asian Fusion"}], "rating": 4.5, "coordinates": {"latitude": 37.8321, "longitude": -122.26308}, "transactions": ["restaurant_reservation"], "price": "$$", "location": {"address1": "4390 Telegraph Ave", "address2": "Ste B", "address3": "", "city": "Oakland", "zip_code": "94609", "country": "US", "state": "CA", "display_address": ["4390 Telegraph Ave", "Ste B", "Oakland, CA 94609"]}, "phone": "+15108911335", "display_phone": "(510) 891-1335", "distance": 17130.49571255782}, {"id": "H4ytcO8p7uiiQ_I4iaeiwg", "alias": "masala-dosa-san-francisco", "name": "Masala Dosa", "image_url": "https://s3-media2.fl.yelpcdn.com/bphoto/MZ52AkbGWBSEEV7BS0xJ-w/o.jpg", "is_closed": false, "url": "https://www.yelp.com/biz/masala-dosa-san-francisco?adjust_creative=Klanz-jboxl2XzqrjP6LLw&utm_campaign=yelp_api_v3&utm_medium=api_v3_business_search&utm_source=Klanz-jboxl2XzqrjP6LLw", "review_count": 425, "categories": [{"alias": "indpak", "title": "Indian"}, {"alias": "halal", "title": "Halal"}, {"alias": "desserts", "title": "Desserts"}], "rating": 3.5, "coordinates": {"latitude": 37.7625899474363, "longitude": -122.466286048293}, "transactions": ["delivery", "pickup"], "price": "$$", "location": {"address1": "1375 9th Ave", "address2": "", "address3": "", "city": "San Francisco", "zip_code": "94122", "country": "US", "state": "CA", "display_address": ["1375 9th Ave", "San Francisco, CA 94122"]}, "phone": "+14155666976", "display_phone": "(415) 566-6976", "distance": 2629.7643703148515}, {"id": "iMxBMVIFHLTH1IHnC66ihQ", "alias": "easterly-millbrae-millbrae-2", "name": "Easterly Millbrae", "image_url": "https://s3-media1.fl.yelpcdn.com/bphoto/nJ6ZOMHpjlFDNeUUUeHzqA/o.jpg", "is_closed": false, "url": "https://www.yelp.com/biz/easterly-millbrae-millbrae-2?adjust_creative=Klanz-jboxl2XzqrjP6LLw&utm_campaign=yelp_api_v3&utm_medium=api_v3_business_search&utm_source=Klanz-jboxl2XzqrjP6LLw", "review_count": 72, "categories": [{"alias": "chinese", "title": "Chinese"}], "rating": 3.0, "coordinates": {"latitude": 37.6008, "longitude": -122.39209}, "transactions": ["delivery", "pickup"], "price": "$$", "location": {"address1": "309 Broadway", "address2": null, "address3": "", "city": "Millbrae", "zip_code": "94030", "country": "US", "state": "CA", "display_address": ["309 Broadway", "Millbrae, CA 94030"]}, "phone": "+16506866987", "display_phone": "(650) 686-6987", "distance": 18223.43104748113}, {"id": "PSxdqKdHFg9_ckeIhiq7wQ", "alias": "hang-ah-tea-room-san-francisco", "name": "Hang Ah Tea Room", "image_url": "https://s3-media3.fl.yelpcdn.com/bphoto/6ZDmgAeJXZlsu7eilfozrA/o.jpg", "is_closed": false, "url": "https://www.yelp.com/biz/hang-ah-tea-room-san-francisco?adjust_creative=Klanz-jboxl2XzqrjP6LLw&utm_campaign=yelp_api_v3&utm_medium=api_v3_business_search&utm_source=Klanz-jboxl2XzqrjP6LLw", "review_count": 823, "categories": [{"alias": "dimsum", "title": "Dim Sum"}, {"alias": "tea", "title": "Tea Rooms"}, {"alias": "cantonese", "title": "Cantonese"}], "rating": 3.5, "coordinates": {"latitude": 37.7933499, "longitude": -122.40749}, "transactions": ["pickup", "delivery"], "price": "$$", "location": {"address1": "1 Pagoda Pl", "address2": "", "address3": "", "city": "San Francisco", "zip_code": "94108", "country": "US", "state": "CA", "display_address": ["1 Pagoda Pl", "San Francisco, CA 94108"]}, "phone": "+14159825686", "display_phone": "(415) 982-5686", "distance": 4418.921660921476}, {"id": "vka9K72EQhmw2H3MFhPrHg", "alias": "ushio-ramen-san-francisco-3", "name": "Ushio Ramen", "image_url": "https://s3-media3.fl.yelpcdn.com/bphoto/TmBN8q69bXvfdm2HZA7daw/o.jpg", "is_closed": false, "url": "https://www.yelp.com/biz/ushio-ramen-san-francisco-3?adjust_creative=Klanz-jboxl2XzqrjP6LLw&utm_campaign=yelp_api_v3&utm_medium=api_v3_business_search&utm_source=Klanz-jboxl2XzqrjP6LLw", "review_count": 273, "categories": [{"alias": "ramen", "title": "Ramen"}], "rating": 4.0, "coordinates": {"latitude": 37.765096, "longitude": -122.422692}, "transactions": ["delivery", "pickup"], "price": "$$", "location": {"address1": "3128 16th St", "address2": "", "address3": null, "city": "San Francisco", "zip_code": "94103", "country": "US", "state": "CA", "display_address": ["3128 16th St", "San Francisco, CA 94103"]}, "phone": "+14157030318", "display_phone": "(415) 703-0318", "distance": 1296.067917318319}, {"id": "jQ3kAI4WBD8JdKIuta1KUg", "alias": "pyeong-chang-tofu-berkeley-berkeley", "name": "Pyeong Chang Tofu - Berkeley", "image_url": "https://s3-media2.fl.yelpcdn.com/bphoto/89bZCX9_UxH-VJjCVQD3jw/o.jpg", "is_closed": false, "url": "https://www.yelp.com/biz/pyeong-chang-tofu-berkeley-berkeley?adjust_creative=Klanz-jboxl2XzqrjP6LLw&utm_campaign=yelp_api_v3&utm_medium=api_v3_business_search&utm_source=Klanz-jboxl2XzqrjP6LLw", "review_count": 194, "categories": [{"alias": "korean", "title": "Korean"}, {"alias": "soup", "title": "Soup"}, {"alias": "chicken_wings", "title": "Chicken Wings"}], "rating": 4.5, "coordinates": {"latitude": 37.8699257, "longitude": -122.287528}, "transactions": ["delivery", "pickup"], "price": "$$", "location": {"address1": "1269 University Ave", "address2": null, "address3": "", "city": "Berkeley", "zip_code": "94702", "country": "US", "state": "CA", "display_address": ["1269 University Ave", "Berkeley, CA 94702"]}, "phone": "+15105489781", "display_phone": "(510) 548-9781", "distance": 17835.23936532}, {"id": "AMhxom9yhQjTkFRMTKk_IA", "alias": "wingslut-san-francisco", "name": "WingSlut", "image_url": "https://s3-media2.fl.yelpcdn.com/bphoto/kAKz2BBB0W5J70TuJ_qaCQ/o.jpg", "is_closed": false, "url": "https://www.yelp.com/biz/wingslut-san-francisco?adjust_creative=Klanz-jboxl2XzqrjP6LLw&utm_campaign=yelp_api_v3&utm_medium=api_v3_business_search&utm_source=Klanz-jboxl2XzqrjP6LLw", "review_count": 43, "categories": [{"alias": "chicken_wings", "title": "Chicken Wings"}, {"alias": "hotdogs", "title": "Fast Food"}, {"alias": "asianfusion", "title": "Asian Fusion"}], "rating": 4.5, "coordinates": {"latitude": 37.776775, "longitude": -122.416414}, "transactions": [], "price": "$$", "location": {"address1": "1355 Market St", "address2": "Ste 180", "address3": null, "city": "San Francisco", "zip_code": "94103", "country": "US", "state": "CA", "display_address": ["1355 Market St", "Ste 180", "San Francisco, CA 94103"]}, "phone": "+14158811838", "display_phone": "(415) 881-1838", "distance": 2505.8568897050973}, {"id": "MpwQAOTvW4MLE_smNHZxxw", "alias": "earl-spicy-millbrae-4", "name": "Earl Spicy", "image_url": "https://s3-media2.fl.yelpcdn.com/bphoto/Nx2lNw3g73i-AiW-IUJddA/o.jpg", "is_closed": false, "url": "https://www.yelp.com/biz/earl-spicy-millbrae-4?adjust_creative=Klanz-jboxl2XzqrjP6LLw&utm_campaign=yelp_api_v3&utm_medium=api_v3_business_search&utm_source=Klanz-jboxl2XzqrjP6LLw", "review_count": 327, "categories": [{"alias": "szechuan", "title": "Szechuan"}, {"alias": "hotpot", "title": "Hot Pot"}, {"alias": "seafood", "title": "Seafood"}], "rating": 4.5, "coordinates": {"latitude": 37.61414, "longitude": -122.40569}, "transactions": ["restaurant_reservation", "delivery", "pickup"], "price": "$$", "location": {"address1": "1711 El Camino Real", "address2": null, "address3": "", "city": "Millbrae", "zip_code": "94030", "country": "US", "state": "CA", "display_address": ["1711 El Camino Real", "Millbrae, CA 94030"]}, "phone": "+16508696222", "display_phone": "(650) 869-6222", "distance": 16554.900802021748}, {"id": "KNjay-slya3gi7rw13ifOQ", "alias": "mums-home-of-shabu-shabu-san-francisco-2", "name": "Mums Home of Shabu Shabu", "image_url": "https://s3-media3.fl.yelpcdn.com/bphoto/MuSa3O8_22GXSgvt-TXjTg/o.jpg", "is_closed": false, "url": "https://www.yelp.com/biz/mums-home-of-shabu-shabu-san-francisco-2?adjust_creative=Klanz-jboxl2XzqrjP6LLw&utm_campaign=yelp_api_v3&utm_medium=api_v3_business_search&utm_source=Klanz-jboxl2XzqrjP6LLw", "review_count": 818, "categories": [{"alias": "japanese", "title": "Japanese"}, {"alias": "hotpot", "title": "Hot Pot"}, {"alias": "buffets", "title": "Buffets"}], "rating": 3.5, "coordinates": {"latitude": 37.78679, "longitude": -122.43032}, "transactions": ["delivery"], "price": "$$", "location": {"address1": "1800 Sutter St", "address2": "", "address3": "", "city": "San Francisco", "zip_code": "94115", "country": "US", "state": "CA", "display_address": ["1800 Sutter St", "San Francisco, CA 94115"]}, "phone": "+14159316986", "display_phone": "(415) 931-6986", "distance": 2921.5085936101495}, {"id": "C_8tBcwMD5Xy-eA8QCz0Fw", "alias": "mr-east-kitchen-san-francisco-2", "name": "Mr East Kitchen", "image_url": "https://s3-media2.fl.yelpcdn.com/bphoto/JJC1Vll6QIG5HAm2P1uSeg/o.jpg", "is_closed": false, "url": "https://www.yelp.com/biz/mr-east-kitchen-san-francisco-2?adjust_creative=Klanz-jboxl2XzqrjP6LLw&utm_campaign=yelp_api_v3&utm_medium=api_v3_business_search&utm_source=Klanz-jboxl2XzqrjP6LLw", "review_count": 346, "categories": [{"alias": "vietnamese", "title": "Vietnamese"}, {"alias": "breakfast_brunch", "title": "Breakfast & Brunch"}, {"alias": "bubbletea", "title": "Bubble Tea"}], "rating": 4.5, "coordinates": {"latitude": 37.7804338, "longitude": -122.4038163}, "transactions": ["delivery", "pickup"], "price": "$$", "location": {"address1": "276 Fifth St", "address2": null, "address3": "", "city": "San Francisco", "zip_code": "94103", "country": "US", "state": "CA", "display_address": ["276 Fifth St", "San Francisco, CA 94103"]}, "phone": "+14156587335", "display_phone": "(415) 658-7335", "distance": 3592.982520077722}, {"id": "GTQ4D7E2BpuwGH0qY9gHHw", "alias": "boo-koo-mill-valley", "name": "Boo Koo", "image_url": "https://s3-media1.fl.yelpcdn.com/bphoto/N9u81NfOsP6wz9nXgprktw/o.jpg", "is_closed": false, "url": "https://www.yelp.com/biz/boo-koo-mill-valley?adjust_creative=Klanz-jboxl2XzqrjP6LLw&utm_campaign=yelp_api_v3&utm_medium=api_v3_business_search&utm_source=Klanz-jboxl2XzqrjP6LLw", "review_count": 401, "categories": [{"alias": "asianfusion", "title": "Asian Fusion"}, {"alias": "salad", "title": "Salad"}, {"alias": "bars", "title": "Bars"}], "rating": 3.0, "coordinates": {"latitude": 37.9055746269377, "longitude": -122.547170672969}, "transactions": ["delivery", "pickup"], "price": "$$", "location": {"address1": "25 Miller Ave", "address2": "", "address3": "", "city": "Mill Valley", "zip_code": "94941", "country": "US", "state": "CA", "display_address": ["25 Miller Ave", "Mill Valley, CA 94941"]}, "phone": "+14158888303", "display_phone": "(415) 888-8303", "distance": 18797.61362420523}, {"id": "zf62D_W7iGzgdV6U_CeApQ", "alias": "pakwan-restaurant-16th-street-san-francisco", "name": "Pakwan Restaurant - 16th Street", "image_url": "https://s3-media4.fl.yelpcdn.com/bphoto/oE2UbZRIERRrf0rIcUX-mg/o.jpg", "is_closed": false, "url": "https://www.yelp.com/biz/pakwan-restaurant-16th-street-san-francisco?adjust_creative=Klanz-jboxl2XzqrjP6LLw&utm_campaign=yelp_api_v3&utm_medium=api_v3_business_search&utm_source=Klanz-jboxl2XzqrjP6LLw", "review_count": 1850, "categories": [{"alias": "indpak", "title": "Indian"}, {"alias": "pakistani", "title": "Pakistani"}, {"alias": "halal", "title": "Halal"}], "rating": 4.0, "coordinates": {"latitude": 37.7649156994629, "longitude": -122.423777393059}, "transactions": ["delivery", "pickup"], "price": "$$", "location": {"address1": "3180-82 16th St", "address2": "", "address3": "", "city": "San Francisco", "zip_code": "94103", "country": "US", "state": "CA", "display_address": ["3180-82 16th St", "San Francisco, CA 94103"]}, "phone": "+14152552440", "display_phone": "(415) 255-2440", "distance": 1199.9400138273543}, {"id": "AQjSsLrOheQ1snPWtYwv3w", "alias": "toyose-san-francisco-3", "name": "Toyose", "image_url": "https://s3-media3.fl.yelpcdn.com/bphoto/guKJMtGh-ubduLA3V4aZZg/o.jpg", "is_closed": false, "url": "https://www.yelp.com/biz/toyose-san-francisco-3?adjust_creative=Klanz-jboxl2XzqrjP6LLw&utm_campaign=yelp_api_v3&utm_medium=api_v3_business_search&utm_source=Klanz-jboxl2XzqrjP6LLw", "review_count": 1616, "categories": [{"alias": "korean", "title": "Korean"}], "rating": 3.5, "coordinates": {"latitude": 37.753199, "longitude": -122.504706}, "transactions": ["delivery", "pickup"], "price": "$$", "location": {"address1": "3814 Noriega St", "address2": "", "address3": "", "city": "San Francisco", "zip_code": "94122", "country": "US", "state": "CA", "display_address": ["3814 Noriega St", "San Francisco, CA 94122"]}, "phone": "+14157310232", "display_phone": "(415) 731-0232", "distance": 6061.224289706166}, {"id": "mLAg6fPXuO2_QV-IEfGsYA", "alias": "noren-izakaya-san-francisco", "name": "Noren Izakaya", "image_url": "https://s3-media2.fl.yelpcdn.com/bphoto/s2vbSuXO5g9nhCbpWbsexQ/o.jpg", "is_closed": false, "url": "https://www.yelp.com/biz/noren-izakaya-san-francisco?adjust_creative=Klanz-jboxl2XzqrjP6LLw&utm_campaign=yelp_api_v3&utm_medium=api_v3_business_search&utm_source=Klanz-jboxl2XzqrjP6LLw", "review_count": 117, "categories": [{"alias": "izakaya", "title": "Izakaya"}, {"alias": "tapasmallplates", "title": "Tapas/Small Plates"}, {"alias": "cocktailbars", "title": "Cocktail Bars"}], "rating": 4.0, "coordinates": {"latitude": 37.800326, "longitude": -122.411083}, "transactions": ["restaurant_reservation", "delivery", "pickup"], "price": "$$$", "location": {"address1": "1701 Powell St", "address2": null, "address3": "", "city": "San Francisco", "zip_code": "94133", "country": "US", "state": "CA", "display_address": ["1701 Powell St", "San Francisco, CA 94133"]}, "phone": "+14152919268", "display_phone": "(415) 291-9268", "distance": 4922.004524068032}, {"id": "4GAsfSjaB1XewzS3TKOtTg", "alias": "koo-san-francisco", "name": "Koo", "image_url": "https://s3-media4.fl.yelpcdn.com/bphoto/DksWzDlavC9OqqMFHWwroQ/o.jpg", "is_closed": false, "url": "https://www.yelp.com/biz/koo-san-francisco?adjust_creative=Klanz-jboxl2XzqrjP6LLw&utm_campaign=yelp_api_v3&utm_medium=api_v3_business_search&utm_source=Klanz-jboxl2XzqrjP6LLw", "review_count": 1132, "categories": [{"alias": "japanese", "title": "Japanese"}, {"alias": "sushi", "title": "Sushi Bars"}], "rating": 4.0, "coordinates": {"latitude": 37.764358548011, "longitude": -122.46248724056164}, "transactions": ["delivery"], "price": "$$$", "location": {"address1": "408 Irving St", "address2": "", "address3": "", "city": "San Francisco", "zip_code": "94122", "country": "US", "state": "CA", "display_address": ["408 Irving St", "San Francisco, CA 94122"]}, "phone": "+14157317077", "display_phone": "(415) 731-7077", "distance": 2321.16071395463}, {"id": "HBu_2H-jr_v7xFYbJOQmYg", "alias": "crazy-pepper-san-francisco", "name": "Crazy Pepper", "image_url": "https://s3-media3.fl.yelpcdn.com/bphoto/sfF1uUjsdRMfwYHD7cFkmg/o.jpg", "is_closed": false, "url": "https://www.yelp.com/biz/crazy-pepper-san-francisco?adjust_creative=Klanz-jboxl2XzqrjP6LLw&utm_campaign=yelp_api_v3&utm_medium=api_v3_business_search&utm_source=Klanz-jboxl2XzqrjP6LLw", "review_count": 457, "categories": [{"alias": "chinese", "title": "Chinese"}, {"alias": "seafood", "title": "Seafood"}, {"alias": "noodles", "title": "Noodles"}], "rating": 3.5, "coordinates": {"latitude": 37.72088, "longitude": -122.44626}, "transactions": ["delivery", "pickup"], "price": "$", "location": {"address1": "2257 San Jose Ave", "address2": "", "address3": "", "city": "San Francisco", "zip_code": "94112", "country": "US", "state": "CA", "display_address": ["2257 San Jose Ave", "San Francisco, CA 94112"]}, "phone": "+14153371888", "display_phone": "(415) 337-1888", "distance": 4534.59292490784}, {"id": "6TL8udi-vy_5rH-wikMSoA", "alias": "saru-sushi-bar-noe-valley-san-francisco-3", "name": "Saru Sushi Bar - Noe Valley", "image_url": "https://s3-media1.fl.yelpcdn.com/bphoto/5-ugy01zjSvudVsfdhmCsA/o.jpg", "is_closed": false, "url": "https://www.yelp.com/biz/saru-sushi-bar-noe-valley-san-francisco-3?adjust_creative=Klanz-jboxl2XzqrjP6LLw&utm_campaign=yelp_api_v3&utm_medium=api_v3_business_search&utm_source=Klanz-jboxl2XzqrjP6LLw", "review_count": 900, "categories": [{"alias": "sushi", "title": "Sushi Bars"}, {"alias": "japanese", "title": "Japanese"}, {"alias": "seafood", "title": "Seafood"}], "rating": 4.5, "coordinates": {"latitude": 37.751706, "longitude": -122.4288283}, "transactions": ["delivery"], "price": "$$$", "location": {"address1": "3856 24th St", "address2": "", "address3": "", "city": "San Francisco", "zip_code": "94114", "country": "US", "state": "CA", "display_address": ["3856 24th St", "San Francisco, CA 94114"]}, "phone": "+14154004510", "display_phone": "(415) 400-4510", "distance": 1222.1441911467125}, {"id": "ngmHLMeExPUPPLcAPHb3lw", "alias": "urban-bowls-san-francisco", "name": "Urban Bowls", "image_url": "https://s3-media3.fl.yelpcdn.com/bphoto/4tbDq0sQj-gCSyjrP9foKA/o.jpg", "is_closed": false, "url": "https://www.yelp.com/biz/urban-bowls-san-francisco?adjust_creative=Klanz-jboxl2XzqrjP6LLw&utm_campaign=yelp_api_v3&utm_medium=api_v3_business_search&utm_source=Klanz-jboxl2XzqrjP6LLw", "review_count": 77, "categories": [{"alias": "poke", "title": "Poke"}, {"alias": "hawaiian", "title": "Hawaiian"}, {"alias": "japanese", "title": "Japanese"}], "rating": 4.0, "coordinates": {"latitude": 37.77811, "longitude": -122.42247}, "transactions": ["delivery", "pickup"], "price": "$$", "location": {"address1": "340 Grove St", "address2": null, "address3": "", "city": "San Francisco", "zip_code": "94102", "country": "US", "state": "CA", "display_address": ["340 Grove St", "San Francisco, CA 94102"]}, "phone": "+14155002162", "display_phone": "(415) 500-2162", "distance": 2289.6764183505816}], "total": 1800, "region": {"center": {"longitude": -122.43644714355469, "latitude": 37.76089938976322}}}