{"businesses": [{"id": "MxJe-uYezCVi2qHJ9rsolA", "alias": "pacific-restaurant-daly-city-2", "name": "Pacific Restaurant", "image_url": "https://s3-media4.fl.yelpcdn.com/bphoto/1yWcL1UAV-J3PzJn1M32QQ/o.jpg", "is_closed": false, "url": "https://www.yelp.com/biz/pacific-restaurant-daly-city-2?adjust_creative=Klanz-jboxl2XzqrjP6LLw&utm_campaign=yelp_api_v3&utm_medium=api_v3_business_search&utm_source=Klanz-jboxl2XzqrjP6LLw", "review_count": 130, "categories": [{"alias": "chinese", "title": "Chinese"}, {"alias": "buffets", "title": "Buffets"}, {"alias": "noodles", "title": "Noodles"}], "rating": 3.0, "coordinates": {"latitude": 37.70542, "longitude": -122.46237}, "transactions": [], "price": "$", "location": {"address1": "6356 Mission St", "address2": "", "address3": "", "city": "Daly City", "zip_code": "94014", "country": "US", "state": "CA", "display_address": ["6356 Mission St", "Daly City, CA 94014"]}, "phone": "+16509945058", "display_phone": "(650) 994-5058", "distance": 6576.4094101917}, {"id": "ihsc-gyOo6O0I7xBumkxnw", "alias": "ipoh-garden-malaysian-cuisine-millbrae-4", "name": "IPOH Garden Malaysian Cuisine", "image_url": "https://s3-media2.fl.yelpcdn.com/bphoto/gwU8iJY6r5gvXJnEsRFwpg/o.jpg", "is_closed": false, "url": "https://www.yelp.com/biz/ipoh-garden-malaysian-cuisine-millbrae-4?adjust_creative=Klanz-jboxl2XzqrjP6LLw&utm_campaign=yelp_api_v3&utm_medium=api_v3_business_search&utm_source=Klanz-jboxl2XzqrjP6LLw", "review_count": 469, "categories": [{"alias": "malaysian", "title": "Malaysian"}], "rating": 4.0, "coordinates": {"latitude": 37.599366, "longitude": -122.387811}, "transactions": ["pickup"], "price": "$$", "location": {"address1": "100 El Camino Real", "address2": null, "address3": "", "city": "Millbrae", "zip_code": "94030", "country": "US", "state": "CA", "display_address": ["100 El Camino Real", "Millbrae, CA 94030"]}, "phone": "+16506529588", "display_phone": "(650) 652-9588", "distance": 18464.598014232168}, {"id": "Ldq4XfNsXM-ciulyDUlMmw", "alias": "sweet-lime-thai-cuisine-san-francisco", "name": "Sweet Lime Thai Cuisine", "image_url": "https://s3-media4.fl.yelpcdn.com/bphoto/MDfKrUulpDD4vIyDJ03csw/o.jpg", "is_closed": false, "url": "https://www.yelp.com/biz/sweet-lime-thai-cuisine-san-francisco?adjust_creative=Klanz-jboxl2XzqrjP6LLw&utm_campaign=yelp_api_v3&utm_medium=api_v3_business_search&utm_source=Klanz-jboxl2XzqrjP6LLw", "review_count": 522, "categories": [{"alias": "thai", "title": "Thai"}], "rating": 4.0, "coordinates": {"latitude": 37.7860027535405, "longitude": -122.435123975131}, "transactions": ["delivery", "pickup"], "price": "$$", "location": {"address1": "2100 Sutter St", "address2": "", "address3": "", "city": "San Francisco", "zip_code": "94115", "country": "US", "state": "CA", "display_address": ["2100 Sutter St", "San Francisco, CA 94115"]}, "phone": "+14156747515", "display_phone": "(415) 674-7515", "distance": 2793.7851906187257}, {"id": "-mUqJ1wTUEC-_8qVR2NWHQ", "alias": "ploy-ii-san-francisco", "name": "Ploy II", "image_url": "https://s3-media2.fl.yelpcdn.com/bphoto/QsaXuufxdtGqQ19u3ikynw/o.jpg", "is_closed": false, "url": "https://www.yelp.com/biz/ploy-ii-san-francisco?adjust_creative=Klanz-jboxl2XzqrjP6LLw&utm_campaign=yelp_api_v3&utm_medium=api_v3_business_search&utm_source=Klanz-jboxl2XzqrjP6LLw", "review_count": 758, "categories": [{"alias": "thai", "title": "Thai"}, {"alias": "noodles", "title": "Noodles"}], "rating": 4.0, "coordinates": {"latitude": 37.76972, "longitude": -122.45138}, "transactions": ["delivery", "pickup"], "price": "$$", "location": {"address1": "1770 Haight St", "address2": "", "address3": "", "city": "San Francisco", "zip_code": "94117", "country": "US", "state": "CA", "display_address": ["1770 Haight St", "San Francisco, CA 94117"]}, "phone": "+14153879224", "display_phone": "(415) 387-9224", "distance": 1634.4342463738744}, {"id": "yVN5m2ARIT3kcLCG8EVglQ", "alias": "ginza-sushi-and-sake-san-francisco", "name": "Ginza Sushi & Sake", "image_url": "https://s3-media1.fl.yelpcdn.com/bphoto/7QRdXQTrAQc61UCg7msGYg/o.jpg", "is_closed": false, "url": "https://www.yelp.com/biz/ginza-sushi-and-sake-san-francisco?adjust_creative=Klanz-jboxl2XzqrjP6LLw&utm_campaign=yelp_api_v3&utm_medium=api_v3_business_search&utm_source=Klanz-jboxl2XzqrjP6LLw", "review_count": 538, "categories": [{"alias": "sushi", "title": "Sushi Bars"}, {"alias": "japanese", "title": "Japanese"}], "rating": 4.0, "coordinates": {"latitude": 37.7691841125488, "longitude": -122.451538085938}, "transactions": ["delivery", "pickup"], "price": "$$", "location": {"address1": "1793 Haight St", "address2": "", "address3": "", "city": "San Francisco", "zip_code": "94117", "country": "US", "state": "CA", "display_address": ["1793 Haight St", "San Francisco, CA 94117"]}, "phone": "+14157420552", "display_phone": "(415) 742-0552", "distance": 1621.5750436768114}, {"id": "l1oXDZh6vE-cYreeAcfRBw", "alias": "freshroll-vietnamese-rolls-and-bowls-san-francisco-7", "name": "Freshroll Vietnamese Rolls and Bowls", "image_url": "https://s3-media1.fl.yelpcdn.com/bphoto/xXBkH1HsAiZaL1DFVxjjZg/o.jpg", "is_closed": false, "url": "https://www.yelp.com/biz/freshroll-vietnamese-rolls-and-bowls-san-francisco-7?adjust_creative=Klanz-jboxl2XzqrjP6LLw&utm_campaign=yelp_api_v3&utm_medium=api_v3_business_search&utm_source=Klanz-jboxl2XzqrjP6LLw", "review_count": 1226, "categories": [{"alias": "vietnamese", "title": "Vietnamese"}, {"alias": "sandwiches", "title": "Sandwiches"}], "rating": 4.0, "coordinates": {"latitude": 37.7839351290841, "longitude": -122.403370141983}, "transactions": ["delivery", "pickup"], "price": "$$", "location": {"address1": "157 4th St", "address2": "", "address3": "", "city": "San Francisco", "zip_code": "94103", "country": "US", "state": "CA", "display_address": ["157 4th St", "San Francisco, CA 94103"]}, "phone": "+14153481858", "display_phone": "(415) 348-1858", "distance": 3874.694056368605}, {"id": "kwjLNSEFX2m1Am5gZdL6GA", "alias": "rooster-and-rice-san-francisco-18", "name": "Rooster & Rice", "image_url": "https://s3-media2.fl.yelpcdn.com/bphoto/GEFycZj8pB5tVpvOfNtsBQ/o.jpg", "is_closed": false, "url": "https://www.yelp.com/biz/rooster-and-rice-san-francisco-18?adjust_creative=Klanz-jboxl2XzqrjP6LLw&utm_campaign=yelp_api_v3&utm_medium=api_v3_business_search&utm_source=Klanz-jboxl2XzqrjP6LLw", "review_count": 57, "categories": [{"alias": "chickenshop", "title": "Chicken Shop"}, {"alias": "thai", "title": "Thai"}], "rating": 4.0, "coordinates": {"latitude": 37.76085, "longitude": -122.43365}, "transactions": ["delivery", "pickup"], "price": "$$", "location": {"address1": "4039 18th St", "address2": null, "address3": "", "city": "San Francisco", "zip_code": "94114", "country": "US", "state": "CA", "display_address": ["4039 18th St", "San Francisco, CA 94114"]}, "phone": "+14153469700", "display_phone": "(415) 346-9700", "distance": 241.906159956444}, {"id": "1NxcXH7B-8yBp_JrkVkFTw", "alias": "king-of-thai-noodle-cafe-san-francisco", "name": "King of Thai Noodle Cafe", "image_url": "https://s3-media4.fl.yelpcdn.com/bphoto/PhSqshKs-67VrK8PUrZZLw/o.jpg", "is_closed": false, "url": "https://www.yelp.com/biz/king-of-thai-noodle-cafe-san-francisco?adjust_creative=Klanz-jboxl2XzqrjP6LLw&utm_campaign=yelp_api_v3&utm_medium=api_v3_business_search&utm_source=Klanz-jboxl2XzqrjP6LLw", "review_count": 629, "categories": [{"alias": "thai", "title": "Thai"}, {"alias": "noodles", "title": "Noodles"}, {"alias": "desserts", "title": "Desserts"}], "rating": 3.0, "coordinates": {"latitude": 37.742553, "longitude": -122.482713}, "transactions": ["delivery", "pickup"], "price": "$$", "location": {"address1": "1541 Taraval St", "address2": "", "address3": "", "city": "San Francisco", "zip_code": "94116", "country": "US", "state": "CA", "display_address": ["1541 Taraval St", "San Francisco, CA 94116"]}, "phone": "+14156829958", "display_phone": "(415) 682-9958", "distance": 4550.524408924249}, {"id": "fJtLp0jRDPF0-KXOu61wxQ", "alias": "sweet-ginger-sausalito", "name": "Sweet Ginger", "image_url": "https://s3-media4.fl.yelpcdn.com/bphoto/qrZ8b28ohgduT-LiYAwfvA/o.jpg", "is_closed": false, "url": "https://www.yelp.com/biz/sweet-ginger-sausalito?adjust_creative=Klanz-jboxl2XzqrjP6LLw&utm_campaign=yelp_api_v3&utm_medium=api_v3_business_search&utm_source=Klanz-jboxl2XzqrjP6LLw", "review_count": 151, "categories": [{"alias": "japanese", "title": "Japanese"}, {"alias": "sushi", "title": "Sushi Bars"}], "rating": 3.0, "coordinates": {"latitude": 37.86010618190948, "longitude": -122.48785998588228}, "transactions": ["delivery", "pickup"], "price": "$$", "location": {"address1": "400 Caledonia St", "address2": null, "address3": "", "city": "Sausalito", "zip_code": "94966", "country": "US", "state": "CA", "display_address": ["400 Caledonia St", "Sausalito, CA 94966"]}, "phone": "+14153321683", "display_phone": "(415) 332-1683", "distance": 11920.0807374375}, {"id": "JCGqXCv3gOp9rIOWDLR8Mg", "alias": "xiao-long-bao-san-francisco", "name": "Xiao Long Bao", "image_url": "https://s3-media3.fl.yelpcdn.com/bphoto/Sfti1-fkHUucgWHdEPag-w/o.jpg", "is_closed": false, "url": "https://www.yelp.com/biz/xiao-long-bao-san-francisco?adjust_creative=Klanz-jboxl2XzqrjP6LLw&utm_campaign=yelp_api_v3&utm_medium=api_v3_business_search&utm_source=Klanz-jboxl2XzqrjP6LLw", "review_count": 315, "categories": [{"alias": "dimsum", "title": "Dim Sum"}], "rating": 3.5, "coordinates": {"latitude": 37.7828286588192, "longitude": -122.465824708343}, "transactions": ["delivery"], "price": "$", "location": {"address1": "625 Clement St", "address2": "", "address3": "", "city": "San Francisco", "zip_code": "94118", "country": "US", "state": "CA", "display_address": ["625 Clement St", "San Francisco, CA 94118"]}, "phone": "+14156663998", "display_phone": "(415) 666-3998", "distance": 3551.5187468194713}, {"id": "_Biu9UkF2PRH6LOYZUVD3g", "alias": "sarku-japan-san-francisco", "name": "Sarku Japan", "image_url": "https://s3-media4.fl.yelpcdn.com/bphoto/4cp6TIXzM53J6y38Ekl_XQ/o.jpg", "is_closed": false, "url": "https://www.yelp.com/biz/sarku-japan-san-francisco?adjust_creative=Klanz-jboxl2XzqrjP6LLw&utm_campaign=yelp_api_v3&utm_medium=api_v3_business_search&utm_source=Klanz-jboxl2XzqrjP6LLw", "review_count": 160, "categories": [{"alias": "japanese", "title": "Japanese"}, {"alias": "hotdogs", "title": "Fast Food"}], "rating": 3.0, "coordinates": {"latitude": 37.783869, "longitude": -122.406916}, "transactions": ["delivery"], "price": "$$", "location": {"address1": "865 Market St", "address2": "Ste 289", "address3": "", "city": "San Francisco", "zip_code": "94103", "country": "US", "state": "CA", "display_address": ["865 Market St", "Ste 289", "San Francisco, CA 94103"]}, "phone": "+14157778696", "display_phone": "(415) 777-8696", "distance": 3641.5136143873865}, {"id": "Z5Oa8wKjGPPc2XWzV4ShVA", "alias": "stone-korean-kitchen-san-francisco-2", "name": "Stone Korean Kitchen", "image_url": "https://s3-media1.fl.yelpcdn.com/bphoto/WCUl8C3u2MEvjfHUk69zJw/o.jpg", "is_closed": false, "url": "https://www.yelp.com/biz/stone-korean-kitchen-san-francisco-2?adjust_creative=Klanz-jboxl2XzqrjP6LLw&utm_campaign=yelp_api_v3&utm_medium=api_v3_business_search&utm_source=Klanz-jboxl2XzqrjP6LLw", "review_count": 809, "categories": [{"alias": "korean", "title": "Korean"}], "rating": 3.0, "coordinates": {"latitude": 37.7954345974864, "longitude": -122.395933834324}, "transactions": ["delivery", "pickup"], "price": "$$", "location": {"address1": "4 Embarcadero Ctr", "address2": "Street Level", "address3": "", "city": "San Francisco", "zip_code": "94111", "country": "US", "state": "CA", "display_address": ["4 Embarcadero Ctr", "Street Level", "San Francisco, CA 94111"]}, "phone": "+14158394070", "display_phone": "(415) 839-4070", "distance": 5236.839858284656}, {"id": "r_jnIM3ziVhCUKMI3iQ6WQ", "alias": "aicha-moroccan-cuisine-san-francisco-3", "name": "Aicha Moroccan Cuisine", "image_url": "https://s3-media4.fl.yelpcdn.com/bphoto/DTGg8XV3sB5Z-jqzF6IEeQ/o.jpg", "is_closed": false, "url": "https://www.yelp.com/biz/aicha-moroccan-cuisine-san-francisco-3?adjust_creative=Klanz-jboxl2XzqrjP6LLw&utm_campaign=yelp_api_v3&utm_medium=api_v3_business_search&utm_source=Klanz-jboxl2XzqrjP6LLw", "review_count": 542, "categories": [{"alias": "moroccan", "title": "Moroccan"}, {"alias": "halal", "title": "Halal"}, {"alias": "mideastern", "title": "Middle Eastern"}], "rating": 4.0, "coordinates": {"latitude": 37.788901, "longitude": -122.420532}, "transactions": ["delivery", "pickup"], "price": "$$", "location": {"address1": "1303 Polk St", "address2": "", "address3": "", "city": "San Francisco", "zip_code": "94109", "country": "US", "state": "CA", "display_address": ["1303 Polk St", "San Francisco, CA 94109"]}, "phone": "+14153459947", "display_phone": "(415) 345-9947", "distance": 3412.7270128620703}, {"id": "C538n10J0kzW8B5dNPecfg", "alias": "fondue-chinoise-san-francisco", "name": "Fondue Chinoise", "image_url": "https://s3-media1.fl.yelpcdn.com/bphoto/TemfrljusZciedj1WbB3hw/o.jpg", "is_closed": false, "url": "https://www.yelp.com/biz/fondue-chinoise-san-francisco?adjust_creative=Klanz-jboxl2XzqrjP6LLw&utm_campaign=yelp_api_v3&utm_medium=api_v3_business_search&utm_source=Klanz-jboxl2XzqrjP6LLw", "review_count": 114, "categories": [{"alias": "hotpot", "title": "Hot Pot"}, {"alias": "chinese", "title": "Chinese"}], "rating": 3.5, "coordinates": {"latitude": 37.798354325414834, "longitude": -122.40447047668572}, "transactions": ["delivery", "restaurant_reservation", "pickup"], "price": "$$", "location": {"address1": "430 Broadway", "address2": null, "address3": "", "city": "San Francisco", "zip_code": "94133", "country": "US", "state": "CA", "display_address": ["430 Broadway", "San Francisco, CA 94133"]}, "phone": "+14152178888", "display_phone": "(415) 217-8888", "distance": 5024.259979172492}, {"id": "7dJqX-GEGCbS1K_2AhO-bQ", "alias": "tian-jin-dumplings-oakland-2", "name": "Tian Jin Dumplings", "image_url": "https://s3-media2.fl.yelpcdn.com/bphoto/snb8T-xfmaxsv6SEvhRRBQ/o.jpg", "is_closed": false, "url": "https://www.yelp.com/biz/tian-jin-dumplings-oakland-2?adjust_creative=Klanz-jboxl2XzqrjP6LLw&utm_campaign=yelp_api_v3&utm_medium=api_v3_business_search&utm_source=Klanz-jboxl2XzqrjP6LLw", "review_count": 314, "categories": [{"alias": "chinese", "title": "Chinese"}], "rating": 4.0, "coordinates": {"latitude": 37.8007897, "longitude": -122.2720573}, "transactions": ["delivery"], "price": "$", "location": {"address1": "989 Franklin St", "address2": "Suit B", "address3": "", "city": "Oakland", "zip_code": "94607", "country": "US", "state": "CA", "display_address": ["989 Franklin St", "Suit B", "Oakland, CA 94607"]}, "phone": "+15104596265", "display_phone": "(510) 459-6265", "distance": 15112.79799506385}, {"id": "zR_f2QngVJFu9kkRpxXvYQ", "alias": "grant-place-restaurant-san-francisco-2", "name": "Grant Place Restaurant", "image_url": "https://s3-media2.fl.yelpcdn.com/bphoto/RcZotHbs4LbjLhibwtqpig/o.jpg", "is_closed": false, "url": "https://www.yelp.com/biz/grant-place-restaurant-san-francisco-2?adjust_creative=Klanz-jboxl2XzqrjP6LLw&utm_campaign=yelp_api_v3&utm_medium=api_v3_business_search&utm_source=Klanz-jboxl2XzqrjP6LLw", "review_count": 492, "categories": [{"alias": "dimsum", "title": "Dim Sum"}, {"alias": "seafood", "title": "Seafood"}, {"alias": "cantonese", "title": "Cantonese"}], "rating": 3.0, "coordinates": {"latitude": 37.7950096130371, "longitude": -122.406143188477}, "transactions": ["delivery", "pickup"], "price": "$$", "location": {"address1": "737 Washington St", "address2": "", "address3": "", "city": "San Francisco", "zip_code": "94108", "country": "US", "state": "CA", "display_address": ["737 Washington St", "San Francisco, CA 94108"]}, "phone": "+14159823705", "display_phone": "(415) 982-3705", "distance": 4639.237442096407}, {"id": "tiSDprSVuesljC8b0aS64A", "alias": "wolfes-lunch-san-francisco", "name": "Wolfes Lunch", "image_url": "https://s3-media3.fl.yelpcdn.com/bphoto/ktsOgUMEieQXDjAvrk1_dA/o.jpg", "is_closed": false, "url": "https://www.yelp.com/biz/wolfes-lunch-san-francisco?adjust_creative=Klanz-jboxl2XzqrjP6LLw&utm_campaign=yelp_api_v3&utm_medium=api_v3_business_search&utm_source=Klanz-jboxl2XzqrjP6LLw", "review_count": 121, "categories": [{"alias": "japanese", "title": "Japanese"}, {"alias": "korean", "title": "Korean"}, {"alias": "tradamerican", "title": "American (Traditional)"}], "rating": 4.0, "coordinates": {"latitude": 37.7663780003786, "longitude": -122.39863269031}, "transactions": ["delivery"], "price": "$", "location": {"address1": "1220 16th St", "address2": "", "address3": "", "city": "San Francisco", "zip_code": "94107", "country": "US", "state": "CA", "display_address": ["1220 16th St", "San Francisco, CA 94107"]}, "phone": "+14156213684", "display_phone": "(415) 621-3684", "distance": 3292.1494851739158}, {"id": "nik97G8-H0rFoJKO4X3ZIA", "alias": "7-mission-restaurant-san-francisco-2", "name": "7 Mission Restaurant", "image_url": "https://s3-media3.fl.yelpcdn.com/bphoto/e8ohmRyNl1bvmObtyWAecQ/o.jpg", "is_closed": false, "url": "https://www.yelp.com/biz/7-mission-restaurant-san-francisco-2?adjust_creative=Klanz-jboxl2XzqrjP6LLw&utm_campaign=yelp_api_v3&utm_medium=api_v3_business_search&utm_source=Klanz-jboxl2XzqrjP6LLw", "review_count": 253, "categories": [{"alias": "vietnamese", "title": "Vietnamese"}, {"alias": "chinese", "title": "Chinese"}], "rating": 3.5, "coordinates": {"latitude": 37.7783966064453, "longitude": -122.410293579102}, "transactions": ["delivery", "pickup"], "price": "$", "location": {"address1": "150 7th St", "address2": null, "address3": "", "city": "San Francisco", "zip_code": "94103", "country": "US", "state": "CA", "display_address": ["150 7th St", "San Francisco, CA 94103"]}, "phone": "+14158613298", "display_phone": "(415) 861-3298", "distance": 3019.459226182769}, {"id": "3ygxwzX8L1gXjF2_zuTdTg", "alias": "z-one-kitchen-san-bruno", "name": "Z-One Kitchen", "image_url": "https://s3-media1.fl.yelpcdn.com/bphoto/n4yZn8P_3veO0YAHEzu1Jg/o.jpg", "is_closed": false, "url": "https://www.yelp.com/biz/z-one-kitchen-san-bruno?adjust_creative=Klanz-jboxl2XzqrjP6LLw&utm_campaign=yelp_api_v3&utm_medium=api_v3_business_search&utm_source=Klanz-jboxl2XzqrjP6LLw", "review_count": 13, "categories": [{"alias": "chinese", "title": "Chinese"}], "rating": 4.0, "coordinates": {"latitude": 37.616642, "longitude": -122.407191}, "transactions": ["delivery"], "location": {"address1": "130 El Camino Real", "address2": "Ste C", "address3": "", "city": "San Bruno", "zip_code": "94066", "country": "US", "state": "CA", "display_address": ["130 El Camino Real", "Ste C", "San Bruno, CA 94066"]}, "phone": "+14155797160", "display_phone": "(415) 579-7160", "distance": 16249.449737470804}, {"id": "ITFRPmzOeEp6dY3Dufh8vw", "alias": "mortons-the-steakhouse-san-francisco", "name": "Morton's The Steakhouse", "image_url": "https://s3-media3.fl.yelpcdn.com/bphoto/cn4EGN2iAcfQLh7ebc4ljg/o.jpg", "is_closed": false, "url": "https://www.yelp.com/biz/mortons-the-steakhouse-san-francisco?adjust_creative=Klanz-jboxl2XzqrjP6LLw&utm_campaign=yelp_api_v3&utm_medium=api_v3_business_search&utm_source=Klanz-jboxl2XzqrjP6LLw", "review_count": 1316, "categories": [{"alias": "steak", "title": "Steakhouses"}, {"alias": "bars", "title": "Bars"}, {"alias": "seafood", "title": "Seafood"}], "rating": 3.5, "coordinates": {"latitude": 37.788447702060964, "longitude": -122.4088281}, "transactions": [], "price": "$$$$", "location": {"address1": "400 Post St", "address2": "", "address3": "", "city": "San Francisco", "zip_code": "94102", "country": "US", "state": "CA", "display_address": ["400 Post St", "San Francisco, CA 94102"]}, "phone": "+14159865830", "display_phone": "(415) 986-5830", "distance": 3908.4515948814233}, {"id": "7tsN9N9mhfJRNTe37pLFMg", "alias": "burma-love-san-francisco-10", "name": "Burma Love", "image_url": "https://s3-media3.fl.yelpcdn.com/bphoto/Sd_ij4_9TyALdoNgwnzmaw/o.jpg", "is_closed": false, "url": "https://www.yelp.com/biz/burma-love-san-francisco-10?adjust_creative=Klanz-jboxl2XzqrjP6LLw&utm_campaign=yelp_api_v3&utm_medium=api_v3_business_search&utm_source=Klanz-jboxl2XzqrjP6LLw", "review_count": 1359, "categories": [{"alias": "burmese", "title": "Burmese"}, {"alias": "cocktailbars", "title": "Cocktail Bars"}, {"alias": "seafood", "title": "Seafood"}], "rating": 4.0, "coordinates": {"latitude": 37.76961, "longitude": -122.42205}, "transactions": ["restaurant_reservation", "pickup"], "price": "$$", "location": {"address1": "211 Valencia St", "address2": "", "address3": "", "city": "San Francisco", "zip_code": "94103", "country": "US", "state": "CA", "display_address": ["211 Valencia St", "San Francisco, CA 94103"]}, "phone": "+14158612100", "display_phone": "(415) 861-2100", "distance": 1590.0954692428409}, {"id": "7iiWJyo_N5rGz4agqe9EbA", "alias": "kabuto-restaurant-san-francisco", "name": "Kabuto Restaurant", "image_url": "https://s3-media3.fl.yelpcdn.com/bphoto/WpJfiIf2-BZWA9B9CNFPRA/o.jpg", "is_closed": false, "url": "https://www.yelp.com/biz/kabuto-restaurant-san-francisco?adjust_creative=Klanz-jboxl2XzqrjP6LLw&utm_campaign=yelp_api_v3&utm_medium=api_v3_business_search&utm_source=Klanz-jboxl2XzqrjP6LLw", "review_count": 1064, "categories": [{"alias": "sushi", "title": "Sushi Bars"}, {"alias": "japanese", "title": "Japanese"}], "rating": 4.0, "coordinates": {"latitude": 37.78031, "longitude": -122.47441}, "transactions": ["delivery", "restaurant_reservation"], "price": "$$$", "location": {"address1": "5121 Geary Blvd", "address2": "", "address3": "", "city": "San Francisco", "zip_code": "94118", "country": "US", "state": "CA", "display_address": ["5121 Geary Blvd", "San Francisco, CA 94118"]}, "phone": "+14157525652", "display_phone": "(415) 752-5652", "distance": 3974.7650899912555}, {"id": "nJziHiIt86OGqKQQFHd9jg", "alias": "jin-mi-korean-cuisine-san-francisco", "name": "Jin Mi Korean Cuisine", "image_url": "https://s3-media1.fl.yelpcdn.com/bphoto/40EQBq21gnUZUFtnX776jQ/o.jpg", "is_closed": false, "url": "https://www.yelp.com/biz/jin-mi-korean-cuisine-san-francisco?adjust_creative=Klanz-jboxl2XzqrjP6LLw&utm_campaign=yelp_api_v3&utm_medium=api_v3_business_search&utm_source=Klanz-jboxl2XzqrjP6LLw", "review_count": 479, "categories": [{"alias": "korean", "title": "Korean"}, {"alias": "soup", "title": "Soup"}, {"alias": "noodles", "title": "Noodles"}], "rating": 4.0, "coordinates": {"latitude": 37.78162, "longitude": -122.41682}, "transactions": ["delivery", "pickup"], "price": "$$", "location": {"address1": "366 Golden Gate Ave", "address2": "", "address3": "", "city": "San Francisco", "zip_code": "94102", "country": "US", "state": "CA", "display_address": ["366 Golden Gate Ave", "San Francisco, CA 94102"]}, "phone": "+14158345007", "display_phone": "(415) 834-5007", "distance": 2904.2345798919227}, {"id": "pgO1Q4cEh4u_MZT5hQ4y_w", "alias": "karaweik-burmese-cuisine-san-francisco", "name": "Karaweik Burmese Cuisine", "image_url": "https://s3-media1.fl.yelpcdn.com/bphoto/cY7YJXAq4Oml9TKLHZ3-iw/o.jpg", "is_closed": false, "url": "https://www.yelp.com/biz/karaweik-burmese-cuisine-san-francisco?adjust_creative=Klanz-jboxl2XzqrjP6LLw&utm_campaign=yelp_api_v3&utm_medium=api_v3_business_search&utm_source=Klanz-jboxl2XzqrjP6LLw", "review_count": 182, "categories": [{"alias": "burmese", "title": "Burmese"}, {"alias": "noodles", "title": "Noodles"}, {"alias": "salad", "title": "Salad"}], "rating": 4.5, "coordinates": {"latitude": 37.79991, "longitude": -122.43804}, "transactions": ["delivery", "pickup"], "price": "$$", "location": {"address1": "3317 Steiner St", "address2": null, "address3": "", "city": "San Francisco", "zip_code": "94123", "country": "US", "state": "CA", "display_address": ["3317 Steiner St", "San Francisco, CA 94123"]}, "phone": "+14159221892", "display_phone": "(415) 922-1892", "distance": 4343.241161400187}, {"id": "VaPMLf7sK-GScihdMpJf2Q", "alias": "chopsticks-san-francisco-3", "name": "Chopsticks", "image_url": "https://s3-media2.fl.yelpcdn.com/bphoto/dN9kwpSZARsER5nfqCNdIA/o.jpg", "is_closed": false, "url": "https://www.yelp.com/biz/chopsticks-san-francisco-3?adjust_creative=Klanz-jboxl2XzqrjP6LLw&utm_campaign=yelp_api_v3&utm_medium=api_v3_business_search&utm_source=Klanz-jboxl2XzqrjP6LLw", "review_count": 103, "categories": [{"alias": "chinese", "title": "Chinese"}, {"alias": "hotdogs", "title": "Fast Food"}], "rating": 4.0, "coordinates": {"latitude": 37.72434, "longitude": -122.43471}, "transactions": [], "price": "$", "location": {"address1": "4615 Mission St", "address2": "", "address3": "", "city": "San Francisco", "zip_code": "94112", "country": "US", "state": "CA", "display_address": ["4615 Mission St", "San Francisco, CA 94112"]}, "phone": "+14153336336", "display_phone": "(415) 333-6336", "distance": 4064.948871547504}, {"id": "xhpCkDODDbmKHdraKuyzqA", "alias": "bay-fung-tong-tea-house-restaurant-oakland", "name": "Bay Fung Tong Tea House Restaurant", "image_url": "https://s3-media2.fl.yelpcdn.com/bphoto/aaCrR2JRt4luU3xTrixdRw/o.jpg", "is_closed": false, "url": "https://www.yelp.com/biz/bay-fung-tong-tea-house-restaurant-oakland?adjust_creative=Klanz-jboxl2XzqrjP6LLw&utm_campaign=yelp_api_v3&utm_medium=api_v3_business_search&utm_source=Klanz-jboxl2XzqrjP6LLw", "review_count": 377, "categories": [{"alias": "chinese", "title": "Chinese"}, {"alias": "seafood", "title": "Seafood"}], "rating": 3.5, "coordinates": {"latitude": 37.8074684143066, "longitude": -122.267250061035}, "transactions": ["delivery"], "price": "$$", "location": {"address1": "1916 Franklin St", "address2": "", "address3": "", "city": "Oakland", "zip_code": "94612", "country": "US", "state": "CA", "display_address": ["1916 Franklin St", "Oakland, CA 94612"]}, "phone": "+15108323298", "display_phone": "(510) 832-3298", "distance": 15736.333492044449}, {"id": "GkYKcqB-yuBkiDAlFThZTA", "alias": "lers-ros-thai-san-francisco-2", "name": "Lers Ros Thai", "image_url": "https://s3-media2.fl.yelpcdn.com/bphoto/-y_ydb39-Tcxk790naGzZQ/o.jpg", "is_closed": false, "url": "https://www.yelp.com/biz/lers-ros-thai-san-francisco-2?adjust_creative=Klanz-jboxl2XzqrjP6LLw&utm_campaign=yelp_api_v3&utm_medium=api_v3_business_search&utm_source=Klanz-jboxl2XzqrjP6LLw", "review_count": 878, "categories": [{"alias": "thai", "title": "Thai"}], "rating": 3.5, "coordinates": {"latitude": 37.7768972383445, "longitude": -122.421725769975}, "transactions": ["delivery", "restaurant_reservation", "pickup"], "price": "$$", "location": {"address1": "307 Hayes St", "address2": "", "address3": "", "city": "San Francisco", "zip_code": "94102", "country": "US", "state": "CA", "display_address": ["307 Hayes St", "San Francisco, CA 94102"]}, "phone": "+14158749661", "display_phone": "(415) 874-9661", "distance": 2199.725505097753}, {"id": "qGf1STU58RroSfnUdghLBA", "alias": "tasty-pot-san-francisco", "name": "Tasty Pot", "image_url": "https://s3-media2.fl.yelpcdn.com/bphoto/P6bxlSwQ2CYRNcUgbTzdTw/o.jpg", "is_closed": false, "url": "https://www.yelp.com/biz/tasty-pot-san-francisco?adjust_creative=Klanz-jboxl2XzqrjP6LLw&utm_campaign=yelp_api_v3&utm_medium=api_v3_business_search&utm_source=Klanz-jboxl2XzqrjP6LLw", "review_count": 514, "categories": [{"alias": "taiwanese", "title": "Taiwanese"}, {"alias": "bubbletea", "title": "Bubble Tea"}, {"alias": "hotpot", "title": "Hot Pot"}], "rating": 4.0, "coordinates": {"latitude": 37.7827072888613, "longitude": -122.468120008707}, "transactions": ["delivery", "pickup"], "price": "$$", "location": {"address1": "815 Clement St", "address2": null, "address3": "", "city": "San Francisco", "zip_code": "94118", "country": "US", "state": "CA", "display_address": ["815 Clement St", "San Francisco, CA 94118"]}, "phone": "+14156663888", "display_phone": "(415) 666-3888", "distance": 3675.9360819604235}, {"id": "AIJubilv7ZTrZWKP01_udA", "alias": "p-f-changs-emeryville-10", "name": "P.F. Chang's", "image_url": "https://s3-media4.fl.yelpcdn.com/bphoto/EPIhn80YB8vlBsdInpepjA/o.jpg", "is_closed": false, "url": "https://www.yelp.com/biz/p-f-changs-emeryville-10?adjust_creative=Klanz-jboxl2XzqrjP6LLw&utm_campaign=yelp_api_v3&utm_medium=api_v3_business_search&utm_source=Klanz-jboxl2XzqrjP6LLw", "review_count": 931, "categories": [{"alias": "chinese", "title": "Chinese"}, {"alias": "asianfusion", "title": "Asian Fusion"}], "rating": 3.0, "coordinates": {"latitude": 37.8347784673688, "longitude": -122.292522612268}, "transactions": ["delivery", "pickup"], "price": "$$", "location": {"address1": "5633 Bay St", "address2": null, "address3": "", "city": "Emeryville", "zip_code": "94608", "country": "US", "state": "CA", "display_address": ["5633 Bay St", "Emeryville, CA 94608"]}, "phone": "+15108790990", "display_phone": "(510) 879-0990", "distance": 15079.801822153186}, {"id": "Ah5NOsNcFxaKG8N0QKVA8g", "alias": "mings-tasty-restaurant-oakland", "name": "Ming's Tasty Restaurant", "image_url": "https://s3-media1.fl.yelpcdn.com/bphoto/CUf14MstsPP9StGx2Ya_Qg/o.jpg", "is_closed": false, "url": "https://www.yelp.com/biz/mings-tasty-restaurant-oakland?adjust_creative=Klanz-jboxl2XzqrjP6LLw&utm_campaign=yelp_api_v3&utm_medium=api_v3_business_search&utm_source=Klanz-jboxl2XzqrjP6LLw", "review_count": 322, "categories": [{"alias": "dimsum", "title": "Dim Sum"}, {"alias": "cantonese", "title": "Cantonese"}], "rating": 4.5, "coordinates": {"latitude": 37.8004329198627, "longitude": -122.270389907062}, "transactions": ["delivery"], "price": "$$", "location": {"address1": "940 Webster St", "address2": "", "address3": null, "city": "Oakland", "zip_code": "94607", "country": "US", "state": "CA", "display_address": ["940 Webster St", "Oakland, CA 94607"]}, "phone": "+15109188988", "display_phone": "(510) 918-8988", "distance": 15241.486241911121}, {"id": "q1y58K-pcgEvdMc_8QTQfA", "alias": "golden-wok-san-francisco", "name": "Golden Wok", "image_url": "https://s3-media1.fl.yelpcdn.com/bphoto/Zfpgi6W_WP89Hosu0tNFHg/o.jpg", "is_closed": false, "url": "https://www.yelp.com/biz/golden-wok-san-francisco?adjust_creative=Klanz-jboxl2XzqrjP6LLw&utm_campaign=yelp_api_v3&utm_medium=api_v3_business_search&utm_source=Klanz-jboxl2XzqrjP6LLw", "review_count": 256, "categories": [{"alias": "chinese", "title": "Chinese"}], "rating": 2.0, "coordinates": {"latitude": 37.71408, "longitude": -122.46292}, "transactions": ["delivery", "pickup"], "price": "$", "location": {"address1": "295 Orizaba Ave", "address2": "", "address3": "", "city": "San Francisco", "zip_code": "94132", "country": "US", "state": "CA", "display_address": ["295 Orizaba Ave", "San Francisco, CA 94132"]}, "phone": "+14155868000", "display_phone": "(415) 586-8000", "distance": 5698.498830566151}, {"id": "YPX6pxEduWqc_O5htEmTnQ", "alias": "brothers-restaurant-san-francisco", "name": "Brothers Restaurant", "image_url": "https://s3-media1.fl.yelpcdn.com/bphoto/ODkDEgQDxVMhMRqT5XiPEg/o.jpg", "is_closed": false, "url": "https://www.yelp.com/biz/brothers-restaurant-san-francisco?adjust_creative=Klanz-jboxl2XzqrjP6LLw&utm_campaign=yelp_api_v3&utm_medium=api_v3_business_search&utm_source=Klanz-jboxl2XzqrjP6LLw", "review_count": 1232, "categories": [{"alias": "korean", "title": "Korean"}, {"alias": "bbq", "title": "Barbeque"}, {"alias": "seafood", "title": "Seafood"}], "rating": 4.0, "coordinates": {"latitude": 37.78135, "longitude": -122.46377}, "transactions": ["delivery"], "price": "$$", "location": {"address1": "4128 Geary Blvd", "address2": "", "address3": "", "city": "San Francisco", "zip_code": "94118", "country": "US", "state": "CA", "display_address": ["4128 Geary Blvd", "San Francisco, CA 94118"]}, "phone": "+14153877991", "display_phone": "(415) 387-7991", "distance": 3303.6073844077832}, {"id": "bs0ag_1c6R5WK-lkVOw_CQ", "alias": "shaking-crab-daly-city", "name": "Shaking Crab", "image_url": "https://s3-media4.fl.yelpcdn.com/bphoto/06gN_5z_Q9mxp2ZY3XtKSA/o.jpg", "is_closed": false, "url": "https://www.yelp.com/biz/shaking-crab-daly-city?adjust_creative=Klanz-jboxl2XzqrjP6LLw&utm_campaign=yelp_api_v3&utm_medium=api_v3_business_search&utm_source=Klanz-jboxl2XzqrjP6LLw", "review_count": 600, "categories": [{"alias": "cajun", "title": "Cajun/Creole"}, {"alias": "seafood", "title": "Seafood"}], "rating": 3.0, "coordinates": {"latitude": 37.6981206, "longitude": -122.4809521}, "transactions": ["delivery", "pickup"], "price": "$$", "location": {"address1": "25 Southgate Ave", "address2": "", "address3": "", "city": "Daly City", "zip_code": "94015", "country": "US", "state": "CA", "display_address": ["25 Southgate Ave", "Daly City, CA 94015"]}, "phone": "+16509974560", "display_phone": "(650) 997-4560", "distance": 8014.3030483508}, {"id": "CNlCi4xU4FsVp0METnrT5g", "alias": "chef-hungs-san-francisco", "name": "Chef Hung's", "image_url": "https://s3-media2.fl.yelpcdn.com/bphoto/LVUSAvQsWSwHazmhvjl0jw/o.jpg", "is_closed": false, "url": "https://www.yelp.com/biz/chef-hungs-san-francisco?adjust_creative=Klanz-jboxl2XzqrjP6LLw&utm_campaign=yelp_api_v3&utm_medium=api_v3_business_search&utm_source=Klanz-jboxl2XzqrjP6LLw", "review_count": 158, "categories": [{"alias": "chinese", "title": "Chinese"}], "rating": 3.5, "coordinates": {"latitude": 37.79405, "longitude": -122.40665}, "transactions": ["delivery"], "price": "$", "location": {"address1": "823 Clay St", "address2": "", "address3": "", "city": "San Francisco", "zip_code": "94108", "country": "US", "state": "CA", "display_address": ["823 Clay St", "San Francisco, CA 94108"]}, "phone": "+14153986883", "display_phone": "(415) 398-6883", "distance": 4526.095050729072}, {"id": "mMhkpTh7RkxKgDrnWPSgcA", "alias": "happy-chinese-restaurant-san-francisco", "name": "Happy Chinese Restaurant", "image_url": "https://s3-media3.fl.yelpcdn.com/bphoto/xf_06F6P3VQ_iLgHv-jt5A/o.jpg", "is_closed": false, "url": "https://www.yelp.com/biz/happy-chinese-restaurant-san-francisco?adjust_creative=Klanz-jboxl2XzqrjP6LLw&utm_campaign=yelp_api_v3&utm_medium=api_v3_business_search&utm_source=Klanz-jboxl2XzqrjP6LLw", "review_count": 38, "categories": [{"alias": "dimsum", "title": "Dim Sum"}], "rating": 3.0, "coordinates": {"latitude": 37.79688, "longitude": -122.40987}, "transactions": [], "price": "$", "location": {"address1": "1326 Powell St", "address2": "", "address3": "", "city": "San Francisco", "zip_code": "94133", "country": "US", "state": "CA", "display_address": ["1326 Powell St", "San Francisco, CA 94133"]}, "phone": "+14153981268", "display_phone": "(415) 398-1268", "distance": 4634.426636420709}, {"id": "BIAvMuRWS_WWmTjK_qBh2g", "alias": "phnom-penh-house-alameda-2", "name": "Phnom Penh House", "image_url": "https://s3-media1.fl.yelpcdn.com/bphoto/mVzGECMj9IwZa_oLcEFkrA/o.jpg", "is_closed": false, "url": "https://www.yelp.com/biz/phnom-penh-house-alameda-2?adjust_creative=Klanz-jboxl2XzqrjP6LLw&utm_campaign=yelp_api_v3&utm_medium=api_v3_business_search&utm_source=Klanz-jboxl2XzqrjP6LLw", "review_count": 1014, "categories": [{"alias": "cambodian", "title": "Cambodian"}, {"alias": "seafood", "title": "Seafood"}], "rating": 4.5, "coordinates": {"latitude": 37.77385, "longitude": -122.27646}, "transactions": ["delivery"], "price": "$$", "location": {"address1": "1514 Webster St", "address2": "", "address3": "", "city": "Alameda", "zip_code": "94501", "country": "US", "state": "CA", "display_address": ["1514 Webster St", "Alameda, CA 94501"]}, "phone": "+15108933825", "display_phone": "(510) 893-3825", "distance": 14130.12372713422}, {"id": "UrlIkoy5MySVMKY30bid1w", "alias": "dim-sum-corner-san-francisco-2", "name": "Dim Sum Corner", "image_url": "https://s3-media2.fl.yelpcdn.com/bphoto/4s1ur83Y06Pc16lUcIUHLw/o.jpg", "is_closed": false, "url": "https://www.yelp.com/biz/dim-sum-corner-san-francisco-2?adjust_creative=Klanz-jboxl2XzqrjP6LLw&utm_campaign=yelp_api_v3&utm_medium=api_v3_business_search&utm_source=Klanz-jboxl2XzqrjP6LLw", "review_count": 171, "categories": [{"alias": "dimsum", "title": "Dim Sum"}, {"alias": "bubbletea", "title": "Bubble Tea"}], "rating": 3.5, "coordinates": {"latitude": 37.79277, "longitude": -122.40622}, "transactions": ["delivery", "pickup"], "price": "$$", "location": {"address1": "601 Grant Ave", "address2": null, "address3": "", "city": "San Francisco", "zip_code": "94108", "country": "US", "state": "CA", "display_address": ["601 Grant Ave", "San Francisco, CA 94108"]}, "phone": "+14153621118", "display_phone": "(415) 362-1118", "distance": 4419.727732859244}, {"id": "gYKKd953x0pCf5bmSdQCCQ", "alias": "hd-rice-noodle-san-francisco", "name": "HD Rice Noodle", "image_url": "https://s3-media2.fl.yelpcdn.com/bphoto/mjH4A2rVIt880LEmJPup6w/o.jpg", "is_closed": false, "url": "https://www.yelp.com/biz/hd-rice-noodle-san-francisco?adjust_creative=Klanz-jboxl2XzqrjP6LLw&utm_campaign=yelp_api_v3&utm_medium=api_v3_business_search&utm_source=Klanz-jboxl2XzqrjP6LLw", "review_count": 94, "categories": [{"alias": "noodles", "title": "Noodles"}, {"alias": "chinese", "title": "Chinese"}, {"alias": "soup", "title": "Soup"}], "rating": 3.5, "coordinates": {"latitude": 37.754, "longitude": -122.4784023}, "transactions": ["delivery"], "price": "$", "location": {"address1": "1395 Noriega St", "address2": "", "address3": null, "city": "San Francisco", "zip_code": "94122", "country": "US", "state": "CA", "display_address": ["1395 Noriega St", "San Francisco, CA 94122"]}, "phone": "+14156641318", "display_phone": "(415) 664-1318", "distance": 3772.954765317598}, {"id": "r7hzfE40LUC5xRVpzcLjmA", "alias": "golden-chariot-bakery-and-restaurant-san-francisco", "name": "Golden Chariot Bakery & Restaurant", "image_url": "https://s3-media2.fl.yelpcdn.com/bphoto/tRMxTPAL8AzZvkq6tBlQnA/o.jpg", "is_closed": false, "url": "https://www.yelp.com/biz/golden-chariot-bakery-and-restaurant-san-francisco?adjust_creative=Klanz-jboxl2XzqrjP6LLw&utm_campaign=yelp_api_v3&utm_medium=api_v3_business_search&utm_source=Klanz-jboxl2XzqrjP6LLw", "review_count": 98, "categories": [{"alias": "chinese", "title": "Chinese"}, {"alias": "bakeries", "title": "Bakeries"}], "rating": 4.0, "coordinates": {"latitude": 37.7760963439941, "longitude": -122.494400024414}, "transactions": ["delivery"], "price": "$", "location": {"address1": "3308 Balboa St", "address2": "", "address3": "", "city": "San Francisco", "zip_code": "94121", "country": "US", "state": "CA", "display_address": ["3308 Balboa St", "San Francisco, CA 94121"]}, "phone": "+14157513318", "display_phone": "(415) 751-3318", "distance": 5367.728129650106}, {"id": "_1d43w8ys3nefqjhTtUYVQ", "alias": "mazra-san-bruno", "name": "Mazra", "image_url": "https://s3-media1.fl.yelpcdn.com/bphoto/3f-_IjEQpNba4u5hfNfeqg/o.jpg", "is_closed": false, "url": "https://www.yelp.com/biz/mazra-san-bruno?adjust_creative=Klanz-jboxl2XzqrjP6LLw&utm_campaign=yelp_api_v3&utm_medium=api_v3_business_search&utm_source=Klanz-jboxl2XzqrjP6LLw", "review_count": 994, "categories": [{"alias": "mideastern", "title": "Middle Eastern"}, {"alias": "mediterranean", "title": "Mediterranean"}, {"alias": "bbq", "title": "Barbeque"}], "rating": 5.0, "coordinates": {"latitude": 37.62957, "longitude": -122.41554}, "transactions": ["delivery", "pickup"], "price": "$$", "location": {"address1": "504 San Bruno Ave W", "address2": "", "address3": null, "city": "San Bruno", "zip_code": "94066", "country": "US", "state": "CA", "display_address": ["504 San Bruno Ave W", "San Bruno, CA 94066"]}, "phone": "+16502259027", "display_phone": "(650) 225-9027", "distance": 14718.4198670129}, {"id": "9jciOppXj7bEOtLyL3I2HQ", "alias": "benihana-san-francisco", "name": "Benihana", "image_url": "https://s3-media1.fl.yelpcdn.com/bphoto/qYsVF4j4l4ZA1sPqbES0mA/o.jpg", "is_closed": false, "url": "https://www.yelp.com/biz/benihana-san-francisco?adjust_creative=Klanz-jboxl2XzqrjP6LLw&utm_campaign=yelp_api_v3&utm_medium=api_v3_business_search&utm_source=Klanz-jboxl2XzqrjP6LLw", "review_count": 1446, "categories": [{"alias": "teppanyaki", "title": "Teppanyaki"}, {"alias": "sushi", "title": "Sushi Bars"}, {"alias": "seafood", "title": "Seafood"}], "rating": 2.5, "coordinates": {"latitude": 37.7852528273806, "longitude": -122.430688365711}, "transactions": ["delivery", "pickup"], "price": "$$$", "location": {"address1": "1737 Post St", "address2": "", "address3": "", "city": "San Francisco", "zip_code": "94115", "country": "US", "state": "CA", "display_address": ["1737 Post St", "San Francisco, CA 94115"]}, "phone": "+14155634844", "display_phone": "(415) 563-4844", "distance": 2754.873396384999}, {"id": "PZCyRDzgDnWazgpyfKRIpQ", "alias": "stick-and-steam-millbrae-4", "name": "Stick & Steam", "image_url": "https://s3-media4.fl.yelpcdn.com/bphoto/CyEi6d4U1oE6W085fYmF-Q/o.jpg", "is_closed": false, "url": "https://www.yelp.com/biz/stick-and-steam-millbrae-4?adjust_creative=Klanz-jboxl2XzqrjP6LLw&utm_campaign=yelp_api_v3&utm_medium=api_v3_business_search&utm_source=Klanz-jboxl2XzqrjP6LLw", "review_count": 354, "categories": [{"alias": "chinese", "title": "Chinese"}, {"alias": "tapasmallplates", "title": "Tapas/Small Plates"}, {"alias": "noodles", "title": "Noodles"}], "rating": 4.0, "coordinates": {"latitude": 37.60033, "longitude": -122.38266}, "transactions": ["delivery", "restaurant_reservation", "pickup"], "price": "$$", "location": {"address1": "350 Adrian Rd", "address2": null, "address3": "", "city": "Millbrae", "zip_code": "94030", "country": "US", "state": "CA", "display_address": ["350 Adrian Rd", "Millbrae, CA 94030"]}, "phone": "+16502399240", "display_phone": "(650) 239-9240", "distance": 18491.14078600984}, {"id": "uauHhqLPVP0ug-_qCzzT9Q", "alias": "vanida-thai-kitchen-san-francisco-4", "name": "Vanida Thai Kitchen", "image_url": "https://s3-media3.fl.yelpcdn.com/bphoto/Y02GhLIXr4drhASbcSjDmQ/o.jpg", "is_closed": false, "url": "https://www.yelp.com/biz/vanida-thai-kitchen-san-francisco-4?adjust_creative=Klanz-jboxl2XzqrjP6LLw&utm_campaign=yelp_api_v3&utm_medium=api_v3_business_search&utm_source=Klanz-jboxl2XzqrjP6LLw", "review_count": 493, "categories": [{"alias": "thai", "title": "Thai"}, {"alias": "noodles", "title": "Noodles"}, {"alias": "comfortfood", "title": "Comfort Food"}], "rating": 3.5, "coordinates": {"latitude": 37.74227, "longitude": -122.49902}, "transactions": ["delivery", "pickup"], "price": "$$", "location": {"address1": "3050 Taraval St", "address2": "", "address3": "", "city": "San Francisco", "zip_code": "94116", "country": "US", "state": "CA", "display_address": ["3050 Taraval St", "San Francisco, CA 94116"]}, "phone": "+14155646766", "display_phone": "(415) 564-6766", "distance": 5878.928373648881}, {"id": "JHw51TRZcp9cnly3imBRDQ", "alias": "himalayan-pizza-and-momo-san-francisco", "name": "Himalayan Pizza and Momo", "image_url": "https://s3-media3.fl.yelpcdn.com/bphoto/L5-uYhMn6DtFHZePWbqr2A/o.jpg", "is_closed": false, "url": "https://www.yelp.com/biz/himalayan-pizza-and-momo-san-francisco?adjust_creative=Klanz-jboxl2XzqrjP6LLw&utm_campaign=yelp_api_v3&utm_medium=api_v3_business_search&utm_source=Klanz-jboxl2XzqrjP6LLw", "review_count": 162, "categories": [{"alias": "pizza", "title": "Pizza"}, {"alias": "himalayan", "title": "Himalayan/Nepalese"}, {"alias": "indpak", "title": "Indian"}], "rating": 4.5, "coordinates": {"latitude": 37.7818311760517, "longitude": -122.415368333459}, "transactions": ["delivery", "pickup"], "price": "$$", "location": {"address1": "288 Golden Gate Ave", "address2": "", "address3": null, "city": "San Francisco", "zip_code": "94102", "country": "US", "state": "CA", "display_address": ["288 Golden Gate Ave", "San Francisco, CA 94102"]}, "phone": "+14156587696", "display_phone": "(415) 658-7696", "distance": 2974.874176876508}, {"id": "x9qz9nRR_OGXhuCDglkkfg", "alias": "super-pan-san-francisco-2", "name": "Super Pan", "image_url": "https://s3-media2.fl.yelpcdn.com/bphoto/ruKLzUzYRLvWfIZimi79lA/o.jpg", "is_closed": false, "url": "https://www.yelp.com/biz/super-pan-san-francisco-2?adjust_creative=Klanz-jboxl2XzqrjP6LLw&utm_campaign=yelp_api_v3&utm_medium=api_v3_business_search&utm_source=Klanz-jboxl2XzqrjP6LLw", "review_count": 392, "categories": [{"alias": "teppanyaki", "title": "Teppanyaki"}, {"alias": "ramen", "title": "Ramen"}, {"alias": "hotpot", "title": "Hot Pot"}], "rating": 4.0, "coordinates": {"latitude": 37.7806449, "longitude": -122.4769401}, "transactions": ["delivery", "pickup"], "price": "$$", "location": {"address1": "5344 Geary Blvd", "address2": null, "address3": "", "city": "San Francisco", "zip_code": "94121", "country": "US", "state": "CA", "display_address": ["5344 Geary Blvd", "San Francisco, CA 94121"]}, "phone": "+14156685344", "display_phone": "(415) 668-5344", "distance": 4181.901587153006}, {"id": "3DNoAVehylJgUACvgXugJA", "alias": "rasa-rasa-san-francisco", "name": "Rasa Rasa", "image_url": "https://s3-media3.fl.yelpcdn.com/bphoto/8MVbDg2d7TQjzksH5enGbg/o.jpg", "is_closed": false, "url": "https://www.yelp.com/biz/rasa-rasa-san-francisco?adjust_creative=Klanz-jboxl2XzqrjP6LLw&utm_campaign=yelp_api_v3&utm_medium=api_v3_business_search&utm_source=Klanz-jboxl2XzqrjP6LLw", "review_count": 88, "categories": [{"alias": "foodtrucks", "title": "Food Trucks"}, {"alias": "indonesian", "title": "Indonesian"}, {"alias": "asianfusion", "title": "Asian Fusion"}], "rating": 4.5, "coordinates": {"latitude": 37.7712452, "longitude": -122.3911102}, "transactions": ["delivery", "pickup"], "price": "$$", "location": {"address1": "1379 4th St", "address2": null, "address3": "", "city": "San Francisco", "zip_code": "94158", "country": "US", "state": "CA", "display_address": ["1379 4th St", "San Francisco, CA 94158"]}, "phone": "+14157696389", "display_phone": "(415) 769-6389", "distance": 4205.90680153169}, {"id": "EywuPThEPY-BqhSV9UsvRg", "alias": "cracked-and-battered-marina-san-francisco", "name": "Cracked & Battered - Marina", "image_url": "https://s3-media1.fl.yelpcdn.com/bphoto/WKp7HdJWnkU8JJgjv8N_Tg/o.jpg", "is_closed": false, "url": "https://www.yelp.com/biz/cracked-and-battered-marina-san-francisco?adjust_creative=Klanz-jboxl2XzqrjP6LLw&utm_campaign=yelp_api_v3&utm_medium=api_v3_business_search&utm_source=Klanz-jboxl2XzqrjP6LLw", "review_count": 309, "categories": [{"alias": "breakfast_brunch", "title": "Breakfast & Brunch"}, {"alias": "newamerican", "title": "American (New)"}, {"alias": "halal", "title": "Halal"}], "rating": 4.5, "coordinates": {"latitude": 37.80048, "longitude": -122.44014}, "transactions": [], "price": "$$", "location": {"address1": "2240 Chestnut St", "address2": "", "address3": null, "city": "San Francisco", "zip_code": "94123", "country": "US", "state": "CA", "display_address": ["2240 Chestnut St", "San Francisco, CA 94123"]}, "phone": "+14156386022", "display_phone": "(415) 638-6022", "distance": 4411.9278545411535}, {"id": "MrKIrmKat264FKCCbvlW3w", "alias": "tasty-express-berkeley", "name": "Tasty Express", "image_url": "https://s3-media2.fl.yelpcdn.com/bphoto/D5NG4Z1lpS_Mq8DlCmrTNw/o.jpg", "is_closed": false, "url": "https://www.yelp.com/biz/tasty-express-berkeley?adjust_creative=Klanz-jboxl2XzqrjP6LLw&utm_campaign=yelp_api_v3&utm_medium=api_v3_business_search&utm_source=Klanz-jboxl2XzqrjP6LLw", "review_count": 11, "categories": [{"alias": "chinese", "title": "Chinese"}], "rating": 4.0, "coordinates": {"latitude": 37.8706571, "longitude": -122.26847536617909}, "transactions": ["delivery", "pickup"], "location": {"address1": "2116 Shattuck Ave", "address2": null, "address3": null, "city": "Berkeley", "zip_code": "94704", "country": "US", "state": "CA", "display_address": ["2116 Shattuck Ave", "Berkeley, CA 94704"]}, "phone": "+15106478098", "display_phone": "(510) 647-8098", "distance": 19148.37811018194}, {"id": "3MRyd2-Zx9smDLXWPAL3kw", "alias": "sushi-hon-san-francisco", "name": "Sushi Hon", "image_url": "https://s3-media1.fl.yelpcdn.com/bphoto/2eeUk9qkznmwUuw02DT-rA/o.jpg", "is_closed": false, "url": "https://www.yelp.com/biz/sushi-hon-san-francisco?adjust_creative=Klanz-jboxl2XzqrjP6LLw&utm_campaign=yelp_api_v3&utm_medium=api_v3_business_search&utm_source=Klanz-jboxl2XzqrjP6LLw", "review_count": 438, "categories": [{"alias": "japanese", "title": "Japanese"}, {"alias": "sushi", "title": "Sushi Bars"}], "rating": 4.5, "coordinates": {"latitude": 37.7559672710911, "longitude": -122.41243198514}, "transactions": ["restaurant_reservation"], "price": "$$$$", "location": {"address1": "2598 Harrison St", "address2": "", "address3": "", "city": "San Francisco", "zip_code": "94110", "country": "US", "state": "CA", "display_address": ["2598 Harrison St", "San Francisco, CA 94110"]}, "phone": "+14155254527", "display_phone": "(415) 525-4527", "distance": 2181.255715616739}, {"id": "ERGUhaY9PQWq8EXAid4QdA", "alias": "noodles-fresh-el-cerrito", "name": "Noodles Fresh", "image_url": "https://s3-media2.fl.yelpcdn.com/bphoto/htwS8tZ_6PuxMx5r_B5gwA/o.jpg", "is_closed": false, "url": "https://www.yelp.com/biz/noodles-fresh-el-cerrito?adjust_creative=Klanz-jboxl2XzqrjP6LLw&utm_campaign=yelp_api_v3&utm_medium=api_v3_business_search&utm_source=Klanz-jboxl2XzqrjP6LLw", "review_count": 527, "categories": [{"alias": "tea", "title": "Tea Rooms"}, {"alias": "chinese", "title": "Chinese"}, {"alias": "noodles", "title": "Noodles"}], "rating": 4.0, "coordinates": {"latitude": 37.901541, "longitude": -122.302555}, "transactions": ["delivery"], "price": "$$", "location": {"address1": "10042 San Pablo Ave", "address2": null, "address3": "", "city": "El Cerrito", "zip_code": "94530", "country": "US", "state": "CA", "display_address": ["10042 San Pablo Ave", "El Cerrito, CA 94530"]}, "phone": "+15108981710", "display_phone": "(510) 898-1710", "distance": 19566.2668170914}], "total": 1800, "region": {"center": {"longitude": -122.43644714355469, "latitude": 37.76089938976322}}}