{"businesses": [{"id": "-ll5zMoJ-WXrUPWHwATZmA", "alias": "avatars-restaurant-sausalito", "name": "Avatar's Restaurant", "image_url": "https://s3-media1.fl.yelpcdn.com/bphoto/M7UCbkoRvOfW9_RSh7QkpA/o.jpg", "is_closed": false, "url": "https://www.yelp.com/biz/avatars-restaurant-sausalito?adjust_creative=Klanz-jboxl2XzqrjP6LLw&utm_campaign=yelp_api_v3&utm_medium=api_v3_business_search&utm_source=Klanz-jboxl2XzqrjP6LLw", "review_count": 1657, "categories": [{"alias": "indpak", "title": "Indian"}, {"alias": "asianfusion", "title": "Asian Fusion"}, {"alias": "mexican", "title": "Mexican"}], "rating": 4.5, "coordinates": {"latitude": 37.8686903295039, "longitude": -122.501987684253}, "transactions": ["delivery"], "price": "$$", "location": {"address1": "2656 Bridgeway Blvd", "address2": "", "address3": "", "city": "Sausalito", "zip_code": "94965", "country": "US", "state": "CA", "display_address": ["2656 Bridgeway Blvd", "Sausalito, CA 94965"]}, "phone": "+14153328083", "display_phone": "(415) 332-8083", "distance": 13296.835566011254}, {"id": "48i36N8eWgnpsvJzJ1QKwA", "alias": "fish-restaurant-sausalito-2", "name": "Fish Restaurant", "image_url": "https://s3-media3.fl.yelpcdn.com/bphoto/sbgNNFvwyOKfP2Zqg4XGTg/o.jpg", "is_closed": false, "url": "https://www.yelp.com/biz/fish-restaurant-sausalito-2?adjust_creative=Klanz-jboxl2XzqrjP6LLw&utm_campaign=yelp_api_v3&utm_medium=api_v3_business_search&utm_source=Klanz-jboxl2XzqrjP6LLw", "review_count": 2620, "categories": [{"alias": "seafood", "title": "Seafood"}], "rating": 4.0, "coordinates": {"latitude": 37.8682093231997, "longitude": -122.49782684190235}, "transactions": ["delivery", "pickup"], "price": "$$", "location": {"address1": "350 Harbor Dr", "address2": null, "address3": "", "city": "Sausalito", "zip_code": "94965", "country": "US", "state": "CA", "display_address": ["350 Harbor Dr", "Sausalito, CA 94965"]}, "phone": "+14153313474", "display_phone": "(415) 331-3474", "distance": 13093.957456371947}, {"id": "9PWo-h-TiQYaIZ5w0MqhLg", "alias": "elizas-san-francisco", "name": "Eliza's", "image_url": "https://s3-media1.fl.yelpcdn.com/bphoto/Hjoyt-IF6F0-pXMXIqKXSw/o.jpg", "is_closed": false, "url": "https://www.yelp.com/biz/elizas-san-francisco?adjust_creative=Klanz-jboxl2XzqrjP6LLw&utm_campaign=yelp_api_v3&utm_medium=api_v3_business_search&utm_source=Klanz-jboxl2XzqrjP6LLw", "review_count": 579, "categories": [{"alias": "chinese", "title": "Chinese"}, {"alias": "soup", "title": "Soup"}, {"alias": "noodles", "title": "Noodles"}], "rating": 3.5, "coordinates": {"latitude": 37.7876472473145, "longitude": -122.441612243652}, "transactions": ["delivery"], "price": "$$", "location": {"address1": "2877 California St", "address2": "", "address3": "", "city": "San Francisco", "zip_code": "94115", "country": "US", "state": "CA", "display_address": ["2877 California St", "San Francisco, CA 94115"]}, "phone": "+14156214819", "display_phone": "(415) 621-4819", "distance": 3012.915593358493}, {"id": "K24TuqugeeJVkaFkS166BA", "alias": "yuanbao-jiaozi-san-francisco-2", "name": "Yuanbao Jiaozi", "image_url": "https://s3-media3.fl.yelpcdn.com/bphoto/sebyeRQVJ-z5o_Z_tEfxcg/o.jpg", "is_closed": false, "url": "https://www.yelp.com/biz/yuanbao-jiaozi-san-francisco-2?adjust_creative=Klanz-jboxl2XzqrjP6LLw&utm_campaign=yelp_api_v3&utm_medium=api_v3_business_search&utm_source=Klanz-jboxl2XzqrjP6LLw", "review_count": 418, "categories": [{"alias": "chinese", "title": "Chinese"}, {"alias": "noodles", "title": "Noodles"}], "rating": 4.5, "coordinates": {"latitude": 37.76356, "longitude": -122.48067}, "transactions": ["delivery"], "price": "$$", "location": {"address1": "2110 Irving St", "address2": "", "address3": null, "city": "San Francisco", "zip_code": "94122", "country": "US", "state": "CA", "display_address": ["2110 Irving St", "San Francisco, CA 94122"]}, "phone": "+14157026506", "display_phone": "(415) 702-6506", "distance": 3905.0909265492787}, {"id": "p1oiqn-SkMrQG0lT3V6jIA", "alias": "t\u00edn-vietnamese-cuisine-san-francisco-3", "name": "T\u00edn Vietnamese Cuisine", "image_url": "https://s3-media2.fl.yelpcdn.com/bphoto/ogyi9kPoyD_MyI2RKlNo4Q/o.jpg", "is_closed": false, "url": "https://www.yelp.com/biz/t%C3%ADn-vietnamese-cuisine-san-francisco-3?adjust_creative=Klanz-jboxl2XzqrjP6LLw&utm_campaign=yelp_api_v3&utm_medium=api_v3_business_search&utm_source=Klanz-jboxl2XzqrjP6LLw", "review_count": 1337, "categories": [{"alias": "vietnamese", "title": "Vietnamese"}, {"alias": "noodles", "title": "Noodles"}, {"alias": "soup", "title": "Soup"}], "rating": 4.0, "coordinates": {"latitude": 37.780772, "longitude": -122.40568}, "transactions": ["pickup"], "price": "$$", "location": {"address1": "937 Howard St", "address2": null, "address3": "", "city": "San Francisco", "zip_code": "94103", "country": "US", "state": "CA", "display_address": ["937 Howard St", "San Francisco, CA 94103"]}, "phone": "+14158827188", "display_phone": "(415) 882-7188", "distance": 3492.300891841254}, {"id": "PJ554bOuyR_TXZV1Iu3-fg", "alias": "lazy-susan-san-francisco-2", "name": "Lazy Susan", "image_url": "https://s3-media2.fl.yelpcdn.com/bphoto/rbDb8GF6_BvTMEMmqaQg8g/o.jpg", "is_closed": false, "url": "https://www.yelp.com/biz/lazy-susan-san-francisco-2?adjust_creative=Klanz-jboxl2XzqrjP6LLw&utm_campaign=yelp_api_v3&utm_medium=api_v3_business_search&utm_source=Klanz-jboxl2XzqrjP6LLw", "review_count": 110, "categories": [{"alias": "chinese", "title": "Chinese"}], "rating": 4.0, "coordinates": {"latitude": 37.740582627223404, "longitude": -122.4654549}, "transactions": ["delivery", "pickup"], "location": {"address1": "811 Ulloa St", "address2": null, "address3": "", "city": "San Francisco", "zip_code": "94127", "country": "US", "state": "CA", "display_address": ["811 Ulloa St", "San Francisco, CA 94127"]}, "phone": "+14158587858", "display_phone": "(415) 858-7858", "distance": 3407.039204208976}, {"id": "w_rALTQlGnzjezkEprIKOQ", "alias": "mings-restaurant-belvedere-tiburon", "name": "Ming's Restaurant", "image_url": "https://s3-media3.fl.yelpcdn.com/bphoto/0iD3zUXEZbSft5x-h2CHzQ/o.jpg", "is_closed": false, "url": "https://www.yelp.com/biz/mings-restaurant-belvedere-tiburon?adjust_creative=Klanz-jboxl2XzqrjP6LLw&utm_campaign=yelp_api_v3&utm_medium=api_v3_business_search&utm_source=Klanz-jboxl2XzqrjP6LLw", "review_count": 134, "categories": [{"alias": "chinese", "title": "Chinese"}], "rating": 4.0, "coordinates": {"latitude": 37.87527, "longitude": -122.45995}, "transactions": ["delivery", "pickup"], "price": "$$", "location": {"address1": "1550 Tiburon Blvd", "address2": "Ste J", "address3": "", "city": "Belvedere Tiburon", "zip_code": "94920", "country": "US", "state": "CA", "display_address": ["1550 Tiburon Blvd", "Ste J", "Belvedere Tiburon, CA 94920"]}, "phone": "+14154354312", "display_phone": "(415) 435-4312", "distance": 12906.32922436276}, {"id": "OS-inNsv-GFH_qrk1_rfDg", "alias": "h-and-l-cafe-san-francisco", "name": "H & L Cafe", "image_url": "https://s3-media2.fl.yelpcdn.com/bphoto/CsRQ6dPw-dkSgbjQVDnuyA/o.jpg", "is_closed": false, "url": "https://www.yelp.com/biz/h-and-l-cafe-san-francisco?adjust_creative=Klanz-jboxl2XzqrjP6LLw&utm_campaign=yelp_api_v3&utm_medium=api_v3_business_search&utm_source=Klanz-jboxl2XzqrjP6LLw", "review_count": 170, "categories": [{"alias": "chinese", "title": "Chinese"}, {"alias": "hkcafe", "title": "Hong Kong Style Cafe"}], "rating": 2.5, "coordinates": {"latitude": 37.7294273376465, "longitude": -122.404678344727}, "transactions": ["delivery"], "price": "$$", "location": {"address1": "2546 San Bruno Ave", "address2": null, "address3": "", "city": "San Francisco", "zip_code": "94134", "country": "US", "state": "CA", "display_address": ["2546 San Bruno Ave", "San Francisco, CA 94134"]}, "phone": "+14154688008", "display_phone": "(415) 468-8008", "distance": 4479.823998554628}, {"id": "Q7_LfqaY3TrDaSIr7lk1TQ", "alias": "city-view-restaurant-san-francisco", "name": "City View Restaurant", "image_url": "https://s3-media1.fl.yelpcdn.com/bphoto/bRDHykMDsWUq-38TSgwKpg/o.jpg", "is_closed": false, "url": "https://www.yelp.com/biz/city-view-restaurant-san-francisco?adjust_creative=Klanz-jboxl2XzqrjP6LLw&utm_campaign=yelp_api_v3&utm_medium=api_v3_business_search&utm_source=Klanz-jboxl2XzqrjP6LLw", "review_count": 1399, "categories": [{"alias": "dimsum", "title": "Dim Sum"}, {"alias": "cantonese", "title": "Cantonese"}], "rating": 4.0, "coordinates": {"latitude": 37.7943, "longitude": -122.40409}, "transactions": ["delivery", "pickup"], "price": "$$", "location": {"address1": "662 Commercial St", "address2": "", "address3": "", "city": "San Francisco", "zip_code": "94111", "country": "US", "state": "CA", "display_address": ["662 Commercial St", "San Francisco, CA 94111"]}, "phone": "+14153982838", "display_phone": "(415) 398-2838", "distance": 4665.4417561859}, {"id": "jqEpBbf_qNfWuz_GBkwCjw", "alias": "scomas-restaurant-san-francisco-3", "name": "Scoma's Restaurant", "image_url": "https://s3-media2.fl.yelpcdn.com/bphoto/YRg4ICRgMgVN89LH4L6Rww/o.jpg", "is_closed": false, "url": "https://www.yelp.com/biz/scomas-restaurant-san-francisco-3?adjust_creative=Klanz-jboxl2XzqrjP6LLw&utm_campaign=yelp_api_v3&utm_medium=api_v3_business_search&utm_source=Klanz-jboxl2XzqrjP6LLw", "review_count": 4045, "categories": [{"alias": "seafood", "title": "Seafood"}, {"alias": "bars", "title": "Bars"}], "rating": 4.0, "coordinates": {"latitude": 37.808952, "longitude": -122.418487}, "transactions": ["delivery", "pickup"], "price": "$$$", "location": {"address1": "1965 Al Scoma Way", "address2": "", "address3": "", "city": "San Francisco", "zip_code": "94133", "country": "US", "state": "CA", "display_address": ["1965 Al Scoma Way", "San Francisco, CA 94133"]}, "phone": "+14157714383", "display_phone": "(415) 771-4383", "distance": 5570.65144598489}, {"id": "Qv-yh5vmrN7mss3BNsqhQg", "alias": "onigilly-san-francisco-13", "name": "Onigilly", "image_url": "https://s3-media2.fl.yelpcdn.com/bphoto/56ViGKt1zeVo0IaFNMTqbg/o.jpg", "is_closed": false, "url": "https://www.yelp.com/biz/onigilly-san-francisco-13?adjust_creative=Klanz-jboxl2XzqrjP6LLw&utm_campaign=yelp_api_v3&utm_medium=api_v3_business_search&utm_source=Klanz-jboxl2XzqrjP6LLw", "review_count": 551, "categories": [{"alias": "japanese", "title": "Japanese"}, {"alias": "hotdogs", "title": "Fast Food"}], "rating": 4.0, "coordinates": {"latitude": 37.7914033, "longitude": -122.404308}, "transactions": ["delivery", "pickup"], "price": "$$", "location": {"address1": "343 Kearny St", "address2": "", "address3": "", "city": "San Francisco", "zip_code": "94108", "country": "US", "state": "CA", "display_address": ["343 Kearny St", "San Francisco, CA 94108"]}, "phone": "+14156714706", "display_phone": "(415) 671-4706", "distance": 4414.036088832099}, {"id": "G_xqbZft6yy-lQ4dZ23xYw", "alias": "sichuan-style-restaurant-berkeley", "name": "Sichuan Style Restaurant", "image_url": "https://s3-media2.fl.yelpcdn.com/bphoto/Okz_LYBsMM7iUeDxymvl6A/o.jpg", "is_closed": false, "url": "https://www.yelp.com/biz/sichuan-style-restaurant-berkeley?adjust_creative=Klanz-jboxl2XzqrjP6LLw&utm_campaign=yelp_api_v3&utm_medium=api_v3_business_search&utm_source=Klanz-jboxl2XzqrjP6LLw", "review_count": 352, "categories": [{"alias": "szechuan", "title": "Szechuan"}], "rating": 4.0, "coordinates": {"latitude": 37.89146, "longitude": -122.28256}, "transactions": ["delivery", "pickup"], "price": "$$", "location": {"address1": "1699 Solano Ave", "address2": null, "address3": "", "city": "Berkeley", "zip_code": "94707", "country": "US", "state": "CA", "display_address": ["1699 Solano Ave", "Berkeley, CA 94707"]}, "phone": "+15105259890", "display_phone": "(510) 525-9890", "distance": 19831.524796575897}, {"id": "MKGPb57KYoj11x0t7r5HGw", "alias": "clement-bbq-san-francisco-2", "name": "Clement BBQ", "image_url": "https://s3-media2.fl.yelpcdn.com/bphoto/UnOpuqQzOe8AkLNJoi-cOw/o.jpg", "is_closed": false, "url": "https://www.yelp.com/biz/clement-bbq-san-francisco-2?adjust_creative=Klanz-jboxl2XzqrjP6LLw&utm_campaign=yelp_api_v3&utm_medium=api_v3_business_search&utm_source=Klanz-jboxl2XzqrjP6LLw", "review_count": 287, "categories": [{"alias": "dimsum", "title": "Dim Sum"}, {"alias": "bbq", "title": "Barbeque"}], "rating": 4.0, "coordinates": {"latitude": 37.7826652526855, "longitude": -122.465911865234}, "transactions": ["delivery"], "price": "$", "location": {"address1": "617 Clement St", "address2": "", "address3": "", "city": "San Francisco", "zip_code": "94118", "country": "US", "state": "CA", "display_address": ["617 Clement St", "San Francisco, CA 94118"]}, "phone": "+14157529520", "display_phone": "(415) 752-9520", "distance": 3542.6684802690643}, {"id": "oi-jTQzuKRG_7q3u70LHDg", "alias": "moshi-moshi-san-francisco", "name": "Moshi Moshi", "image_url": "https://s3-media2.fl.yelpcdn.com/bphoto/-KmwCanMVfC2ubxKHlZAjA/o.jpg", "is_closed": false, "url": "https://www.yelp.com/biz/moshi-moshi-san-francisco?adjust_creative=Klanz-jboxl2XzqrjP6LLw&utm_campaign=yelp_api_v3&utm_medium=api_v3_business_search&utm_source=Klanz-jboxl2XzqrjP6LLw", "review_count": 766, "categories": [{"alias": "sushi", "title": "Sushi Bars"}, {"alias": "japanese", "title": "Japanese"}, {"alias": "cocktailbars", "title": "Cocktail Bars"}], "rating": 4.0, "coordinates": {"latitude": 37.76317650208631, "longitude": -122.38898548220352}, "transactions": ["delivery", "pickup"], "price": "$$", "location": {"address1": "2092 3rd St", "address2": "", "address3": "", "city": "San Francisco", "zip_code": "94107", "country": "US", "state": "CA", "display_address": ["2092 3rd St", "San Francisco, CA 94107"]}, "phone": "+14158618285", "display_phone": "(415) 861-8285", "distance": 4179.853617874307}, {"id": "eu3UCrfFkTF73F0idXeJ5Q", "alias": "taiwan-restaurant-san-francisco-3", "name": "Taiwan Restaurant", "image_url": "https://s3-media1.fl.yelpcdn.com/bphoto/9yazJKiDucIsl0vzXDJIsg/o.jpg", "is_closed": false, "url": "https://www.yelp.com/biz/taiwan-restaurant-san-francisco-3?adjust_creative=Klanz-jboxl2XzqrjP6LLw&utm_campaign=yelp_api_v3&utm_medium=api_v3_business_search&utm_source=Klanz-jboxl2XzqrjP6LLw", "review_count": 446, "categories": [{"alias": "taiwanese", "title": "Taiwanese"}, {"alias": "dimsum", "title": "Dim Sum"}], "rating": 3.5, "coordinates": {"latitude": 37.7828686, "longitude": -122.4641453}, "transactions": ["delivery", "pickup"], "price": "$$", "location": {"address1": "445 Clement St", "address2": "", "address3": "", "city": "San Francisco", "zip_code": "94118", "country": "US", "state": "CA", "display_address": ["445 Clement St", "San Francisco, CA 94118"]}, "phone": "+14153871789", "display_phone": "(415) 387-1789", "distance": 3448.833056653187}, {"id": "Id2aVe9l5YQlHtlXnGye-Q", "alias": "wooly-pig-san-francisco-2", "name": "Wooly Pig", "image_url": "https://s3-media2.fl.yelpcdn.com/bphoto/2wivRtCR9UisAy7qebHtBw/o.jpg", "is_closed": false, "url": "https://www.yelp.com/biz/wooly-pig-san-francisco-2?adjust_creative=Klanz-jboxl2XzqrjP6LLw&utm_campaign=yelp_api_v3&utm_medium=api_v3_business_search&utm_source=Klanz-jboxl2XzqrjP6LLw", "review_count": 738, "categories": [{"alias": "sandwiches", "title": "Sandwiches"}, {"alias": "coffee", "title": "Coffee & Tea"}, {"alias": "asianfusion", "title": "Asian Fusion"}], "rating": 4.5, "coordinates": {"latitude": 37.760662161462, "longitude": -122.388421141818}, "transactions": ["delivery", "pickup"], "price": "$$", "location": {"address1": "2295 3rd St", "address2": "", "address3": "", "city": "San Francisco", "zip_code": "94107", "country": "US", "state": "CA", "display_address": ["2295 3rd St", "San Francisco, CA 94107"]}, "phone": "+14155928015", "display_phone": "(415) 592-8015", "distance": 4225.848161076123}, {"id": "pXV02Lj-jWt6rgHRQzJmqA", "alias": "emmys-restaurant-san-francisco", "name": "Emmy's Restaurant", "image_url": "https://s3-media1.fl.yelpcdn.com/bphoto/W3Hw5d-v70Wodlg8sWAtaQ/o.jpg", "is_closed": false, "url": "https://www.yelp.com/biz/emmys-restaurant-san-francisco?adjust_creative=Klanz-jboxl2XzqrjP6LLw&utm_campaign=yelp_api_v3&utm_medium=api_v3_business_search&utm_source=Klanz-jboxl2XzqrjP6LLw", "review_count": 705, "categories": [{"alias": "chinese", "title": "Chinese"}, {"alias": "seafood", "title": "Seafood"}], "rating": 3.0, "coordinates": {"latitude": 37.725413, "longitude": -122.462822}, "transactions": ["delivery", "pickup"], "price": "$", "location": {"address1": "1923 Ocean Ave", "address2": "", "address3": "", "city": "San Francisco", "zip_code": "94127", "country": "US", "state": "CA", "display_address": ["1923 Ocean Ave", "San Francisco, CA 94127"]}, "phone": "+14155858887", "display_phone": "(415) 585-8887", "distance": 4576.942203464529}, {"id": "stWe1BUaIZZgIqeJUVgpcg", "alias": "new-lun-ting-cafe-san-francisco", "name": "New Lun Ting Cafe", "image_url": "https://s3-media1.fl.yelpcdn.com/bphoto/KiavmZYcD3EHpkhyXdHOTg/o.jpg", "is_closed": false, "url": "https://www.yelp.com/biz/new-lun-ting-cafe-san-francisco?adjust_creative=Klanz-jboxl2XzqrjP6LLw&utm_campaign=yelp_api_v3&utm_medium=api_v3_business_search&utm_source=Klanz-jboxl2XzqrjP6LLw", "review_count": 379, "categories": [{"alias": "chinese", "title": "Chinese"}, {"alias": "tradamerican", "title": "American (Traditional)"}, {"alias": "asianfusion", "title": "Asian Fusion"}], "rating": 4.0, "coordinates": {"latitude": 37.796116625102, "longitude": -122.40626070665}, "transactions": ["delivery"], "price": "$", "location": {"address1": "670 Jackson St", "address2": "", "address3": "", "city": "San Francisco", "zip_code": "94133", "country": "US", "state": "CA", "display_address": ["670 Jackson St", "San Francisco, CA 94133"]}, "phone": "+14153625667", "display_phone": "(415) 362-5667", "distance": 4730.029908374711}, {"id": "E1xT1uBDaL20n7GKOhh3Jw", "alias": "chef-lis-cafe-san-francisco-3", "name": "Chef Li's Cafe", "image_url": "https://s3-media1.fl.yelpcdn.com/bphoto/XmG6KqePQzkVVhZbC2tYGg/o.jpg", "is_closed": false, "url": "https://www.yelp.com/biz/chef-lis-cafe-san-francisco-3?adjust_creative=Klanz-jboxl2XzqrjP6LLw&utm_campaign=yelp_api_v3&utm_medium=api_v3_business_search&utm_source=Klanz-jboxl2XzqrjP6LLw", "review_count": 159, "categories": [{"alias": "hotpot", "title": "Hot Pot"}, {"alias": "chinese", "title": "Chinese"}], "rating": 4.0, "coordinates": {"latitude": 37.72718, "longitude": -122.40375}, "transactions": ["delivery", "pickup"], "price": "$$", "location": {"address1": "2726 San Bruno Ave", "address2": null, "address3": "", "city": "San Francisco", "zip_code": "94134", "country": "US", "state": "CA", "display_address": ["2726 San Bruno Ave", "San Francisco, CA 94134"]}, "phone": "+14153494364", "display_phone": "(415) 349-4364", "distance": 4724.6841179605935}, {"id": "1048yN4bQRt_h3zQ04GDSA", "alias": "east-ocean-seafood-restaurant-alameda", "name": "East Ocean Seafood Restaurant", "image_url": "https://s3-media3.fl.yelpcdn.com/bphoto/wA4oU1yFJVN4auMD0Eh1cQ/o.jpg", "is_closed": false, "url": "https://www.yelp.com/biz/east-ocean-seafood-restaurant-alameda?adjust_creative=Klanz-jboxl2XzqrjP6LLw&utm_campaign=yelp_api_v3&utm_medium=api_v3_business_search&utm_source=Klanz-jboxl2XzqrjP6LLw", "review_count": 1662, "categories": [{"alias": "dimsum", "title": "Dim Sum"}, {"alias": "seafood", "title": "Seafood"}], "rating": 4.0, "coordinates": {"latitude": 37.77669009978859, "longitude": -122.2768680261544}, "transactions": ["delivery", "pickup"], "price": "$$", "location": {"address1": "1713 Webster St", "address2": "", "address3": "", "city": "Alameda", "zip_code": "94501", "country": "US", "state": "CA", "display_address": ["1713 Webster St", "Alameda, CA 94501"]}, "phone": "+15108653381", "display_phone": "(510) 865-3381", "distance": 14136.191021811135}, {"id": "vKBW6SWFrIYXW1kIOFY_Ng", "alias": "house-of-thai-san-francisco-2", "name": "House of Thai", "image_url": "https://s3-media1.fl.yelpcdn.com/bphoto/-8wmZdYtAr7mFW4WWfqjZw/o.jpg", "is_closed": false, "url": "https://www.yelp.com/biz/house-of-thai-san-francisco-2?adjust_creative=Klanz-jboxl2XzqrjP6LLw&utm_campaign=yelp_api_v3&utm_medium=api_v3_business_search&utm_source=Klanz-jboxl2XzqrjP6LLw", "review_count": 1465, "categories": [{"alias": "thai", "title": "Thai"}, {"alias": "noodles", "title": "Noodles"}], "rating": 4.0, "coordinates": {"latitude": 37.7862824, "longitude": -122.4183383}, "transactions": ["delivery", "pickup"], "price": "$$", "location": {"address1": "901 Larkin St", "address2": "", "address3": "", "city": "San Francisco", "zip_code": "94109", "country": "US", "state": "CA", "display_address": ["901 Larkin St", "San Francisco, CA 94109"]}, "phone": "+14154412248", "display_phone": "(415) 441-2248", "distance": 3240.30348497258}, {"id": "QhPEH1pqvRfkyVue7Rv2hw", "alias": "feng-nian-chinese-restaurant-sausalito", "name": "Feng Nian Chinese Restaurant", "image_url": "https://s3-media4.fl.yelpcdn.com/bphoto/lfdXmRboffpvmkhpO70WLA/o.jpg", "is_closed": false, "url": "https://www.yelp.com/biz/feng-nian-chinese-restaurant-sausalito?adjust_creative=Klanz-jboxl2XzqrjP6LLw&utm_campaign=yelp_api_v3&utm_medium=api_v3_business_search&utm_source=Klanz-jboxl2XzqrjP6LLw", "review_count": 165, "categories": [{"alias": "chinese", "title": "Chinese"}], "rating": 3.5, "coordinates": {"latitude": 37.86847, "longitude": -122.50155}, "transactions": ["delivery", "pickup"], "price": "$$", "location": {"address1": "2650 Bridgeway", "address2": "", "address3": "", "city": "Sausalito", "zip_code": "94965", "country": "US", "state": "CA", "display_address": ["2650 Bridgeway", "Sausalito, CA 94965"]}, "phone": "+14153315300", "display_phone": "(415) 331-5300", "distance": 13257.901273111627}, {"id": "AJ5iUNtfV0IOeoqpJahQJA", "alias": "chengdu-style-restaurant-berkeley", "name": "Chengdu Style Restaurant", "image_url": "https://s3-media4.fl.yelpcdn.com/bphoto/Mt0unSfRI4FuB8evIwSriQ/o.jpg", "is_closed": false, "url": "https://www.yelp.com/biz/chengdu-style-restaurant-berkeley?adjust_creative=Klanz-jboxl2XzqrjP6LLw&utm_campaign=yelp_api_v3&utm_medium=api_v3_business_search&utm_source=Klanz-jboxl2XzqrjP6LLw", "review_count": 369, "categories": [{"alias": "szechuan", "title": "Szechuan"}, {"alias": "asianfusion", "title": "Asian Fusion"}], "rating": 3.5, "coordinates": {"latitude": 37.86876, "longitude": -122.25655}, "transactions": ["delivery", "pickup"], "price": "$$", "location": {"address1": "2600 Bancroft Way", "address2": "", "address3": "", "city": "Berkeley", "zip_code": "94704", "country": "US", "state": "CA", "display_address": ["2600 Bancroft Way", "Berkeley, CA 94704"]}, "phone": "+15108455807", "display_phone": "(510) 845-5807", "distance": 19839.83406215268}, {"id": "dw0tkJ04WYegq6ZQe5C1AQ", "alias": "harmony-restaurant-mill-valley", "name": "Harmony Restaurant", "image_url": "https://s3-media3.fl.yelpcdn.com/bphoto/4ETub6sR9ZHcBIEDPOvoFw/o.jpg", "is_closed": false, "url": "https://www.yelp.com/biz/harmony-restaurant-mill-valley?adjust_creative=Klanz-jboxl2XzqrjP6LLw&utm_campaign=yelp_api_v3&utm_medium=api_v3_business_search&utm_source=Klanz-jboxl2XzqrjP6LLw", "review_count": 443, "categories": [{"alias": "chinese", "title": "Chinese"}], "rating": 3.5, "coordinates": {"latitude": 37.897481, "longitude": -122.515351}, "transactions": ["delivery"], "price": "$$", "location": {"address1": "800 Redwood Hwy", "address2": "", "address3": "", "city": "Mill Valley", "zip_code": "94941", "country": "US", "state": "CA", "display_address": ["800 Redwood Hwy", "Mill Valley, CA 94941"]}, "phone": "+14153815300", "display_phone": "(415) 381-5300", "distance": 16693.49054870309}, {"id": "jON2lBVp77IT5l5AcCMjqw", "alias": "asian-box-san-francisco-4", "name": "Asian Box", "image_url": "https://s3-media1.fl.yelpcdn.com/bphoto/kE4mf4LSHMKL_4VsYywvmw/o.jpg", "is_closed": false, "url": "https://www.yelp.com/biz/asian-box-san-francisco-4?adjust_creative=Klanz-jboxl2XzqrjP6LLw&utm_campaign=yelp_api_v3&utm_medium=api_v3_business_search&utm_source=Klanz-jboxl2XzqrjP6LLw", "review_count": 233, "categories": [{"alias": "asianfusion", "title": "Asian Fusion"}], "rating": 4.5, "coordinates": {"latitude": 37.8005669, "longitude": -122.436793}, "transactions": ["delivery", "pickup"], "price": "$$", "location": {"address1": "2031 Chestnut St", "address2": "", "address3": null, "city": "San Francisco", "zip_code": "94123", "country": "US", "state": "CA", "display_address": ["2031 Chestnut St", "San Francisco, CA 94123"]}, "phone": "+14152883688", "display_phone": "(415) 288-3688", "distance": 4410.925725543849}, {"id": "nuqclnKDzzma5IL2826GsA", "alias": "sun-kwong-restaurant-san-francisco", "name": "Sun Kwong Restaurant", "image_url": "https://s3-media2.fl.yelpcdn.com/bphoto/kGSvjn3q5zMgpu8CXdt1wg/o.jpg", "is_closed": false, "url": "https://www.yelp.com/biz/sun-kwong-restaurant-san-francisco?adjust_creative=Klanz-jboxl2XzqrjP6LLw&utm_campaign=yelp_api_v3&utm_medium=api_v3_business_search&utm_source=Klanz-jboxl2XzqrjP6LLw", "review_count": 218, "categories": [{"alias": "chinese", "title": "Chinese"}], "rating": 4.0, "coordinates": {"latitude": 37.79471, "longitude": -122.41835}, "transactions": ["delivery", "pickup"], "price": "$", "location": {"address1": "1400 Jackson St", "address2": "", "address3": "", "city": "San Francisco", "zip_code": "94109", "country": "US", "state": "CA", "display_address": ["1400 Jackson St", "San Francisco, CA 94109"]}, "phone": "+14156739478", "display_phone": "(415) 673-9478", "distance": 4077.6275547560354}, {"id": "8Bft7em9yWBFueVFp76fuw", "alias": "the-spice-jar-san-francisco", "name": "The Spice Jar", "image_url": "https://s3-media2.fl.yelpcdn.com/bphoto/HT9dhLCDpM1E55ryxtmMmA/o.jpg", "is_closed": false, "url": "https://www.yelp.com/biz/the-spice-jar-san-francisco?adjust_creative=Klanz-jboxl2XzqrjP6LLw&utm_campaign=yelp_api_v3&utm_medium=api_v3_business_search&utm_source=Klanz-jboxl2XzqrjP6LLw", "review_count": 419, "categories": [{"alias": "asianfusion", "title": "Asian Fusion"}], "rating": 4.0, "coordinates": {"latitude": 37.75426, "longitude": -122.40947}, "transactions": ["delivery", "pickup"], "price": "$$", "location": {"address1": "2500 Bryant St", "address2": "", "address3": "", "city": "San Francisco", "zip_code": "94110", "country": "US", "state": "CA", "display_address": ["2500 Bryant St", "San Francisco, CA 94110"]}, "phone": "+14158293668", "display_phone": "(415) 829-3668", "distance": 2480.9869460714026}, {"id": "6V6rb5XsAL5ENq1ggc0ICA", "alias": "qilin-kitchen-san-francisco", "name": "Qilin Kitchen", "image_url": "https://s3-media1.fl.yelpcdn.com/bphoto/mdxsvwDC1VSs1yTnmpan_w/o.jpg", "is_closed": false, "url": "https://www.yelp.com/biz/qilin-kitchen-san-francisco?adjust_creative=Klanz-jboxl2XzqrjP6LLw&utm_campaign=yelp_api_v3&utm_medium=api_v3_business_search&utm_source=Klanz-jboxl2XzqrjP6LLw", "review_count": 6, "categories": [{"alias": "chinese", "title": "Chinese"}, {"alias": "fooddeliveryservices", "title": "Food Delivery Services"}], "rating": 5.0, "coordinates": {"latitude": 37.7766891, "longitude": -122.4024977}, "transactions": ["delivery", "pickup"], "location": {"address1": "60 Morris St K-19", "address2": null, "address3": "", "city": "San Francisco", "zip_code": "94107", "country": "US", "state": "CA", "display_address": ["60 Morris St K-19", "San Francisco, CA 94107"]}, "phone": "+14155090188", "display_phone": "(415) 509-0188", "distance": 3462.2869525826054}, {"id": "iwOmbrmxyMNwM9s4Y1R2Bw", "alias": "makli-restaurant-san-francisco", "name": "Makli Restaurant", "image_url": "https://s3-media1.fl.yelpcdn.com/bphoto/IJW2UmB2sbETuskjebJJ3A/o.jpg", "is_closed": false, "url": "https://www.yelp.com/biz/makli-restaurant-san-francisco?adjust_creative=Klanz-jboxl2XzqrjP6LLw&utm_campaign=yelp_api_v3&utm_medium=api_v3_business_search&utm_source=Klanz-jboxl2XzqrjP6LLw", "review_count": 246, "categories": [{"alias": "chinese", "title": "Chinese"}], "rating": 3.5, "coordinates": {"latitude": 37.7645336171417, "longitude": -122.431062050997}, "transactions": ["delivery", "pickup"], "price": "$$", "location": {"address1": "290 Sanchez St", "address2": "", "address3": "", "city": "San Francisco", "zip_code": "94114", "country": "US", "state": "CA", "display_address": ["290 Sanchez St", "San Francisco, CA 94114"]}, "phone": "+14158639128", "display_phone": "(415) 863-9128", "distance": 622.4068960015971}, {"id": "-nIP9n7HTQx9BENjEkzV0w", "alias": "tung-sing-restaurant-san-francisco", "name": "Tung Sing Restaurant", "image_url": "https://s3-media3.fl.yelpcdn.com/bphoto/JB7G0gQmLO6UOcH16hj6HA/o.jpg", "is_closed": false, "url": "https://www.yelp.com/biz/tung-sing-restaurant-san-francisco?adjust_creative=Klanz-jboxl2XzqrjP6LLw&utm_campaign=yelp_api_v3&utm_medium=api_v3_business_search&utm_source=Klanz-jboxl2XzqrjP6LLw", "review_count": 97, "categories": [{"alias": "chinese", "title": "Chinese"}], "rating": 3.0, "coordinates": {"latitude": 37.75112, "longitude": -122.4323}, "transactions": ["delivery", "pickup"], "price": "$", "location": {"address1": "4015 24th St", "address2": "", "address3": "", "city": "San Francisco", "zip_code": "94114", "country": "US", "state": "CA", "display_address": ["4015 24th St", "San Francisco, CA 94114"]}, "phone": "+14156488582", "display_phone": "(415) 648-8582", "distance": 1136.6205498163197}, {"id": "bm7sU0_SNY0k2ZX65YqTsA", "alias": "wasabi-bistro-san-francisco", "name": "Wasabi Bistro", "image_url": "https://s3-media1.fl.yelpcdn.com/bphoto/17MhOZyRJeGbSLP8tSdseA/o.jpg", "is_closed": false, "url": "https://www.yelp.com/biz/wasabi-bistro-san-francisco?adjust_creative=Klanz-jboxl2XzqrjP6LLw&utm_campaign=yelp_api_v3&utm_medium=api_v3_business_search&utm_source=Klanz-jboxl2XzqrjP6LLw", "review_count": 497, "categories": [{"alias": "sushi", "title": "Sushi Bars"}, {"alias": "japanese", "title": "Japanese"}], "rating": 4.0, "coordinates": {"latitude": 37.7604103, "longitude": -122.4351501}, "transactions": ["delivery", "pickup"], "price": "$$", "location": {"address1": "524 Castro St", "address2": "", "address3": "", "city": "San Francisco", "zip_code": "94114", "country": "US", "state": "CA", "display_address": ["524 Castro St", "San Francisco, CA 94114"]}, "phone": "+14157010082", "display_phone": "(415) 701-0082", "distance": 122.83689463327856}, {"id": "bD9oSfgoygPFW3Po4rZeZg", "alias": "mandarin-house-sf-san-francisco", "name": "Mandarin House SF", "image_url": "https://s3-media1.fl.yelpcdn.com/bphoto/asbahh4wvYVnQkjajeVz5g/o.jpg", "is_closed": false, "url": "https://www.yelp.com/biz/mandarin-house-sf-san-francisco?adjust_creative=Klanz-jboxl2XzqrjP6LLw&utm_campaign=yelp_api_v3&utm_medium=api_v3_business_search&utm_source=Klanz-jboxl2XzqrjP6LLw", "review_count": 186, "categories": [{"alias": "chinese", "title": "Chinese"}], "rating": 3.5, "coordinates": {"latitude": 37.74153, "longitude": -122.4228}, "transactions": ["delivery", "pickup"], "price": "$$", "location": {"address1": "3452 Mission St", "address2": "", "address3": "", "city": "San Francisco", "zip_code": "94110", "country": "US", "state": "CA", "display_address": ["3452 Mission St", "San Francisco, CA 94110"]}, "phone": "+14152826898", "display_phone": "(415) 282-6898", "distance": 2465.217080402038}, {"id": "2UAbKNVr1Co5f9dn9T3jzA", "alias": "sushi-ondo-san-francisco", "name": "Sushi Ondo", "image_url": "https://s3-media3.fl.yelpcdn.com/bphoto/3zHCTR0YIqiCXwnYwYOk7A/o.jpg", "is_closed": false, "url": "https://www.yelp.com/biz/sushi-ondo-san-francisco?adjust_creative=Klanz-jboxl2XzqrjP6LLw&utm_campaign=yelp_api_v3&utm_medium=api_v3_business_search&utm_source=Klanz-jboxl2XzqrjP6LLw", "review_count": 172, "categories": [{"alias": "sushi", "title": "Sushi Bars"}, {"alias": "japanese", "title": "Japanese"}], "rating": 4.5, "coordinates": {"latitude": 37.77246, "longitude": -122.41653}, "transactions": ["delivery", "restaurant_reservation"], "location": {"address1": "1550 Howard St", "address2": null, "address3": "", "city": "San Francisco", "zip_code": "94103", "country": "US", "state": "CA", "display_address": ["1550 Howard St", "San Francisco, CA 94103"]}, "phone": "+14157570026", "display_phone": "(415) 757-0026", "distance": 2170.009339818566}, {"id": "ZBX6HhQWZse0KJ_wPtIFAw", "alias": "my-canh-san-francisco", "name": "My Canh", "image_url": "https://s3-media4.fl.yelpcdn.com/bphoto/9f7JVrzVmeg49FCjmFumZw/o.jpg", "is_closed": false, "url": "https://www.yelp.com/biz/my-canh-san-francisco?adjust_creative=Klanz-jboxl2XzqrjP6LLw&utm_campaign=yelp_api_v3&utm_medium=api_v3_business_search&utm_source=Klanz-jboxl2XzqrjP6LLw", "review_count": 527, "categories": [{"alias": "vietnamese", "title": "Vietnamese"}, {"alias": "noodles", "title": "Noodles"}], "rating": 3.5, "coordinates": {"latitude": 37.7978409826756, "longitude": -122.407506108284}, "transactions": ["delivery"], "price": "$$", "location": {"address1": "626 Broadway", "address2": "", "address3": "", "city": "San Francisco", "zip_code": "94133", "country": "US", "state": "CA", "display_address": ["626 Broadway", "San Francisco, CA 94133"]}, "phone": "+14153978888", "display_phone": "(415) 397-8888", "distance": 4837.520849851859}, {"id": "P8MAfhqk1DTzyLiWZ-uPIA", "alias": "scomas-of-sausalito-sausalito-2", "name": "Scoma's of Sausalito", "image_url": "https://s3-media2.fl.yelpcdn.com/bphoto/ZSoMMNSeasUZLB5kwEzCNA/o.jpg", "is_closed": false, "url": "https://www.yelp.com/biz/scomas-of-sausalito-sausalito-2?adjust_creative=Klanz-jboxl2XzqrjP6LLw&utm_campaign=yelp_api_v3&utm_medium=api_v3_business_search&utm_source=Klanz-jboxl2XzqrjP6LLw", "review_count": 1065, "categories": [{"alias": "seafood", "title": "Seafood"}, {"alias": "italian", "title": "Italian"}], "rating": 4.0, "coordinates": {"latitude": 37.853994, "longitude": -122.478663}, "transactions": ["delivery"], "price": "$$$", "location": {"address1": "588 Bridgeway", "address2": "", "address3": "", "city": "Sausalito", "zip_code": "94965", "country": "US", "state": "CA", "display_address": ["588 Bridgeway", "Sausalito, CA 94965"]}, "phone": "+14153329551", "display_phone": "(415) 332-9551", "distance": 10995.96608374094}, {"id": "xeRy4mjZWczet5V9Jtmx1g", "alias": "domo-san-francisco", "name": "Domo", "image_url": "https://s3-media2.fl.yelpcdn.com/bphoto/pB1hWjIxEvDpF7qrPlkJKg/o.jpg", "is_closed": false, "url": "https://www.yelp.com/biz/domo-san-francisco?adjust_creative=Klanz-jboxl2XzqrjP6LLw&utm_campaign=yelp_api_v3&utm_medium=api_v3_business_search&utm_source=Klanz-jboxl2XzqrjP6LLw", "review_count": 919, "categories": [{"alias": "sushi", "title": "Sushi Bars"}, {"alias": "japanese", "title": "Japanese"}], "rating": 4.0, "coordinates": {"latitude": 37.77586, "longitude": -122.42631}, "transactions": ["delivery", "pickup"], "price": "$$", "location": {"address1": "511 Laguna St", "address2": "", "address3": "", "city": "San Francisco", "zip_code": "94102", "country": "US", "state": "CA", "display_address": ["511 Laguna St", "San Francisco, CA 94102"]}, "phone": "+14158618887", "display_phone": "(415) 861-8887", "distance": 1888.4283595034008}, {"id": "bf72ckc4mWwcpqoZiFfVHA", "alias": "elaines-kitchen-san-francisco-3", "name": "Elaine's Kitchen", "image_url": "https://s3-media4.fl.yelpcdn.com/bphoto/qSGxUqJNRh9TV9r43WeRVg/o.jpg", "is_closed": false, "url": "https://www.yelp.com/biz/elaines-kitchen-san-francisco-3?adjust_creative=Klanz-jboxl2XzqrjP6LLw&utm_campaign=yelp_api_v3&utm_medium=api_v3_business_search&utm_source=Klanz-jboxl2XzqrjP6LLw", "review_count": 402, "categories": [{"alias": "chinese", "title": "Chinese"}], "rating": 4.0, "coordinates": {"latitude": 37.7982972, "longitude": -122.4045086}, "transactions": ["delivery", "pickup"], "price": "$", "location": {"address1": "434 Broadway St", "address2": "", "address3": "", "city": "San Francisco", "zip_code": "94133", "country": "US", "state": "CA", "display_address": ["434 Broadway St", "San Francisco, CA 94133"]}, "phone": "+14153921826", "display_phone": "(415) 392-1826", "distance": 5017.1211330812375}, {"id": "F4Q8GEsfXkcEBwOVlaheVg", "alias": "ming-tai-wun-tun-noodle-san-francisco", "name": "Ming Tai Wun-Tun Noodle", "image_url": "https://s3-media1.fl.yelpcdn.com/bphoto/EXXq-HVTRFes0TI3mO_jhA/o.jpg", "is_closed": false, "url": "https://www.yelp.com/biz/ming-tai-wun-tun-noodle-san-francisco?adjust_creative=Klanz-jboxl2XzqrjP6LLw&utm_campaign=yelp_api_v3&utm_medium=api_v3_business_search&utm_source=Klanz-jboxl2XzqrjP6LLw", "review_count": 275, "categories": [{"alias": "noodles", "title": "Noodles"}, {"alias": "cantonese", "title": "Cantonese"}, {"alias": "hkcafe", "title": "Hong Kong Style Cafe"}], "rating": 3.5, "coordinates": {"latitude": 37.7534107, "longitude": -122.49018}, "transactions": ["delivery"], "price": "$", "location": {"address1": "2455 Noriega St", "address2": "", "address3": "", "city": "San Francisco", "zip_code": "94122", "country": "US", "state": "CA", "display_address": ["2455 Noriega St", "San Francisco, CA 94122"]}, "phone": "+14156810430", "display_phone": "(415) 681-0430", "distance": 4796.599352304412}, {"id": "AzFqspVE3gUWYaEselXLUA", "alias": "khob-khun-thai-cuisine-and-breakfast-san-francisco-2", "name": "Khob Khun Thai Cuisine & Breakfast", "image_url": "https://s3-media2.fl.yelpcdn.com/bphoto/PBRjmOLOUjUlUFsYVvGF3g/o.jpg", "is_closed": false, "url": "https://www.yelp.com/biz/khob-khun-thai-cuisine-and-breakfast-san-francisco-2?adjust_creative=Klanz-jboxl2XzqrjP6LLw&utm_campaign=yelp_api_v3&utm_medium=api_v3_business_search&utm_source=Klanz-jboxl2XzqrjP6LLw", "review_count": 86, "categories": [{"alias": "breakfast_brunch", "title": "Breakfast & Brunch"}, {"alias": "thai", "title": "Thai"}], "rating": 5.0, "coordinates": {"latitude": 37.78107129493808, "longitude": -122.45966259993912}, "transactions": ["delivery", "pickup"], "price": "$$", "location": {"address1": "3741 Geary Blvd", "address2": null, "address3": "", "city": "San Francisco", "zip_code": "94118", "country": "US", "state": "CA", "display_address": ["3741 Geary Blvd", "San Francisco, CA 94118"]}, "phone": "+14153794382", "display_phone": "(415) 379-4382", "distance": 3032.307778458133}, {"id": "ZJeACgKeEPuk3v0UiR9Y_Q", "alias": "five-happiness-san-francisco", "name": "Five Happiness", "image_url": "https://s3-media3.fl.yelpcdn.com/bphoto/m5i2i7RD6oFKxONNsZEIOg/o.jpg", "is_closed": false, "url": "https://www.yelp.com/biz/five-happiness-san-francisco?adjust_creative=Klanz-jboxl2XzqrjP6LLw&utm_campaign=yelp_api_v3&utm_medium=api_v3_business_search&utm_source=Klanz-jboxl2XzqrjP6LLw", "review_count": 274, "categories": [{"alias": "taiwanese", "title": "Taiwanese"}, {"alias": "shanghainese", "title": "Shanghainese"}, {"alias": "noodles", "title": "Noodles"}], "rating": 3.5, "coordinates": {"latitude": 37.78134, "longitude": -122.46394}, "transactions": ["delivery"], "price": "$$", "location": {"address1": "4142 Geary Blvd", "address2": "", "address3": "", "city": "San Francisco", "zip_code": "94118", "country": "US", "state": "CA", "display_address": ["4142 Geary Blvd", "San Francisco, CA 94118"]}, "phone": "+14153871234", "display_phone": "(415) 387-1234", "distance": 3309.5828892659615}, {"id": "AtFGQccBpgEZzsy9V1330Q", "alias": "lily-san-francisco", "name": "Lily", "image_url": "https://s3-media2.fl.yelpcdn.com/bphoto/X-dgyeI8RijCWSkuK0gyZg/o.jpg", "is_closed": false, "url": "https://www.yelp.com/biz/lily-san-francisco?adjust_creative=Klanz-jboxl2XzqrjP6LLw&utm_campaign=yelp_api_v3&utm_medium=api_v3_business_search&utm_source=Klanz-jboxl2XzqrjP6LLw", "review_count": 210, "categories": [{"alias": "vietnamese", "title": "Vietnamese"}], "rating": 4.0, "coordinates": {"latitude": 37.782826, "longitude": -122.461686}, "transactions": ["delivery", "pickup"], "location": {"address1": "225 Clement St", "address2": null, "address3": null, "city": "San Francisco", "zip_code": "94118", "country": "US", "state": "CA", "display_address": ["225 Clement St", "San Francisco, CA 94118"]}, "phone": "+14157425285", "display_phone": "(415) 742-5285", "distance": 3299.107317666393}, {"id": "lVVbDilYULBL1OZG_3hE9w", "alias": "skylines-cafe-daly-city", "name": "Skyline's Cafe", "image_url": "https://s3-media2.fl.yelpcdn.com/bphoto/cU7io6tZqedGzdpnxK0lVA/o.jpg", "is_closed": false, "url": "https://www.yelp.com/biz/skylines-cafe-daly-city?adjust_creative=Klanz-jboxl2XzqrjP6LLw&utm_campaign=yelp_api_v3&utm_medium=api_v3_business_search&utm_source=Klanz-jboxl2XzqrjP6LLw", "review_count": 433, "categories": [{"alias": "chinese", "title": "Chinese"}, {"alias": "cafes", "title": "Cafes"}], "rating": 3.0, "coordinates": {"latitude": 37.682094731985, "longitude": -122.487398886972}, "transactions": ["delivery"], "price": "$", "location": {"address1": "87 Skyline Plz", "address2": "", "address3": "", "city": "Daly City", "zip_code": "94015", "country": "US", "state": "CA", "display_address": ["87 Skyline Plz", "Daly City, CA 94015"]}, "phone": "+16509911117", "display_phone": "(650) 991-1117", "distance": 9842.13267262551}, {"id": "VVwyCUpUcATEsoxD57nNew", "alias": "big-lantern-san-francisco", "name": "Big Lantern", "image_url": "https://s3-media2.fl.yelpcdn.com/bphoto/Fyj1h6uGExC_FZU8REa-pA/o.jpg", "is_closed": false, "url": "https://www.yelp.com/biz/big-lantern-san-francisco?adjust_creative=Klanz-jboxl2XzqrjP6LLw&utm_campaign=yelp_api_v3&utm_medium=api_v3_business_search&utm_source=Klanz-jboxl2XzqrjP6LLw", "review_count": 959, "categories": [{"alias": "dimsum", "title": "Dim Sum"}, {"alias": "vegetarian", "title": "Vegetarian"}], "rating": 3.5, "coordinates": {"latitude": 37.76493, "longitude": -122.42339}, "transactions": ["delivery", "pickup"], "price": "$$", "location": {"address1": "3170 16th St", "address2": "", "address3": "", "city": "San Francisco", "zip_code": "94103", "country": "US", "state": "CA", "display_address": ["3170 16th St", "San Francisco, CA 94103"]}, "phone": "+14158638100", "display_phone": "(415) 863-8100", "distance": 1232.1969237118851}, {"id": "1Bk_0NSVkKxR6MuEi4rzbQ", "alias": "happy-family-gourmet-san-francisco", "name": "Happy Family Gourmet", "image_url": "https://s3-media1.fl.yelpcdn.com/bphoto/pKRL-bD1QT4B4FTB9wvT8w/o.jpg", "is_closed": false, "url": "https://www.yelp.com/biz/happy-family-gourmet-san-francisco?adjust_creative=Klanz-jboxl2XzqrjP6LLw&utm_campaign=yelp_api_v3&utm_medium=api_v3_business_search&utm_source=Klanz-jboxl2XzqrjP6LLw", "review_count": 40, "categories": [{"alias": "chinese", "title": "Chinese"}], "rating": 4.5, "coordinates": {"latitude": 37.74322, "longitude": -122.4774}, "transactions": [], "location": {"address1": "1042 Taraval St", "address2": "", "address3": null, "city": "San Francisco", "zip_code": "94116", "country": "US", "state": "CA", "display_address": ["1042 Taraval St", "San Francisco, CA 94116"]}, "phone": "+14155928801", "display_phone": "(415) 592-8801", "distance": 4114.32543564282}, {"id": "SuGcF3UywZs6dOu8U45Anw", "alias": "yans-kitchen-san-francisco", "name": "Yan's Kitchen", "image_url": "https://s3-media2.fl.yelpcdn.com/bphoto/hbOzt7KPVzRrnCDsdbyCsg/o.jpg", "is_closed": false, "url": "https://www.yelp.com/biz/yans-kitchen-san-francisco?adjust_creative=Klanz-jboxl2XzqrjP6LLw&utm_campaign=yelp_api_v3&utm_medium=api_v3_business_search&utm_source=Klanz-jboxl2XzqrjP6LLw", "review_count": 518, "categories": [{"alias": "chinese", "title": "Chinese"}], "rating": 4.0, "coordinates": {"latitude": 37.796095, "longitude": -122.404378}, "transactions": ["delivery"], "price": "$", "location": {"address1": "57 Columbus Ave", "address2": "", "address3": "", "city": "San Francisco", "zip_code": "94111", "country": "US", "state": "CA", "display_address": ["57 Columbus Ave", "San Francisco, CA 94111"]}, "phone": "+14159898820", "display_phone": "(415) 989-8820", "distance": 4822.829952895647}, {"id": "fhg_F6t272W35h4ZUSBLbg", "alias": "yunnan-style-rice-noodle-el-cerrito-2", "name": "Yunnan Style Rice Noodle", "image_url": "https://s3-media2.fl.yelpcdn.com/bphoto/kdT2VA-OM84ZDAjLXbWrgA/o.jpg", "is_closed": false, "url": "https://www.yelp.com/biz/yunnan-style-rice-noodle-el-cerrito-2?adjust_creative=Klanz-jboxl2XzqrjP6LLw&utm_campaign=yelp_api_v3&utm_medium=api_v3_business_search&utm_source=Klanz-jboxl2XzqrjP6LLw", "review_count": 79, "categories": [{"alias": "szechuan", "title": "Szechuan"}], "rating": 4.5, "coordinates": {"latitude": 37.911941, "longitude": -122.309375}, "transactions": ["delivery", "pickup"], "price": "$$", "location": {"address1": "10675 San Pablo Ave", "address2": null, "address3": "", "city": "El Cerrito", "zip_code": "94530", "country": "US", "state": "CA", "display_address": ["10675 San Pablo Ave", "El Cerrito, CA 94530"]}, "phone": "+15102805412", "display_phone": "(510) 280-5412", "distance": 20165.536496479566}, {"id": "qlA-O6c4-lp092I6kzibUA", "alias": "gourmet-carousel-san-francisco", "name": "Gourmet Carousel", "image_url": "https://s3-media4.fl.yelpcdn.com/bphoto/HVhl16v1x4Ln7-R4_W53Pw/o.jpg", "is_closed": false, "url": "https://www.yelp.com/biz/gourmet-carousel-san-francisco?adjust_creative=Klanz-jboxl2XzqrjP6LLw&utm_campaign=yelp_api_v3&utm_medium=api_v3_business_search&utm_source=Klanz-jboxl2XzqrjP6LLw", "review_count": 263, "categories": [{"alias": "chinese", "title": "Chinese"}, {"alias": "seafood", "title": "Seafood"}], "rating": 3.5, "coordinates": {"latitude": 37.7891241, "longitude": -122.4239283}, "transactions": ["delivery", "pickup"], "price": "$$", "location": {"address1": "1559 Franklin St", "address2": "", "address3": "", "city": "San Francisco", "zip_code": "94109", "country": "US", "state": "CA", "display_address": ["1559 Franklin St", "San Francisco, CA 94109"]}, "phone": "+14157712044", "display_phone": "(415) 771-2044", "distance": 3325.7261495726007}, {"id": "e-O4wIO6CXjjFdsGQvdy5Q", "alias": "top-sf-bbq-san-francisco", "name": "Top SF BBQ", "image_url": "https://s3-media4.fl.yelpcdn.com/bphoto/TbYmi0dm4yCimdQ9GGEkNw/o.jpg", "is_closed": false, "url": "https://www.yelp.com/biz/top-sf-bbq-san-francisco?adjust_creative=Klanz-jboxl2XzqrjP6LLw&utm_campaign=yelp_api_v3&utm_medium=api_v3_business_search&utm_source=Klanz-jboxl2XzqrjP6LLw", "review_count": 123, "categories": [{"alias": "bbq", "title": "Barbeque"}, {"alias": "chinese", "title": "Chinese"}], "rating": 3.5, "coordinates": {"latitude": 37.78194, "longitude": -122.48409}, "transactions": ["delivery"], "price": "$$", "location": {"address1": "2311 Clement St", "address2": "", "address3": null, "city": "San Francisco", "zip_code": "94121", "country": "US", "state": "CA", "display_address": ["2311 Clement St", "San Francisco, CA 94121"]}, "phone": "+14155718201", "display_phone": "(415) 571-8201", "distance": 4796.8257202742425}, {"id": "zUgX3riCPdMOQSw2bvJSMw", "alias": "bao-san-francisco", "name": "Bao", "image_url": "https://s3-media2.fl.yelpcdn.com/bphoto/ywvW0HjPv5azN84Rt6DrTg/o.jpg", "is_closed": false, "url": "https://www.yelp.com/biz/bao-san-francisco?adjust_creative=Klanz-jboxl2XzqrjP6LLw&utm_campaign=yelp_api_v3&utm_medium=api_v3_business_search&utm_source=Klanz-jboxl2XzqrjP6LLw", "review_count": 129, "categories": [{"alias": "chinese", "title": "Chinese"}, {"alias": "fooddeliveryservices", "title": "Food Delivery Services"}], "rating": 4.0, "coordinates": {"latitude": 37.76389585395644, "longitude": -122.4218699539719}, "transactions": ["delivery", "pickup"], "price": "$$", "location": {"address1": "590 Valencia St", "address2": "", "address3": null, "city": "San Francisco", "zip_code": "94110", "country": "US", "state": "CA", "display_address": ["590 Valencia St", "San Francisco, CA 94110"]}, "phone": "+14156587453", "display_phone": "(415) 658-7453", "distance": 1324.0293965841765}, {"id": "8dUaybEPHsZMgr1iKgqgMQ", "alias": "sotto-mare-oysteria-and-seafood-san-francisco", "name": "Sotto Mare Oysteria & Seafood", "image_url": "https://s3-media3.fl.yelpcdn.com/bphoto/o3hIcGLMxV_5ynxEjGWGrw/o.jpg", "is_closed": false, "url": "https://www.yelp.com/biz/sotto-mare-oysteria-and-seafood-san-francisco?adjust_creative=Klanz-jboxl2XzqrjP6LLw&utm_campaign=yelp_api_v3&utm_medium=api_v3_business_search&utm_source=Klanz-jboxl2XzqrjP6LLw", "review_count": 4263, "categories": [{"alias": "seafood", "title": "Seafood"}, {"alias": "italian", "title": "Italian"}, {"alias": "bars", "title": "Bars"}], "rating": 4.5, "coordinates": {"latitude": 37.79979, "longitude": -122.40834}, "transactions": ["delivery", "pickup"], "price": "$$", "location": {"address1": "552 Green St", "address2": "", "address3": "", "city": "San Francisco", "zip_code": "94133", "country": "US", "state": "CA", "display_address": ["552 Green St", "San Francisco, CA 94133"]}, "phone": "+14153983181", "display_phone": "(415) 398-3181", "distance": 4976.893507610494}], "total": 1800, "region": {"center": {"longitude": -122.43644714355469, "latitude": 37.76089938976322}}}