{"businesses": [{"id": "Mavr1mEE-CCP3GHTKle7BA", "alias": "cajun-house-san-francisco-2", "name": "Cajun House", "image_url": "https://s3-media1.fl.yelpcdn.com/bphoto/cU4-1wMhhP76uOA4WRhO3g/o.jpg", "is_closed": false, "url": "https://www.yelp.com/biz/cajun-house-san-francisco-2?adjust_creative=Klanz-jboxl2XzqrjP6LLw&utm_campaign=yelp_api_v3&utm_medium=api_v3_business_search&utm_source=Klanz-jboxl2XzqrjP6LLw", "review_count": 606, "categories": [{"alias": "cajun", "title": "Cajun/Creole"}, {"alias": "seafood", "title": "Seafood"}, {"alias": "asianfusion", "title": "Asian Fusion"}], "rating": 3.5, "coordinates": {"latitude": 37.7826987327077, "longitude": -122.463170662522}, "transactions": ["pickup", "delivery"], "price": "$$", "location": {"address1": "308 5th Ave", "address2": "", "address3": "", "city": "San Francisco", "zip_code": "94118", "country": "US", "state": "CA", "display_address": ["308 5th Ave", "San Francisco, CA 94118"]}, "phone": "+14153403180", "display_phone": "(415) 340-3180", "distance": 3375.3172673050317}, {"id": "JWejPF1dVW29p2MZHUdw1A", "alias": "pakwan-restaurant-san-francisco-10", "name": "Pakwan Restaurant", "image_url": "https://s3-media2.fl.yelpcdn.com/bphoto/jKRBmuAeS388hQWbHMSrwA/o.jpg", "is_closed": false, "url": "https://www.yelp.com/biz/pakwan-restaurant-san-francisco-10?adjust_creative=Klanz-jboxl2XzqrjP6LLw&utm_campaign=yelp_api_v3&utm_medium=api_v3_business_search&utm_source=Klanz-jboxl2XzqrjP6LLw", "review_count": 397, "categories": [{"alias": "halal", "title": "Halal"}, {"alias": "indpak", "title": "Indian"}, {"alias": "pakistani", "title": "Pakistani"}], "rating": 4.0, "coordinates": {"latitude": 37.723777, "longitude": -122.45397}, "transactions": ["delivery"], "price": "$$", "location": {"address1": "1140 Ocean Ave", "address2": null, "address3": null, "city": "San Francisco", "zip_code": "94112", "country": "US", "state": "CA", "display_address": ["1140 Ocean Ave", "San Francisco, CA 94112"]}, "phone": "+14158418400", "display_phone": "(415) 841-8400", "distance": 4406.004043720243}, {"id": "M175LTlKPJjAWREIUPyMGg", "alias": "sushi-zone-san-francisco", "name": "Sushi Zone", "image_url": "https://s3-media1.fl.yelpcdn.com/bphoto/B5QNqpoJW0DQh5yuOvKhew/o.jpg", "is_closed": false, "url": "https://www.yelp.com/biz/sushi-zone-san-francisco?adjust_creative=Klanz-jboxl2XzqrjP6LLw&utm_campaign=yelp_api_v3&utm_medium=api_v3_business_search&utm_source=Klanz-jboxl2XzqrjP6LLw", "review_count": 1057, "categories": [{"alias": "sushi", "title": "Sushi Bars"}, {"alias": "japanese", "title": "Japanese"}], "rating": 4.0, "coordinates": {"latitude": 37.7711651322979, "longitude": -122.423915188557}, "transactions": ["delivery"], "price": "$$", "location": {"address1": "1815 Market St", "address2": "", "address3": "", "city": "San Francisco", "zip_code": "94103", "country": "US", "state": "CA", "display_address": ["1815 Market St", "San Francisco, CA 94103"]}, "phone": "+14156211114", "display_phone": "(415) 621-1114", "distance": 1586.3447736863648}, {"id": "BUKaKTt48zFHmLWOtxjRLQ", "alias": "henrys-hunan-restaurant-san-francisco-4", "name": "Henry's Hunan Restaurant", "image_url": "https://s3-media2.fl.yelpcdn.com/bphoto/tvjPA-_7lx2VL34xxkg-PQ/o.jpg", "is_closed": false, "url": "https://www.yelp.com/biz/henrys-hunan-restaurant-san-francisco-4?adjust_creative=Klanz-jboxl2XzqrjP6LLw&utm_campaign=yelp_api_v3&utm_medium=api_v3_business_search&utm_source=Klanz-jboxl2XzqrjP6LLw", "review_count": 287, "categories": [{"alias": "chinese", "title": "Chinese"}], "rating": 3.5, "coordinates": {"latitude": 37.79377, "longitude": -122.40415}, "transactions": ["delivery"], "price": "$", "location": {"address1": "674 Sacramento St", "address2": "", "address3": "", "city": "San Francisco", "zip_code": "94111", "country": "US", "state": "CA", "display_address": ["674 Sacramento St", "San Francisco, CA 94111"]}, "phone": "+14157882234", "display_phone": "(415) 788-2234", "distance": 4632.457093362989}, {"id": "-pt_Hox9jyNvY9rpo3ZoiQ", "alias": "giant-scoop-cafe-san-francisco", "name": "Giant Scoop Cafe", "image_url": "https://s3-media4.fl.yelpcdn.com/bphoto/Ego92VotuEFU8K5dN0fQMg/o.jpg", "is_closed": false, "url": "https://www.yelp.com/biz/giant-scoop-cafe-san-francisco?adjust_creative=Klanz-jboxl2XzqrjP6LLw&utm_campaign=yelp_api_v3&utm_medium=api_v3_business_search&utm_source=Klanz-jboxl2XzqrjP6LLw", "review_count": 25, "categories": [{"alias": "chinese", "title": "Chinese"}, {"alias": "icecream", "title": "Ice Cream & Frozen Yogurt"}, {"alias": "cafes", "title": "Cafes"}], "rating": 4.0, "coordinates": {"latitude": 37.7273799, "longitude": -122.40379}, "transactions": [], "price": "$", "location": {"address1": "2708 San Bruno Ave", "address2": "", "address3": "", "city": "San Francisco", "zip_code": "94134", "country": "US", "state": "CA", "display_address": ["2708 San Bruno Ave", "San Francisco, CA 94134"]}, "phone": "+14154675051", "display_phone": "(415) 467-5051", "distance": 4706.520314436836}, {"id": "u39mZEYojBiNic3lqKhPNw", "alias": "tacorea-san-francisco", "name": "Tacorea", "image_url": "https://s3-media4.fl.yelpcdn.com/bphoto/PQsEAnW8KP-PSjHpgMbjGw/o.jpg", "is_closed": false, "url": "https://www.yelp.com/biz/tacorea-san-francisco?adjust_creative=Klanz-jboxl2XzqrjP6LLw&utm_campaign=yelp_api_v3&utm_medium=api_v3_business_search&utm_source=Klanz-jboxl2XzqrjP6LLw", "review_count": 1826, "categories": [{"alias": "mexican", "title": "Mexican"}, {"alias": "korean", "title": "Korean"}, {"alias": "breakfast_brunch", "title": "Breakfast & Brunch"}], "rating": 4.5, "coordinates": {"latitude": 37.7897794, "longitude": -122.410717}, "transactions": [], "price": "$$", "location": {"address1": "809 Bush St", "address2": "", "address3": null, "city": "San Francisco", "zip_code": "94108", "country": "US", "state": "CA", "display_address": ["809 Bush St", "San Francisco, CA 94108"]}, "phone": "+14154848911", "display_phone": "(415) 484-8911", "distance": 3930.8433222931662}, {"id": "XlXxYzt5xtVHTbiK5fTM2g", "alias": "lai-lai-restaurant-millbrae", "name": "Lai Lai Restaurant", "image_url": "https://s3-media2.fl.yelpcdn.com/bphoto/5RrpOnbP8pan6LNmEqzlZw/o.jpg", "is_closed": false, "url": "https://www.yelp.com/biz/lai-lai-restaurant-millbrae?adjust_creative=Klanz-jboxl2XzqrjP6LLw&utm_campaign=yelp_api_v3&utm_medium=api_v3_business_search&utm_source=Klanz-jboxl2XzqrjP6LLw", "review_count": 379, "categories": [{"alias": "chinese", "title": "Chinese"}, {"alias": "asianfusion", "title": "Asian Fusion"}], "rating": 4.0, "coordinates": {"latitude": 37.601245, "longitude": -122.391936}, "transactions": ["pickup", "delivery"], "price": "$$", "location": {"address1": "334 Broadway", "address2": "", "address3": "", "city": "Millbrae", "zip_code": "94030", "country": "US", "state": "CA", "display_address": ["334 Broadway", "Millbrae, CA 94030"]}, "phone": "+16506928898", "display_phone": "(650) 692-8898", "distance": 18179.748916260556}, {"id": "QUjNY3ekaWbcSx5fhE6DTg", "alias": "dumpling-era-san-bruno", "name": "Dumpling Era", "image_url": "https://s3-media1.fl.yelpcdn.com/bphoto/U4mlxktRgVxHz6h_N-v4aQ/o.jpg", "is_closed": false, "url": "https://www.yelp.com/biz/dumpling-era-san-bruno?adjust_creative=Klanz-jboxl2XzqrjP6LLw&utm_campaign=yelp_api_v3&utm_medium=api_v3_business_search&utm_source=Klanz-jboxl2XzqrjP6LLw", "review_count": 287, "categories": [{"alias": "chinese", "title": "Chinese"}], "rating": 4.0, "coordinates": {"latitude": 37.620472, "longitude": -122.410489}, "transactions": ["delivery", "pickup"], "price": "$$", "location": {"address1": "354 El Camino Real", "address2": "", "address3": null, "city": "San Bruno", "zip_code": "94066", "country": "US", "state": "CA", "display_address": ["354 El Camino Real", "San Bruno, CA 94066"]}, "phone": "+16507379899", "display_phone": "(650) 737-9899", "distance": 15781.922993542597}, {"id": "sQaHwhP1s9wVOencbEGrkQ", "alias": "new-hollywood-bakery-and-restaurant-san-francisco-2", "name": "New Hollywood Bakery & Restaurant", "image_url": "https://s3-media3.fl.yelpcdn.com/bphoto/nk-gnrjf7DREHNdaf2O97Q/o.jpg", "is_closed": false, "url": "https://www.yelp.com/biz/new-hollywood-bakery-and-restaurant-san-francisco-2?adjust_creative=Klanz-jboxl2XzqrjP6LLw&utm_campaign=yelp_api_v3&utm_medium=api_v3_business_search&utm_source=Klanz-jboxl2XzqrjP6LLw", "review_count": 99, "categories": [{"alias": "bakeries", "title": "Bakeries"}, {"alias": "cantonese", "title": "Cantonese"}, {"alias": "noodles", "title": "Noodles"}], "rating": 4.0, "coordinates": {"latitude": 37.7969799935818, "longitude": -122.406636402011}, "transactions": ["delivery"], "price": "$", "location": {"address1": "652 Pacific Ave", "address2": "", "address3": "", "city": "San Francisco", "zip_code": "94133", "country": "US", "state": "CA", "display_address": ["652 Pacific Ave", "San Francisco, CA 94133"]}, "phone": "+14153979919", "display_phone": "(415) 397-9919", "distance": 4803.032745458967}, {"id": "U3sI7T8D8ZiRmVuHxfMJDg", "alias": "burma-superstar-alameda-2", "name": "Burma Superstar", "image_url": "https://s3-media2.fl.yelpcdn.com/bphoto/DBWE5juIDL8Wr5O0VBhx7g/o.jpg", "is_closed": false, "url": "https://www.yelp.com/biz/burma-superstar-alameda-2?adjust_creative=Klanz-jboxl2XzqrjP6LLw&utm_campaign=yelp_api_v3&utm_medium=api_v3_business_search&utm_source=Klanz-jboxl2XzqrjP6LLw", "review_count": 2043, "categories": [{"alias": "burmese", "title": "Burmese"}], "rating": 4.0, "coordinates": {"latitude": 37.76369, "longitude": -122.24344}, "transactions": ["delivery"], "price": "$$", "location": {"address1": "1345 Park St", "address2": "", "address3": "", "city": "Alameda", "zip_code": "94501", "country": "US", "state": "CA", "display_address": ["1345 Park St", "Alameda, CA 94501"]}, "phone": "+15105226200", "display_phone": "(510) 522-6200", "distance": 16958.46991214114}, {"id": "XcLM0kkQCQ01jQHyOx3EEQ", "alias": "gourmet-village-millbrae", "name": "Gourmet Village", "image_url": "https://s3-media2.fl.yelpcdn.com/bphoto/0y9X7qVkuy6ctw7R-hy9eQ/o.jpg", "is_closed": false, "url": "https://www.yelp.com/biz/gourmet-village-millbrae?adjust_creative=Klanz-jboxl2XzqrjP6LLw&utm_campaign=yelp_api_v3&utm_medium=api_v3_business_search&utm_source=Klanz-jboxl2XzqrjP6LLw", "review_count": 192, "categories": [{"alias": "chinese", "title": "Chinese"}, {"alias": "asianfusion", "title": "Asian Fusion"}], "rating": 3.0, "coordinates": {"latitude": 37.6021, "longitude": -122.3937}, "transactions": ["delivery", "pickup"], "price": "$$", "location": {"address1": "465 Broadway", "address2": "", "address3": "", "city": "Millbrae", "zip_code": "94030", "country": "US", "state": "CA", "display_address": ["465 Broadway", "Millbrae, CA 94030"]}, "phone": "+16502399183", "display_phone": "(650) 239-9183", "distance": 18051.37299098505}, {"id": "OgTQEP1iWn7BEEKdjpT0sA", "alias": "heavenly-cafe-san-francisco-3", "name": "Heavenly Cafe", "image_url": "https://s3-media2.fl.yelpcdn.com/bphoto/qf1EXX_xCIjE4R_f1XqL1Q/o.jpg", "is_closed": false, "url": "https://www.yelp.com/biz/heavenly-cafe-san-francisco-3?adjust_creative=Klanz-jboxl2XzqrjP6LLw&utm_campaign=yelp_api_v3&utm_medium=api_v3_business_search&utm_source=Klanz-jboxl2XzqrjP6LLw", "review_count": 64, "categories": [{"alias": "japanese", "title": "Japanese"}, {"alias": "korean", "title": "Korean"}, {"alias": "burgers", "title": "Burgers"}], "rating": 4.0, "coordinates": {"latitude": 37.74366, "longitude": -122.43993}, "transactions": ["delivery", "pickup"], "price": "$$", "location": {"address1": "5214 Diamond Heights Blvd", "address2": "", "address3": null, "city": "San Francisco", "zip_code": "94131", "country": "US", "state": "CA", "display_address": ["5214 Diamond Heights Blvd", "San Francisco, CA 94131"]}, "phone": "+14156587175", "display_phone": "(415) 658-7175", "distance": 1937.4890808930272}, {"id": "8kck3-K4zYKTJbJko0JlXQ", "alias": "farmhouse-kitchen-thai-cuisine-san-francisco", "name": "Farmhouse Kitchen Thai Cuisine", "image_url": "https://s3-media4.fl.yelpcdn.com/bphoto/kUlEaPpv0JGlHG_nrPr7wQ/o.jpg", "is_closed": false, "url": "https://www.yelp.com/biz/farmhouse-kitchen-thai-cuisine-san-francisco?adjust_creative=Klanz-jboxl2XzqrjP6LLw&utm_campaign=yelp_api_v3&utm_medium=api_v3_business_search&utm_source=Klanz-jboxl2XzqrjP6LLw", "review_count": 3063, "categories": [{"alias": "thai", "title": "Thai"}, {"alias": "comfortfood", "title": "Comfort Food"}], "rating": 4.0, "coordinates": {"latitude": 37.760192883932795, "longitude": -122.4114188698492}, "transactions": ["delivery", "restaurant_reservation", "pickup"], "price": "$$", "location": {"address1": "710 Florida St", "address2": "", "address3": "", "city": "San Francisco", "zip_code": "94110", "country": "US", "state": "CA", "display_address": ["710 Florida St", "San Francisco, CA 94110"]}, "phone": "+14158142920", "display_phone": "(415) 814-2920", "distance": 2201.588555604964}, {"id": "JSWgCOJ3zuegIhkTAfW7yQ", "alias": "marnee-thai-san-francisco-2", "name": "Marnee Thai", "image_url": "https://s3-media1.fl.yelpcdn.com/bphoto/gdeX343-yYSVXbH1za3E-A/o.jpg", "is_closed": false, "url": "https://www.yelp.com/biz/marnee-thai-san-francisco-2?adjust_creative=Klanz-jboxl2XzqrjP6LLw&utm_campaign=yelp_api_v3&utm_medium=api_v3_business_search&utm_source=Klanz-jboxl2XzqrjP6LLw", "review_count": 1709, "categories": [{"alias": "thai", "title": "Thai"}], "rating": 4.0, "coordinates": {"latitude": 37.76513, "longitude": -122.46671}, "transactions": ["pickup", "delivery"], "price": "$$", "location": {"address1": "1243 9th Ave", "address2": "", "address3": "", "city": "San Francisco", "zip_code": "94122", "country": "US", "state": "CA", "display_address": ["1243 9th Ave", "San Francisco, CA 94122"]}, "phone": "+14157319999", "display_phone": "(415) 731-9999", "distance": 2692.5974491857596}, {"id": "23V7g4GuIJW1JWgLidewog", "alias": "dinosaurs-vietnamese-sandwiches-san-francisco-3", "name": "Dinosaurs Vietnamese Sandwiches", "image_url": "https://s3-media4.fl.yelpcdn.com/bphoto/nnTW00v6C44-8bzqj5_PMg/o.jpg", "is_closed": false, "url": "https://www.yelp.com/biz/dinosaurs-vietnamese-sandwiches-san-francisco-3?adjust_creative=Klanz-jboxl2XzqrjP6LLw&utm_campaign=yelp_api_v3&utm_medium=api_v3_business_search&utm_source=Klanz-jboxl2XzqrjP6LLw", "review_count": 738, "categories": [{"alias": "sandwiches", "title": "Sandwiches"}, {"alias": "vietnamese", "title": "Vietnamese"}, {"alias": "juicebars", "title": "Juice Bars & Smoothies"}], "rating": 4.0, "coordinates": {"latitude": 37.7315483093262, "longitude": -122.472511291504}, "transactions": ["pickup", "delivery"], "price": "$", "location": {"address1": "2522 Ocean Ave", "address2": "", "address3": "", "city": "San Francisco", "zip_code": "94132", "country": "US", "state": "CA", "display_address": ["2522 Ocean Ave", "San Francisco, CA 94132"]}, "phone": "+14153341421", "display_phone": "(415) 334-1421", "distance": 4550.442967220208}, {"id": "lItF2bB6Vlae5wD2q7lLvw", "alias": "fishmandu-sushi-san-francisco-3", "name": "Fishmandu Sushi", "image_url": "https://s3-media2.fl.yelpcdn.com/bphoto/-W4SuAU0sZ01bJVYZwaHXg/o.jpg", "is_closed": false, "url": "https://www.yelp.com/biz/fishmandu-sushi-san-francisco-3?adjust_creative=Klanz-jboxl2XzqrjP6LLw&utm_campaign=yelp_api_v3&utm_medium=api_v3_business_search&utm_source=Klanz-jboxl2XzqrjP6LLw", "review_count": 109, "categories": [{"alias": "sushi", "title": "Sushi Bars"}, {"alias": "japanese", "title": "Japanese"}, {"alias": "seafood", "title": "Seafood"}], "rating": 4.5, "coordinates": {"latitude": 37.786373, "longitude": -122.417226}, "transactions": ["delivery", "pickup"], "location": {"address1": "846 Geary St", "address2": null, "address3": "", "city": "San Francisco", "zip_code": "94109", "country": "US", "state": "CA", "display_address": ["846 Geary St", "San Francisco, CA 94109"]}, "phone": "+14158008777", "display_phone": "(415) 800-8777", "distance": 3298.0745263263775}, {"id": "cac6q5C271Yve86zQl5ScQ", "alias": "banhwich-san-francisco", "name": "Banhwich", "image_url": "https://s3-media4.fl.yelpcdn.com/bphoto/Lu2Jkw21vvODhfdJC4abrA/o.jpg", "is_closed": false, "url": "https://www.yelp.com/biz/banhwich-san-francisco?adjust_creative=Klanz-jboxl2XzqrjP6LLw&utm_campaign=yelp_api_v3&utm_medium=api_v3_business_search&utm_source=Klanz-jboxl2XzqrjP6LLw", "review_count": 264, "categories": [{"alias": "vietnamese", "title": "Vietnamese"}, {"alias": "sandwiches", "title": "Sandwiches"}], "rating": 4.0, "coordinates": {"latitude": 37.7427879, "longitude": -122.478063}, "transactions": ["delivery"], "price": "$", "location": {"address1": "1105 Taraval St", "address2": "", "address3": "", "city": "San Francisco", "zip_code": "94116", "country": "US", "state": "CA", "display_address": ["1105 Taraval St", "San Francisco, CA 94116"]}, "phone": "+14156652233", "display_phone": "(415) 665-2233", "distance": 4176.435688776582}, {"id": "aUjc_iwTfSR0ZtHCp3IuZA", "alias": "wang-dae-bak-san-francisco-3", "name": "Wang Dae Bak", "image_url": "https://s3-media1.fl.yelpcdn.com/bphoto/I_rszCVKztYi1L6tJ1NaMA/o.jpg", "is_closed": false, "url": "https://www.yelp.com/biz/wang-dae-bak-san-francisco-3?adjust_creative=Klanz-jboxl2XzqrjP6LLw&utm_campaign=yelp_api_v3&utm_medium=api_v3_business_search&utm_source=Klanz-jboxl2XzqrjP6LLw", "review_count": 316, "categories": [{"alias": "korean", "title": "Korean"}, {"alias": "bars", "title": "Bars"}], "rating": 3.5, "coordinates": {"latitude": 37.73210131803881, "longitude": -122.4738580233134}, "transactions": ["delivery"], "price": "$$", "location": {"address1": "2642 Ocean Ave", "address2": "", "address3": "", "city": "San Francisco", "zip_code": "94132", "country": "US", "state": "CA", "display_address": ["2642 Ocean Ave", "San Francisco, CA 94132"]}, "phone": "+14155641500", "display_phone": "(415) 564-1500", "distance": 4590.623633048614}, {"id": "wgr1OpJ1uwuT-wZ4VPJTTA", "alias": "dong-baek-restaurant-san-francisco", "name": "Dong Baek Restaurant", "image_url": "https://s3-media3.fl.yelpcdn.com/bphoto/pXhuwKvuA38diAGSw_ZTOA/o.jpg", "is_closed": false, "url": "https://www.yelp.com/biz/dong-baek-restaurant-san-francisco?adjust_creative=Klanz-jboxl2XzqrjP6LLw&utm_campaign=yelp_api_v3&utm_medium=api_v3_business_search&utm_source=Klanz-jboxl2XzqrjP6LLw", "review_count": 278, "categories": [{"alias": "korean", "title": "Korean"}], "rating": 3.5, "coordinates": {"latitude": 37.78523, "longitude": -122.41512}, "transactions": ["delivery", "pickup"], "price": "$$", "location": {"address1": "631 O'Farrell St", "address2": "", "address3": "", "city": "San Francisco", "zip_code": "94109", "country": "US", "state": "CA", "display_address": ["631 O'Farrell St", "San Francisco, CA 94109"]}, "phone": "+14157761898", "display_phone": "(415) 776-1898", "distance": 3285.9336053782495}, {"id": "WnQoN1uV65vacUj0q1TgoQ", "alias": "volcano-san-francisco", "name": "Volcano", "image_url": "https://s3-media3.fl.yelpcdn.com/bphoto/mhYGCdduzVslyuq-ZTsbEA/o.jpg", "is_closed": false, "url": "https://www.yelp.com/biz/volcano-san-francisco?adjust_creative=Klanz-jboxl2XzqrjP6LLw&utm_campaign=yelp_api_v3&utm_medium=api_v3_business_search&utm_source=Klanz-jboxl2XzqrjP6LLw", "review_count": 1268, "categories": [{"alias": "japacurry", "title": "Japanese Curry"}], "rating": 4.0, "coordinates": {"latitude": 37.78067, "longitude": -122.47802}, "transactions": ["delivery", "pickup"], "price": "$$", "location": {"address1": "5454 Geary Blvd", "address2": "", "address3": "", "city": "San Francisco", "zip_code": "94121", "country": "US", "state": "CA", "display_address": ["5454 Geary Blvd", "San Francisco, CA 94121"]}, "phone": "+14157527671", "display_phone": "(415) 752-7671", "distance": 4278.539052885535}, {"id": "3iXNme_P4_lGk4BVEkghRw", "alias": "k-town-food-hall-san-francisco", "name": "K-Town Food Hall", "image_url": "https://s3-media1.fl.yelpcdn.com/bphoto/0XQqcTyPIWQy30waVyhLZQ/o.jpg", "is_closed": false, "url": "https://www.yelp.com/biz/k-town-food-hall-san-francisco?adjust_creative=Klanz-jboxl2XzqrjP6LLw&utm_campaign=yelp_api_v3&utm_medium=api_v3_business_search&utm_source=Klanz-jboxl2XzqrjP6LLw", "review_count": 2, "categories": [{"alias": "food_court", "title": "Food Court"}, {"alias": "korean", "title": "Korean"}], "rating": 3.5, "coordinates": {"latitude": 37.71049, "longitude": -122.46913}, "transactions": [], "location": {"address1": "3995 Alemany Blvd", "address2": "Ste A", "address3": null, "city": "San Francisco", "zip_code": "94132", "country": "US", "state": "CA", "display_address": ["3995 Alemany Blvd", "Ste A", "San Francisco, CA 94132"]}, "phone": "", "display_phone": "", "distance": 6273.8973600670715}, {"id": "fakmD43zMUXgxNaTmz1M3A", "alias": "ark-chinese-restaurant-alameda-2", "name": "Ark Chinese Restaurant", "image_url": "https://s3-media2.fl.yelpcdn.com/bphoto/ohnw-YvNTvltR9PZSOIaBg/o.jpg", "is_closed": false, "url": "https://www.yelp.com/biz/ark-chinese-restaurant-alameda-2?adjust_creative=Klanz-jboxl2XzqrjP6LLw&utm_campaign=yelp_api_v3&utm_medium=api_v3_business_search&utm_source=Klanz-jboxl2XzqrjP6LLw", "review_count": 587, "categories": [{"alias": "chinese", "title": "Chinese"}, {"alias": "noodles", "title": "Noodles"}], "rating": 3.5, "coordinates": {"latitude": 37.76454, "longitude": -122.24277}, "transactions": ["pickup"], "price": "$$", "location": {"address1": "1405 Park St", "address2": null, "address3": "", "city": "Alameda", "zip_code": "94501", "country": "US", "state": "CA", "display_address": ["1405 Park St", "Alameda, CA 94501"]}, "phone": "+15105216862", "display_phone": "(510) 521-6862", "distance": 17016.56566501633}, {"id": "97QeyQyyusp266BSYJHKmw", "alias": "lao-thai-kitchen-albany", "name": "Lao Thai Kitchen", "image_url": "https://s3-media3.fl.yelpcdn.com/bphoto/KBA_20rvPrjj8qVwjN5jBw/o.jpg", "is_closed": false, "url": "https://www.yelp.com/biz/lao-thai-kitchen-albany?adjust_creative=Klanz-jboxl2XzqrjP6LLw&utm_campaign=yelp_api_v3&utm_medium=api_v3_business_search&utm_source=Klanz-jboxl2XzqrjP6LLw", "review_count": 299, "categories": [{"alias": "thai", "title": "Thai"}, {"alias": "laotian", "title": "Laotian"}], "rating": 4.5, "coordinates": {"latitude": 37.89062, "longitude": -122.2892}, "transactions": ["delivery"], "price": "$$", "location": {"address1": "1406 Solano Ave", "address2": "", "address3": "", "city": "Albany", "zip_code": "94706", "country": "US", "state": "CA", "display_address": ["1406 Solano Ave", "Albany, CA 94706"]}, "phone": "+15105588915", "display_phone": "(510) 558-8915", "distance": 19374.579333883918}, {"id": "SIEPMmoI9itmaVSh-TSOpg", "alias": "sajj-mediterranean-san-francisco", "name": "SAJJ Mediterranean", "image_url": "https://s3-media4.fl.yelpcdn.com/bphoto/6zJrvuyOMF2_Cwux7cllUA/o.jpg", "is_closed": false, "url": "https://www.yelp.com/biz/sajj-mediterranean-san-francisco?adjust_creative=Klanz-jboxl2XzqrjP6LLw&utm_campaign=yelp_api_v3&utm_medium=api_v3_business_search&utm_source=Klanz-jboxl2XzqrjP6LLw", "review_count": 161, "categories": [{"alias": "mediterranean", "title": "Mediterranean"}, {"alias": "halal", "title": "Halal"}, {"alias": "mideastern", "title": "Middle Eastern"}], "rating": 4.0, "coordinates": {"latitude": 37.78125159915045, "longitude": -122.39173617269253}, "transactions": ["pickup", "delivery"], "price": "$$", "location": {"address1": "636 2nd St", "address2": null, "address3": "", "city": "San Francisco", "zip_code": "94107", "country": "US", "state": "CA", "display_address": ["636 2nd St", "San Francisco, CA 94107"]}, "phone": "+14156587577", "display_phone": "(415) 658-7577", "distance": 4534.920985743038}, {"id": "NqSVQ_DJZpVmCbJHaFcIsQ", "alias": "geta-oakland", "name": "Geta", "image_url": "https://s3-media1.fl.yelpcdn.com/bphoto/vRR7honMw5Nz5gqnAm6Xgw/o.jpg", "is_closed": false, "url": "https://www.yelp.com/biz/geta-oakland?adjust_creative=Klanz-jboxl2XzqrjP6LLw&utm_campaign=yelp_api_v3&utm_medium=api_v3_business_search&utm_source=Klanz-jboxl2XzqrjP6LLw", "review_count": 1772, "categories": [{"alias": "japanese", "title": "Japanese"}, {"alias": "sushi", "title": "Sushi Bars"}], "rating": 4.0, "coordinates": {"latitude": 37.82658, "longitude": -122.25293}, "transactions": ["delivery"], "price": "$$", "location": {"address1": "165 41st St", "address2": "", "address3": "", "city": "Oakland", "zip_code": "94611", "country": "US", "state": "CA", "display_address": ["165 41st St", "Oakland, CA 94611"]}, "phone": "+15106534643", "display_phone": "(510) 653-4643", "distance": 17701.236255094555}, {"id": "DiBP6TXGcOZ3VCzCwC3A6w", "alias": "manpuku-berkeley", "name": "Manpuku", "image_url": "https://s3-media1.fl.yelpcdn.com/bphoto/GaJHDmSMBnbbqbfWXK0l2w/o.jpg", "is_closed": false, "url": "https://www.yelp.com/biz/manpuku-berkeley?adjust_creative=Klanz-jboxl2XzqrjP6LLw&utm_campaign=yelp_api_v3&utm_medium=api_v3_business_search&utm_source=Klanz-jboxl2XzqrjP6LLw", "review_count": 1399, "categories": [{"alias": "japanese", "title": "Japanese"}], "rating": 3.5, "coordinates": {"latitude": 37.85666, "longitude": -122.2527}, "transactions": ["delivery"], "price": "$", "location": {"address1": "2977 College Ave", "address2": "", "address3": "", "city": "Berkeley", "zip_code": "94705", "country": "US", "state": "CA", "display_address": ["2977 College Ave", "Berkeley, CA 94705"]}, "phone": "+15108482536", "display_phone": "(510) 848-2536", "distance": 19334.04837980179}, {"id": "VNkYnTGhOYw-IzuKA_msHg", "alias": "the-thonglor-san-francisco-2", "name": "The Thonglor", "image_url": "https://s3-media4.fl.yelpcdn.com/bphoto/N91H4wB9_CHDzN4flsQ76g/o.jpg", "is_closed": false, "url": "https://www.yelp.com/biz/the-thonglor-san-francisco-2?adjust_creative=Klanz-jboxl2XzqrjP6LLw&utm_campaign=yelp_api_v3&utm_medium=api_v3_business_search&utm_source=Klanz-jboxl2XzqrjP6LLw", "review_count": 168, "categories": [{"alias": "thai", "title": "Thai"}, {"alias": "desserts", "title": "Desserts"}, {"alias": "soup", "title": "Soup"}], "rating": 4.5, "coordinates": {"latitude": 37.78726, "longitude": -122.41038}, "transactions": ["delivery", "pickup"], "price": "$$", "location": {"address1": "420 Geary St", "address2": null, "address3": "", "city": "San Francisco", "zip_code": "94102", "country": "US", "state": "CA", "display_address": ["420 Geary St", "San Francisco, CA 94102"]}, "phone": "+14153463121", "display_phone": "(415) 346-3121", "distance": 3717.7671164068825}, {"id": "A6D6wG5y0sqpaqJjgc8QeQ", "alias": "manoras-thai-cuisine-san-francisco", "name": "Manora's Thai Cuisine", "image_url": "https://s3-media2.fl.yelpcdn.com/bphoto/ws2d8mhe8aTou7OcBrAGcg/o.jpg", "is_closed": false, "url": "https://www.yelp.com/biz/manoras-thai-cuisine-san-francisco?adjust_creative=Klanz-jboxl2XzqrjP6LLw&utm_campaign=yelp_api_v3&utm_medium=api_v3_business_search&utm_source=Klanz-jboxl2XzqrjP6LLw", "review_count": 602, "categories": [{"alias": "thai", "title": "Thai"}, {"alias": "bars", "title": "Bars"}], "rating": 4.0, "coordinates": {"latitude": 37.77084, "longitude": -122.41528}, "transactions": ["pickup", "delivery"], "price": "$$", "location": {"address1": "1600 Folsom St", "address2": "", "address3": "", "city": "San Francisco", "zip_code": "94103", "country": "US", "state": "CA", "display_address": ["1600 Folsom St", "San Francisco, CA 94103"]}, "phone": "+14158616224", "display_phone": "(415) 861-6224", "distance": 2162.307845540294}, {"id": "LHd3X9Of8ymOE5X3_fd0eA", "alias": "moo-bong-ri-korean-restaurant-oakland", "name": "Moo Bong Ri Korean Restaurant", "image_url": "https://s3-media2.fl.yelpcdn.com/bphoto/f4YO5vOAi5H6_KN0z0Wr6w/o.jpg", "is_closed": false, "url": "https://www.yelp.com/biz/moo-bong-ri-korean-restaurant-oakland?adjust_creative=Klanz-jboxl2XzqrjP6LLw&utm_campaign=yelp_api_v3&utm_medium=api_v3_business_search&utm_source=Klanz-jboxl2XzqrjP6LLw", "review_count": 239, "categories": [{"alias": "korean", "title": "Korean"}, {"alias": "soup", "title": "Soup"}, {"alias": "chicken_wings", "title": "Chicken Wings"}], "rating": 4.5, "coordinates": {"latitude": 37.832094781567775, "longitude": -122.2630403}, "transactions": ["delivery", "pickup"], "price": "$$", "location": {"address1": "4390 Telegraph Ave", "address2": "Ste K", "address3": null, "city": "Oakland", "zip_code": "94609", "country": "US", "state": "CA", "display_address": ["4390 Telegraph Ave", "Ste K", "Oakland, CA 94609"]}, "phone": "+15106544606", "display_phone": "(510) 654-4606", "distance": 17170.351110401763}, {"id": "rae5BYOri8Def-VVYZzpSg", "alias": "sams-grill-and-seafood-restaurant-san-francisco", "name": "Sam's Grill & Seafood Restaurant", "image_url": "https://s3-media2.fl.yelpcdn.com/bphoto/lE-m1zXHvYleMGQYezem8w/o.jpg", "is_closed": false, "url": "https://www.yelp.com/biz/sams-grill-and-seafood-restaurant-san-francisco?adjust_creative=Klanz-jboxl2XzqrjP6LLw&utm_campaign=yelp_api_v3&utm_medium=api_v3_business_search&utm_source=Klanz-jboxl2XzqrjP6LLw", "review_count": 404, "categories": [{"alias": "seafood", "title": "Seafood"}, {"alias": "tradamerican", "title": "American (Traditional)"}], "rating": 3.5, "coordinates": {"latitude": 37.79101, "longitude": -122.40357}, "transactions": ["delivery"], "price": "$$$", "location": {"address1": "374 Bush St", "address2": "", "address3": "", "city": "San Francisco", "zip_code": "94104", "country": "US", "state": "CA", "display_address": ["374 Bush St", "San Francisco, CA 94104"]}, "phone": "+14154210594", "display_phone": "(415) 421-0594", "distance": 4421.05241328409}, {"id": "PnehZ8Y2Bec33xO8DCv4wA", "alias": "hikari-sushi-and-bar-san-francisco-3", "name": "Hikari Sushi & Bar", "image_url": "https://s3-media3.fl.yelpcdn.com/bphoto/5-aioDkIEN0xYgS4ulS3sg/o.jpg", "is_closed": false, "url": "https://www.yelp.com/biz/hikari-sushi-and-bar-san-francisco-3?adjust_creative=Klanz-jboxl2XzqrjP6LLw&utm_campaign=yelp_api_v3&utm_medium=api_v3_business_search&utm_source=Klanz-jboxl2XzqrjP6LLw", "review_count": 258, "categories": [{"alias": "sushi", "title": "Sushi Bars"}, {"alias": "conveyorsushi", "title": "Conveyor Belt Sushi"}], "rating": 3.5, "coordinates": {"latitude": 37.78577, "longitude": -122.4304}, "transactions": ["delivery", "restaurant_reservation", "pickup"], "price": "$$", "location": {"address1": "1734 Post St", "address2": "", "address3": null, "city": "San Francisco", "zip_code": "94115", "country": "US", "state": "CA", "display_address": ["1734 Post St", "San Francisco, CA 94115"]}, "phone": "+14158729116", "display_phone": "(415) 872-9116", "distance": 2821.4939649207536}, {"id": "liZzU2rRyDXKeCAE3eQU0w", "alias": "kitchen-of-alameda-alameda", "name": "Kitchen Of Alameda", "image_url": "https://s3-media3.fl.yelpcdn.com/bphoto/DKTI0ek-bU6nmK_1mINvWQ/o.jpg", "is_closed": false, "url": "https://www.yelp.com/biz/kitchen-of-alameda-alameda?adjust_creative=Klanz-jboxl2XzqrjP6LLw&utm_campaign=yelp_api_v3&utm_medium=api_v3_business_search&utm_source=Klanz-jboxl2XzqrjP6LLw", "review_count": 246, "categories": [{"alias": "chinese", "title": "Chinese"}], "rating": 3.5, "coordinates": {"latitude": 37.77707, "longitude": -122.277}, "transactions": ["pickup"], "price": "$", "location": {"address1": "1727 Webster St", "address2": "", "address3": "", "city": "Alameda", "zip_code": "94501", "country": "US", "state": "CA", "display_address": ["1727 Webster St", "Alameda, CA 94501"]}, "phone": "+15108651662", "display_phone": "(510) 865-1662", "distance": 14139.704076731032}, {"id": "Hoh0a4mT3KqbQsFNd8-NtA", "alias": "toss-noodle-bar-berkeley", "name": "Toss Noodle Bar", "image_url": "https://s3-media3.fl.yelpcdn.com/bphoto/0Dtl1kF_9TIY0o697PVIng/o.jpg", "is_closed": false, "url": "https://www.yelp.com/biz/toss-noodle-bar-berkeley?adjust_creative=Klanz-jboxl2XzqrjP6LLw&utm_campaign=yelp_api_v3&utm_medium=api_v3_business_search&utm_source=Klanz-jboxl2XzqrjP6LLw", "review_count": 1173, "categories": [{"alias": "asianfusion", "title": "Asian Fusion"}, {"alias": "thai", "title": "Thai"}, {"alias": "noodles", "title": "Noodles"}], "rating": 4.0, "coordinates": {"latitude": 37.8681334, "longitude": -122.2679719}, "transactions": ["delivery", "pickup"], "price": "$$", "location": {"address1": "2272 Shattuck Ave", "address2": "", "address3": "", "city": "Berkeley", "zip_code": "94704", "country": "US", "state": "CA", "display_address": ["2272 Shattuck Ave", "Berkeley, CA 94704"]}, "phone": "+15108458677", "display_phone": "(510) 845-8677", "distance": 19005.367200599536}, {"id": "r-NSN2mrefVCxqkquOWgaA", "alias": "mong-thu-cafe-san-francisco", "name": "Mong Thu Cafe", "image_url": "https://s3-media3.fl.yelpcdn.com/bphoto/7xnPDhBRuBMcjsD1qAGMzQ/o.jpg", "is_closed": false, "url": "https://www.yelp.com/biz/mong-thu-cafe-san-francisco?adjust_creative=Klanz-jboxl2XzqrjP6LLw&utm_campaign=yelp_api_v3&utm_medium=api_v3_business_search&utm_source=Klanz-jboxl2XzqrjP6LLw", "review_count": 124, "categories": [{"alias": "vietnamese", "title": "Vietnamese"}, {"alias": "sandwiches", "title": "Sandwiches"}, {"alias": "breakfast_brunch", "title": "Breakfast & Brunch"}], "rating": 4.5, "coordinates": {"latitude": 37.7831896, "longitude": -122.415642}, "transactions": ["delivery"], "price": "$$", "location": {"address1": "248 Hyde St", "address2": null, "address3": "", "city": "San Francisco", "zip_code": "94102", "country": "US", "state": "CA", "display_address": ["248 Hyde St", "San Francisco, CA 94102"]}, "phone": "+14159286724", "display_phone": "(415) 928-6724", "distance": 3088.686202093025}, {"id": "hsVba72138-HT46ccagwow", "alias": "spoon-korean-bistro-berkeley", "name": "Spoon Korean Bistro", "image_url": "https://s3-media2.fl.yelpcdn.com/bphoto/nKseIac0X6MYAN5I0HNLjg/o.jpg", "is_closed": false, "url": "https://www.yelp.com/biz/spoon-korean-bistro-berkeley?adjust_creative=Klanz-jboxl2XzqrjP6LLw&utm_campaign=yelp_api_v3&utm_medium=api_v3_business_search&utm_source=Klanz-jboxl2XzqrjP6LLw", "review_count": 920, "categories": [{"alias": "korean", "title": "Korean"}, {"alias": "noodles", "title": "Noodles"}, {"alias": "sushi", "title": "Sushi Bars"}], "rating": 4.0, "coordinates": {"latitude": 37.8516502, "longitude": -122.289917}, "transactions": ["delivery"], "price": "$$", "location": {"address1": "933 Ashby Ave", "address2": "", "address3": "", "city": "Berkeley", "zip_code": "94710", "country": "US", "state": "CA", "display_address": ["933 Ashby Ave", "Berkeley, CA 94710"]}, "phone": "+15107049555", "display_phone": "(510) 704-9555", "distance": 16360.1563371904}, {"id": "JVzvEB8MrcHmlDv-p7hI7g", "alias": "china-express-and-donut-san-francisco", "name": "China Express & Donut", "image_url": "https://s3-media4.fl.yelpcdn.com/bphoto/jvXRIce8d8I6_hA2ZBBOUQ/o.jpg", "is_closed": false, "url": "https://www.yelp.com/biz/china-express-and-donut-san-francisco?adjust_creative=Klanz-jboxl2XzqrjP6LLw&utm_campaign=yelp_api_v3&utm_medium=api_v3_business_search&utm_source=Klanz-jboxl2XzqrjP6LLw", "review_count": 11, "categories": [{"alias": "donuts", "title": "Donuts"}, {"alias": "chinese", "title": "Chinese"}, {"alias": "hotdogs", "title": "Fast Food"}], "rating": 3.5, "coordinates": {"latitude": 37.7523949742317, "longitude": -122.418556138873}, "transactions": [], "location": {"address1": "2798 Mission St", "address2": "", "address3": "", "city": "San Francisco", "zip_code": "94110", "country": "US", "state": "CA", "display_address": ["2798 Mission St", "San Francisco, CA 94110"]}, "phone": "+14156420881", "display_phone": "(415) 642-0881", "distance": 1848.9171735879106}, {"id": "5ZZeBf0SohPwM2EtRf7kpg", "alias": "izumi-kaiten-sushi-san-francisco", "name": "Izumi Kaiten Sushi", "image_url": "https://s3-media1.fl.yelpcdn.com/bphoto/-sXzolTCuOd_u3EQLLvLPw/o.jpg", "is_closed": false, "url": "https://www.yelp.com/biz/izumi-kaiten-sushi-san-francisco?adjust_creative=Klanz-jboxl2XzqrjP6LLw&utm_campaign=yelp_api_v3&utm_medium=api_v3_business_search&utm_source=Klanz-jboxl2XzqrjP6LLw", "review_count": 149, "categories": [{"alias": "conveyorsushi", "title": "Conveyor Belt Sushi"}], "rating": 3.5, "coordinates": {"latitude": 37.785401815385164, "longitude": -122.43029751899604}, "transactions": ["delivery", "pickup"], "price": "$$", "location": {"address1": "1737 Post St", "address2": null, "address3": null, "city": "San Francisco", "zip_code": "94115", "country": "US", "state": "CA", "display_address": ["1737 Post St", "San Francisco, CA 94115"]}, "phone": "+14158729545", "display_phone": "(415) 872-9545", "distance": 2777.639569717166}, {"id": "jU7vhPz-vUmjMlxMf9cTXA", "alias": "alnico-san-francisco", "name": "Alnico", "image_url": "https://s3-media3.fl.yelpcdn.com/bphoto/LvVaSvxq0mqH_FgZIDtiyw/o.jpg", "is_closed": false, "url": "https://www.yelp.com/biz/alnico-san-francisco?adjust_creative=Klanz-jboxl2XzqrjP6LLw&utm_campaign=yelp_api_v3&utm_medium=api_v3_business_search&utm_source=Klanz-jboxl2XzqrjP6LLw", "review_count": 180, "categories": [{"alias": "asianfusion", "title": "Asian Fusion"}, {"alias": "breakfast_brunch", "title": "Breakfast & Brunch"}, {"alias": "chicken_wings", "title": "Chicken Wings"}], "rating": 4.5, "coordinates": {"latitude": 37.755952, "longitude": -122.421328}, "transactions": ["restaurant_reservation"], "price": "$$", "location": {"address1": "1050 Valencia St", "address2": "", "address3": null, "city": "San Francisco", "zip_code": "94110", "country": "US", "state": "CA", "display_address": ["1050 Valencia St", "San Francisco, CA 94110"]}, "phone": "+14157570889", "display_phone": "(415) 757-0889", "distance": 1439.6342226547154}, {"id": "IJF-4E8Mhm5teI5RHrH5yw", "alias": "banh-mi-ba-le-oakland", "name": "Banh Mi Ba Le", "image_url": "https://s3-media1.fl.yelpcdn.com/bphoto/VxmkwTBpNRvVWS4y1B6kyg/o.jpg", "is_closed": false, "url": "https://www.yelp.com/biz/banh-mi-ba-le-oakland?adjust_creative=Klanz-jboxl2XzqrjP6LLw&utm_campaign=yelp_api_v3&utm_medium=api_v3_business_search&utm_source=Klanz-jboxl2XzqrjP6LLw", "review_count": 1257, "categories": [{"alias": "vietnamese", "title": "Vietnamese"}, {"alias": "sandwiches", "title": "Sandwiches"}], "rating": 4.5, "coordinates": {"latitude": 37.78606, "longitude": -122.24101}, "transactions": ["delivery"], "price": "$", "location": {"address1": "1909 International Blvd", "address2": "", "address3": "", "city": "Oakland", "zip_code": "94606", "country": "US", "state": "CA", "display_address": ["1909 International Blvd", "Oakland, CA 94606"]}, "phone": "+15102619800", "display_phone": "(510) 261-9800", "distance": 17408.811122543826}, {"id": "Vqq-m8VvLWH2pV5BZZeRoA", "alias": "dragoneats-san-francisco-7", "name": "DragonEats", "image_url": "https://s3-media3.fl.yelpcdn.com/bphoto/NxOlgFeoFRqRuIi2yKlbWg/o.jpg", "is_closed": false, "url": "https://www.yelp.com/biz/dragoneats-san-francisco-7?adjust_creative=Klanz-jboxl2XzqrjP6LLw&utm_campaign=yelp_api_v3&utm_medium=api_v3_business_search&utm_source=Klanz-jboxl2XzqrjP6LLw", "review_count": 255, "categories": [{"alias": "vietnamese", "title": "Vietnamese"}], "rating": 4.5, "coordinates": {"latitude": 37.769497, "longitude": -122.450111}, "transactions": ["delivery"], "price": "$", "location": {"address1": "1671 Haight St", "address2": "", "address3": "", "city": "San Francisco", "zip_code": "94117", "country": "US", "state": "CA", "display_address": ["1671 Haight St", "San Francisco, CA 94117"]}, "phone": "+14155226689", "display_phone": "(415) 522-6689", "distance": 1535.1107407297661}, {"id": "7CDYvq7H9RmtaInM8FEbtQ", "alias": "chinatown-restaurant-san-francisco-5", "name": "Chinatown Restaurant", "image_url": "https://s3-media3.fl.yelpcdn.com/bphoto/UccETFpnl9Whep2yCeJPNw/o.jpg", "is_closed": false, "url": "https://www.yelp.com/biz/chinatown-restaurant-san-francisco-5?adjust_creative=Klanz-jboxl2XzqrjP6LLw&utm_campaign=yelp_api_v3&utm_medium=api_v3_business_search&utm_source=Klanz-jboxl2XzqrjP6LLw", "review_count": 803, "categories": [{"alias": "chinese", "title": "Chinese"}], "rating": 2.0, "coordinates": {"latitude": 37.79539, "longitude": -122.40598}, "transactions": ["delivery", "pickup"], "price": "$$", "location": {"address1": "744 Washington St", "address2": "", "address3": "", "city": "San Francisco", "zip_code": "94108", "country": "US", "state": "CA", "display_address": ["744 Washington St", "San Francisco, CA 94108"]}, "phone": "+14153927958", "display_phone": "(415) 392-7958", "distance": 4675.176792029517}, {"id": "6KhSJxwHTQqHiaT35TDkQQ", "alias": "shalimar-san-francisco-4", "name": "Shalimar", "image_url": "https://s3-media4.fl.yelpcdn.com/bphoto/4sTbC0Cw3IBKck6O9encJA/o.jpg", "is_closed": false, "url": "https://www.yelp.com/biz/shalimar-san-francisco-4?adjust_creative=Klanz-jboxl2XzqrjP6LLw&utm_campaign=yelp_api_v3&utm_medium=api_v3_business_search&utm_source=Klanz-jboxl2XzqrjP6LLw", "review_count": 1451, "categories": [{"alias": "pakistani", "title": "Pakistani"}, {"alias": "indpak", "title": "Indian"}, {"alias": "halal", "title": "Halal"}], "rating": 4.0, "coordinates": {"latitude": 37.7862722814728, "longitude": -122.412946148479}, "transactions": ["delivery"], "price": "$$", "location": {"address1": "532 Jones St", "address2": "", "address3": null, "city": "San Francisco", "zip_code": "94102", "country": "US", "state": "CA", "display_address": ["532 Jones St", "San Francisco, CA 94102"]}, "phone": "+14159280333", "display_phone": "(415) 928-0333", "distance": 3496.6370603323585}, {"id": "kUdYNcEa37F0dKNwRVV6_Q", "alias": "china-villa-alameda", "name": "China Villa", "image_url": "https://s3-media3.fl.yelpcdn.com/bphoto/Ke6WilNuj0Z0rXPQ0cjSIA/o.jpg", "is_closed": false, "url": "https://www.yelp.com/biz/china-villa-alameda?adjust_creative=Klanz-jboxl2XzqrjP6LLw&utm_campaign=yelp_api_v3&utm_medium=api_v3_business_search&utm_source=Klanz-jboxl2XzqrjP6LLw", "review_count": 147, "categories": [{"alias": "chinese", "title": "Chinese"}], "rating": 3.5, "coordinates": {"latitude": 37.7369978, "longitude": -122.2390819}, "transactions": ["delivery", "pickup"], "price": "$$", "location": {"address1": "891 Island Dr", "address2": "Ste A", "address3": "", "city": "Alameda", "zip_code": "94502", "country": "US", "state": "CA", "display_address": ["891 Island Dr", "Ste A", "Alameda, CA 94502"]}, "phone": "+15105211911", "display_phone": "(510) 521-1911", "distance": 17418.162401045825}, {"id": "6J2LxhqhVPb0w7X0tL0TqQ", "alias": "shanghai-dumpling-shop-millbrae", "name": "Shanghai Dumpling Shop", "image_url": "https://s3-media3.fl.yelpcdn.com/bphoto/y_Bn6y4pDHqjiXXBYtSWng/o.jpg", "is_closed": false, "url": "https://www.yelp.com/biz/shanghai-dumpling-shop-millbrae?adjust_creative=Klanz-jboxl2XzqrjP6LLw&utm_campaign=yelp_api_v3&utm_medium=api_v3_business_search&utm_source=Klanz-jboxl2XzqrjP6LLw", "review_count": 1179, "categories": [{"alias": "shanghainese", "title": "Shanghainese"}, {"alias": "dimsum", "title": "Dim Sum"}], "rating": 3.5, "coordinates": {"latitude": 37.6020494998889, "longitude": -122.393563533732}, "transactions": [], "price": "$$", "location": {"address1": "455 Broadway", "address2": "", "address3": "", "city": "Millbrae", "zip_code": "94030", "country": "US", "state": "CA", "display_address": ["455 Broadway", "Millbrae, CA 94030"]}, "phone": "+16506970682", "display_phone": "(650) 697-0682", "distance": 18061.93193062966}, {"id": "GIl4gBFUknk9HJD3wvQI1Q", "alias": "keeva-indian-kitchen-san-francisco", "name": "Keeva Indian Kitchen", "image_url": "https://s3-media1.fl.yelpcdn.com/bphoto/OnXX7TBSmvEYvcz4cNWs3Q/o.jpg", "is_closed": false, "url": "https://www.yelp.com/biz/keeva-indian-kitchen-san-francisco?adjust_creative=Klanz-jboxl2XzqrjP6LLw&utm_campaign=yelp_api_v3&utm_medium=api_v3_business_search&utm_source=Klanz-jboxl2XzqrjP6LLw", "review_count": 613, "categories": [{"alias": "indpak", "title": "Indian"}, {"alias": "vegetarian", "title": "Vegetarian"}, {"alias": "mideastern", "title": "Middle Eastern"}], "rating": 4.5, "coordinates": {"latitude": 37.78295, "longitude": -122.46899}, "transactions": ["pickup", "delivery"], "price": "$$", "location": {"address1": "908 Clement St", "address2": "", "address3": null, "city": "San Francisco", "zip_code": "94118", "country": "US", "state": "CA", "display_address": ["908 Clement St", "San Francisco, CA 94118"]}, "phone": "+14153600606", "display_phone": "(415) 360-0606", "distance": 3762.3798457186303}, {"id": "9om4aMan41alsvJl36xuYQ", "alias": "urban-ka-re-house-alameda-2", "name": "Urban Ka-re House", "image_url": "https://s3-media2.fl.yelpcdn.com/bphoto/TVKTWOQLARIg0H_kdzgugg/o.jpg", "is_closed": false, "url": "https://www.yelp.com/biz/urban-ka-re-house-alameda-2?adjust_creative=Klanz-jboxl2XzqrjP6LLw&utm_campaign=yelp_api_v3&utm_medium=api_v3_business_search&utm_source=Klanz-jboxl2XzqrjP6LLw", "review_count": 113, "categories": [{"alias": "japacurry", "title": "Japanese Curry"}, {"alias": "noodles", "title": "Noodles"}, {"alias": "sandwiches", "title": "Sandwiches"}], "rating": 4.0, "coordinates": {"latitude": 37.75637016680708, "longitude": -122.25125071435897}, "transactions": ["delivery", "pickup"], "price": "$$", "location": {"address1": "411 S Shore Ctr", "address2": "", "address3": null, "city": "Alameda", "zip_code": "94501", "country": "US", "state": "CA", "display_address": ["411 S Shore Ctr", "Alameda, CA 94501"]}, "phone": "+15102638222", "display_phone": "(510) 263-8222", "distance": 16288.46079357103}, {"id": "RugBt_iLg_XWDwUlgGhlpg", "alias": "j-robata-ramen-and-grill-millbrae-2", "name": "J Robata Ramen and Grill", "image_url": "https://s3-media3.fl.yelpcdn.com/bphoto/N6bTWvMdPKxhqzB6YWARaQ/o.jpg", "is_closed": false, "url": "https://www.yelp.com/biz/j-robata-ramen-and-grill-millbrae-2?adjust_creative=Klanz-jboxl2XzqrjP6LLw&utm_campaign=yelp_api_v3&utm_medium=api_v3_business_search&utm_source=Klanz-jboxl2XzqrjP6LLw", "review_count": 117, "categories": [{"alias": "japanese", "title": "Japanese"}, {"alias": "tapasmallplates", "title": "Tapas/Small Plates"}], "rating": 4.0, "coordinates": {"latitude": 37.60127067, "longitude": -122.3908}, "transactions": ["delivery"], "price": "$$", "location": {"address1": "293 El Camino Real", "address2": "", "address3": null, "city": "Millbrae", "zip_code": "94030", "country": "US", "state": "CA", "display_address": ["293 El Camino Real", "Millbrae, CA 94030"]}, "phone": "+16507870962", "display_phone": "(650) 787-0962", "distance": 18206.044552333038}, {"id": "bBTRc2-Fq_ppT0b_i4v4iQ", "alias": "curry-up-now-san-francisco-5", "name": "Curry Up Now", "image_url": "https://s3-media2.fl.yelpcdn.com/bphoto/H6cQvlVOcGt-fH5TFvTsAg/o.jpg", "is_closed": false, "url": "https://www.yelp.com/biz/curry-up-now-san-francisco-5?adjust_creative=Klanz-jboxl2XzqrjP6LLw&utm_campaign=yelp_api_v3&utm_medium=api_v3_business_search&utm_source=Klanz-jboxl2XzqrjP6LLw", "review_count": 729, "categories": [{"alias": "indpak", "title": "Indian"}, {"alias": "gluten_free", "title": "Gluten-Free"}, {"alias": "halal", "title": "Halal"}], "rating": 4.0, "coordinates": {"latitude": 37.7623531, "longitude": -122.4213973}, "transactions": ["delivery", "pickup"], "price": "$$", "location": {"address1": "659 Valencia St", "address2": "", "address3": "", "city": "San Francisco", "zip_code": "94110", "country": "US", "state": "CA", "display_address": ["659 Valencia St", "San Francisco, CA 94110"]}, "phone": "+14159038700", "display_phone": "(415) 903-8700", "distance": 1332.8214205669187}, {"id": "NI49vg3BRErnPDDytqgkYQ", "alias": "nabe-san-francisco-3", "name": "Nabe", "image_url": "https://s3-media3.fl.yelpcdn.com/bphoto/abBSPcZZRtNBFlmLw19DrQ/o.jpg", "is_closed": false, "url": "https://www.yelp.com/biz/nabe-san-francisco-3?adjust_creative=Klanz-jboxl2XzqrjP6LLw&utm_campaign=yelp_api_v3&utm_medium=api_v3_business_search&utm_source=Klanz-jboxl2XzqrjP6LLw", "review_count": 545, "categories": [{"alias": "hotpot", "title": "Hot Pot"}, {"alias": "japanese", "title": "Japanese"}], "rating": 4.0, "coordinates": {"latitude": 37.76355023655015, "longitude": -122.46645184360641}, "transactions": ["delivery", "pickup"], "price": "$$", "location": {"address1": "1325 9th Ave", "address2": "", "address3": "", "city": "San Francisco", "zip_code": "94122", "country": "US", "state": "CA", "display_address": ["1325 9th Ave", "San Francisco, CA 94122"]}, "phone": "+14157312658", "display_phone": "(415) 731-2658", "distance": 2654.0136424470356}, {"id": "YUxj3mp8B4cHZnDVrpKMFQ", "alias": "shihlin-taiwan-street-snacks-berkeley", "name": "Shihlin Taiwan Street Snacks", "image_url": "https://s3-media3.fl.yelpcdn.com/bphoto/15dU5klSEO-J-N1djDRvjg/o.jpg", "is_closed": false, "url": "https://www.yelp.com/biz/shihlin-taiwan-street-snacks-berkeley?adjust_creative=Klanz-jboxl2XzqrjP6LLw&utm_campaign=yelp_api_v3&utm_medium=api_v3_business_search&utm_source=Klanz-jboxl2XzqrjP6LLw", "review_count": 229, "categories": [{"alias": "taiwanese", "title": "Taiwanese"}, {"alias": "hotdogs", "title": "Fast Food"}], "rating": 3.5, "coordinates": {"latitude": 37.86798321740931, "longitude": -122.2599769}, "transactions": ["delivery", "pickup"], "price": "$", "location": {"address1": "2431 Durant Ave", "address2": "Ste B", "address3": null, "city": "Berkeley", "zip_code": "94704", "country": "US", "state": "CA", "display_address": ["2431 Durant Ave", "Ste B", "Berkeley, CA 94704"]}, "phone": "+15108332645", "display_phone": "(510) 833-2645", "distance": 19547.057648954837}], "total": 1800, "region": {"center": {"longitude": -122.43644714355469, "latitude": 37.76089938976322}}}