{"businesses": [{"id": "Su1ay8vJyKsHZKQG_eluaA", "alias": "dragon-beaux-san-francisco", "name": "Dragon Beaux", "image_url": "https://s3-media2.fl.yelpcdn.com/bphoto/fmX3U2vlg_u60aRNVHNIqw/o.jpg", "is_closed": false, "url": "https://www.yelp.com/biz/dragon-beaux-san-francisco?adjust_creative=Klanz-jboxl2XzqrjP6LLw&utm_campaign=yelp_api_v3&utm_medium=api_v3_business_search&utm_source=Klanz-jboxl2XzqrjP6LLw", "review_count": 1897, "categories": [{"alias": "dimsum", "title": "Dim Sum"}, {"alias": "hotpot", "title": "Hot Pot"}], "rating": 4.0, "coordinates": {"latitude": 37.780504, "longitude": -122.480709}, "transactions": ["delivery", "pickup", "restaurant_reservation"], "price": "$$", "location": {"address1": "5700 Geary Blvd", "address2": "", "address3": "", "city": "San Francisco", "zip_code": "94121", "country": "US", "state": "CA", "display_address": ["5700 Geary Blvd", "San Francisco, CA 94121"]}, "phone": "+14153338899", "display_phone": "(415) 333-8899", "distance": 4459.919274452497}, {"id": "w6Rqt5gdNHl18wpxGuYnaQ", "alias": "yh-beijing-san-francisco-9", "name": "YH-Beijing", "image_url": "https://s3-media1.fl.yelpcdn.com/bphoto/L3JjZaCAKSfwE9wp6Zr1Ow/o.jpg", "is_closed": false, "url": "https://www.yelp.com/biz/yh-beijing-san-francisco-9?adjust_creative=Klanz-jboxl2XzqrjP6LLw&utm_campaign=yelp_api_v3&utm_medium=api_v3_business_search&utm_source=Klanz-jboxl2XzqrjP6LLw", "review_count": 182, "categories": [{"alias": "chinese", "title": "Chinese"}], "rating": 4.5, "coordinates": {"latitude": 37.77219859919826, "longitude": -122.43062306195498}, "transactions": ["delivery", "pickup"], "price": "$$", "location": {"address1": "500 Haight St", "address2": "", "address3": null, "city": "San Francisco", "zip_code": "94117", "country": "US", "state": "CA", "display_address": ["500 Haight St", "San Francisco, CA 94117"]}, "phone": "+14153559125", "display_phone": "(415) 355-9125", "distance": 1356.7089644966477}, {"id": "M0JTO3oyu6gxh1mfFjU-dA", "alias": "san-tung-san-francisco-2", "name": "San Tung", "image_url": "https://s3-media2.fl.yelpcdn.com/bphoto/w7Ps0DWg-n8DWHSq22Rtww/o.jpg", "is_closed": false, "url": "https://www.yelp.com/biz/san-tung-san-francisco-2?adjust_creative=Klanz-jboxl2XzqrjP6LLw&utm_campaign=yelp_api_v3&utm_medium=api_v3_business_search&utm_source=Klanz-jboxl2XzqrjP6LLw", "review_count": 7361, "categories": [{"alias": "chinese", "title": "Chinese"}, {"alias": "chicken_wings", "title": "Chicken Wings"}, {"alias": "noodles", "title": "Noodles"}], "rating": 4.0, "coordinates": {"latitude": 37.76378306790313, "longitude": -122.46900735179602}, "transactions": ["delivery"], "price": "$$", "location": {"address1": "1031 Irving St", "address2": "", "address3": "", "city": "San Francisco", "zip_code": "94122", "country": "US", "state": "CA", "display_address": ["1031 Irving St", "San Francisco, CA 94122"]}, "phone": "+14152420828", "display_phone": "(415) 242-0828", "distance": 2880.1394717686867}, {"id": "cHoNUKltOAJWSmNfsZ1h-w", "alias": "hunan-homes-restaurant-san-francisco", "name": "Hunan Home's Restaurant", "image_url": "https://s3-media2.fl.yelpcdn.com/bphoto/9yEHURixvXlPMAQeDr4Wrw/o.jpg", "is_closed": false, "url": "https://www.yelp.com/biz/hunan-homes-restaurant-san-francisco?adjust_creative=Klanz-jboxl2XzqrjP6LLw&utm_campaign=yelp_api_v3&utm_medium=api_v3_business_search&utm_source=Klanz-jboxl2XzqrjP6LLw", "review_count": 2321, "categories": [{"alias": "chinese", "title": "Chinese"}], "rating": 4.0, "coordinates": {"latitude": 37.79624545753096, "longitude": -122.40563168468626}, "transactions": ["delivery", "pickup"], "price": "$$", "location": {"address1": "622 Jackson St", "address2": "", "address3": "", "city": "San Francisco", "zip_code": "94133", "country": "US", "state": "CA", "display_address": ["622 Jackson St", "San Francisco, CA 94133"]}, "phone": "+14159822844", "display_phone": "(415) 982-2844", "distance": 4773.044759231953}, {"id": "ep1p6on0FScEKfYSsdftng", "alias": "empress-by-boon-san-francisco", "name": "Empress by Boon", "image_url": "https://s3-media3.fl.yelpcdn.com/bphoto/KmfbshLKWgBCovQ4tKiWRw/o.jpg", "is_closed": false, "url": "https://www.yelp.com/biz/empress-by-boon-san-francisco?adjust_creative=Klanz-jboxl2XzqrjP6LLw&utm_campaign=yelp_api_v3&utm_medium=api_v3_business_search&utm_source=Klanz-jboxl2XzqrjP6LLw", "review_count": 210, "categories": [{"alias": "cantonese", "title": "Cantonese"}], "rating": 4.0, "coordinates": {"latitude": 37.794825, "longitude": -122.406084}, "transactions": [], "price": "$$$$", "location": {"address1": "838 Grant Ave", "address2": null, "address3": null, "city": "San Francisco", "zip_code": "94108", "country": "US", "state": "CA", "display_address": ["838 Grant Ave", "San Francisco, CA 94108"]}, "phone": "+14157570728", "display_phone": "(415) 757-0728", "distance": 4624.396649088772}, {"id": "KWLvkrE8Tm8HrlGRzL5Gnw", "alias": "sichuan-tasty-restaurant-san-francisco-5", "name": "Sichuan Tasty Restaurant", "image_url": "https://s3-media3.fl.yelpcdn.com/bphoto/H7t-zFNgCfmLrL5Wh6yzIw/o.jpg", "is_closed": false, "url": "https://www.yelp.com/biz/sichuan-tasty-restaurant-san-francisco-5?adjust_creative=Klanz-jboxl2XzqrjP6LLw&utm_campaign=yelp_api_v3&utm_medium=api_v3_business_search&utm_source=Klanz-jboxl2XzqrjP6LLw", "review_count": 97, "categories": [{"alias": "chinese", "title": "Chinese"}, {"alias": "noodles", "title": "Noodles"}], "rating": 4.5, "coordinates": {"latitude": 37.782036, "longitude": -122.479008}, "transactions": ["delivery", "pickup"], "price": "$$", "location": {"address1": "1829 Clement St", "address2": null, "address3": "", "city": "San Francisco", "zip_code": "94121", "country": "US", "state": "CA", "display_address": ["1829 Clement St", "San Francisco, CA 94121"]}, "phone": "+14157026096", "display_phone": "(415) 702-6096", "distance": 4417.926153040345}, {"id": "XR4giIOCQ5D-mxtOPUUY_Q", "alias": "palette-tea-house-san-francisco-2", "name": "Palette Tea House", "image_url": "https://s3-media2.fl.yelpcdn.com/bphoto/deEL6muzhCHpCuHIt-9qww/o.jpg", "is_closed": false, "url": "https://www.yelp.com/biz/palette-tea-house-san-francisco-2?adjust_creative=Klanz-jboxl2XzqrjP6LLw&utm_campaign=yelp_api_v3&utm_medium=api_v3_business_search&utm_source=Klanz-jboxl2XzqrjP6LLw", "review_count": 1007, "categories": [{"alias": "dimsum", "title": "Dim Sum"}, {"alias": "seafood", "title": "Seafood"}, {"alias": "cantonese", "title": "Cantonese"}], "rating": 4.0, "coordinates": {"latitude": 37.805852, "longitude": -122.42293}, "transactions": ["delivery", "pickup", "restaurant_reservation"], "location": {"address1": "900 N Point St", "address2": "Ste B-201A", "address3": "", "city": "San Francisco", "zip_code": "94109", "country": "US", "state": "CA", "display_address": ["900 N Point St", "Ste B-201A", "San Francisco, CA 94109"]}, "phone": "+14153478888", "display_phone": "(415) 347-8888", "distance": 5109.360713877256}, {"id": "EcSIjxiaZ36vqCKAJ9ihIw", "alias": "rongs-san-francisco", "name": "Rong's", "image_url": "https://s3-media2.fl.yelpcdn.com/bphoto/fU6g0z0vwzPRML20g72RIQ/o.jpg", "is_closed": false, "url": "https://www.yelp.com/biz/rongs-san-francisco?adjust_creative=Klanz-jboxl2XzqrjP6LLw&utm_campaign=yelp_api_v3&utm_medium=api_v3_business_search&utm_source=Klanz-jboxl2XzqrjP6LLw", "review_count": 256, "categories": [{"alias": "cantonese", "title": "Cantonese"}], "rating": 4.5, "coordinates": {"latitude": 37.77603, "longitude": -122.49559}, "transactions": ["delivery", "pickup"], "price": "$$", "location": {"address1": "3420 Balboa St", "address2": "", "address3": null, "city": "San Francisco", "zip_code": "94121", "country": "US", "state": "CA", "display_address": ["3420 Balboa St", "San Francisco, CA 94121"]}, "phone": "+14157029918", "display_phone": "(415) 702-9918", "distance": 5464.8925706774635}, {"id": "BI40rGhpngLNPacrjWpseQ", "alias": "dumpling-kitchen-san-francisco", "name": "Dumpling Kitchen", "image_url": "https://s3-media1.fl.yelpcdn.com/bphoto/rggI1HG_kaABtAGNiuqF9Q/o.jpg", "is_closed": false, "url": "https://www.yelp.com/biz/dumpling-kitchen-san-francisco?adjust_creative=Klanz-jboxl2XzqrjP6LLw&utm_campaign=yelp_api_v3&utm_medium=api_v3_business_search&utm_source=Klanz-jboxl2XzqrjP6LLw", "review_count": 1806, "categories": [{"alias": "chinese", "title": "Chinese"}], "rating": 4.0, "coordinates": {"latitude": 37.7423, "longitude": -122.48701}, "transactions": ["delivery", "pickup"], "price": "$$", "location": {"address1": "1935 Taraval St", "address2": "", "address3": "", "city": "San Francisco", "zip_code": "94116", "country": "US", "state": "CA", "display_address": ["1935 Taraval St", "San Francisco, CA 94116"]}, "phone": "+14156828938", "display_phone": "(415) 682-8938", "distance": 4904.15624633216}, {"id": "TpxADhX5a9MU_4x8rN4f2Q", "alias": "wing-lum-cafe-san-francisco-3", "name": "Wing Lum cafe", "image_url": "https://s3-media4.fl.yelpcdn.com/bphoto/MIX8C4CJ8S-U_tiBFA3F_Q/o.jpg", "is_closed": false, "url": "https://www.yelp.com/biz/wing-lum-cafe-san-francisco-3?adjust_creative=Klanz-jboxl2XzqrjP6LLw&utm_campaign=yelp_api_v3&utm_medium=api_v3_business_search&utm_source=Klanz-jboxl2XzqrjP6LLw", "review_count": 31, "categories": [{"alias": "dimsum", "title": "Dim Sum"}, {"alias": "szechuan", "title": "Szechuan"}], "rating": 4.5, "coordinates": {"latitude": 37.787433, "longitude": -122.41988}, "transactions": ["delivery", "pickup"], "price": "$$", "location": {"address1": "1150 Polk St", "address2": null, "address3": "", "city": "San Francisco", "zip_code": "94109", "country": "US", "state": "CA", "display_address": ["1150 Polk St", "San Francisco, CA 94109"]}, "phone": "+14157716888", "display_phone": "(415) 771-6888", "distance": 3297.1049254823706}, {"id": "p22TPx1EFZcuEzl2qhuzGA", "alias": "mister-jius-san-francisco", "name": "Mister Jiu's", "image_url": "https://s3-media3.fl.yelpcdn.com/bphoto/sn7qAQeAgKcCe1wAIZKo2g/o.jpg", "is_closed": false, "url": "https://www.yelp.com/biz/mister-jius-san-francisco?adjust_creative=Klanz-jboxl2XzqrjP6LLw&utm_campaign=yelp_api_v3&utm_medium=api_v3_business_search&utm_source=Klanz-jboxl2XzqrjP6LLw", "review_count": 831, "categories": [{"alias": "chinese", "title": "Chinese"}], "rating": 4.0, "coordinates": {"latitude": 37.7937724, "longitude": -122.4067594}, "transactions": ["delivery"], "price": "$$$$", "location": {"address1": "28 Waverly Pl", "address2": "", "address3": "", "city": "San Francisco", "zip_code": "94108", "country": "US", "state": "CA", "display_address": ["28 Waverly Pl", "San Francisco, CA 94108"]}, "phone": "+14158579688", "display_phone": "(415) 857-9688", "distance": 4491.012583654824}, {"id": "eYXwVR4mMAjzkJnm5wneHQ", "alias": "burma-superstar-san-francisco-2", "name": "Burma Superstar", "image_url": "https://s3-media4.fl.yelpcdn.com/bphoto/Rt-zOS-uNY0cafsq1UeoDw/o.jpg", "is_closed": false, "url": "https://www.yelp.com/biz/burma-superstar-san-francisco-2?adjust_creative=Klanz-jboxl2XzqrjP6LLw&utm_campaign=yelp_api_v3&utm_medium=api_v3_business_search&utm_source=Klanz-jboxl2XzqrjP6LLw", "review_count": 7040, "categories": [{"alias": "burmese", "title": "Burmese"}], "rating": 4.0, "coordinates": {"latitude": 37.782787322998, "longitude": -122.462539672852}, "transactions": ["delivery", "pickup"], "price": "$$", "location": {"address1": "309 Clement St", "address2": "", "address3": "", "city": "San Francisco", "zip_code": "94118", "country": "US", "state": "CA", "display_address": ["309 Clement St", "San Francisco, CA 94118"]}, "phone": "+14153872147", "display_phone": "(415) 387-2147", "distance": 3348.056372269087}, {"id": "GzOumj6_QOeQByuc_0yajQ", "alias": "z-and-y-restaurant-san-francisco-3", "name": "Z & Y Restaurant", "image_url": "https://s3-media2.fl.yelpcdn.com/bphoto/c5OhQCnCXClBEngrz4jgMw/o.jpg", "is_closed": false, "url": "https://www.yelp.com/biz/z-and-y-restaurant-san-francisco-3?adjust_creative=Klanz-jboxl2XzqrjP6LLw&utm_campaign=yelp_api_v3&utm_medium=api_v3_business_search&utm_source=Klanz-jboxl2XzqrjP6LLw", "review_count": 1906, "categories": [{"alias": "chinese", "title": "Chinese"}, {"alias": "seafood", "title": "Seafood"}], "rating": 3.5, "coordinates": {"latitude": 37.796, "longitude": -122.406}, "transactions": ["delivery", "pickup", "restaurant_reservation"], "price": "$$", "location": {"address1": "655 Jackson St", "address2": "", "address3": "", "city": "San Francisco", "zip_code": "94133", "country": "US", "state": "CA", "display_address": ["655 Jackson St", "San Francisco, CA 94133"]}, "phone": "+14159818988", "display_phone": "(415) 981-8988", "distance": 4725.053029734407}, {"id": "9MIVq95YYLQyGODDsdAbOA", "alias": "sichuan-home-san-francisco", "name": "Sichuan Home", "image_url": "https://s3-media1.fl.yelpcdn.com/bphoto/P_4KExn4DLgDWMuSqu5o8w/o.jpg", "is_closed": false, "url": "https://www.yelp.com/biz/sichuan-home-san-francisco?adjust_creative=Klanz-jboxl2XzqrjP6LLw&utm_campaign=yelp_api_v3&utm_medium=api_v3_business_search&utm_source=Klanz-jboxl2XzqrjP6LLw", "review_count": 502, "categories": [{"alias": "szechuan", "title": "Szechuan"}], "rating": 4.0, "coordinates": {"latitude": 37.7804022, "longitude": -122.4736572}, "transactions": ["delivery", "pickup"], "price": "$$", "location": {"address1": "5037 Geary Blvd", "address2": "", "address3": "", "city": "San Francisco", "zip_code": "94118", "country": "US", "state": "CA", "display_address": ["5037 Geary Blvd", "San Francisco, CA 94118"]}, "phone": "+14152213288", "display_phone": "(415) 221-3288", "distance": 3919.134785765295}, {"id": "LNHBjjH0QRCHqyAYnFuNPw", "alias": "feng-ze-yuan-\u92d2\u5473\u9928-san-francisco", "name": "Feng Ze Yuan \u92d2\u5473\u9928", "image_url": "https://s3-media4.fl.yelpcdn.com/bphoto/L3mZoHP98KOtVnf7psSdog/o.jpg", "is_closed": false, "url": "https://www.yelp.com/biz/feng-ze-yuan-%E9%8B%92%E5%91%B3%E9%A4%A8-san-francisco?adjust_creative=Klanz-jboxl2XzqrjP6LLw&utm_campaign=yelp_api_v3&utm_medium=api_v3_business_search&utm_source=Klanz-jboxl2XzqrjP6LLw", "review_count": 88, "categories": [{"alias": "dimsum", "title": "Dim Sum"}, {"alias": "noodles", "title": "Noodles"}, {"alias": "bbq", "title": "Barbeque"}], "rating": 4.0, "coordinates": {"latitude": 37.7751699413949, "longitude": -122.506119869649}, "transactions": ["delivery", "pickup"], "price": "$$", "location": {"address1": "4401 Balboa St", "address2": "", "address3": null, "city": "San Francisco", "zip_code": "94121", "country": "US", "state": "CA", "display_address": ["4401 Balboa St", "San Francisco, CA 94121"]}, "phone": "+14157539386", "display_phone": "(415) 753-9386", "distance": 6326.409599293024}, {"id": "qMZ1svKKAOXQwfjisZjjCA", "alias": "wenchang-dumpling-restaurant-san-francisco", "name": "WenChang Dumpling Restaurant", "image_url": "https://s3-media1.fl.yelpcdn.com/bphoto/uMD0p3bR6f3qvwADfmk9mA/o.jpg", "is_closed": false, "url": "https://www.yelp.com/biz/wenchang-dumpling-restaurant-san-francisco?adjust_creative=Klanz-jboxl2XzqrjP6LLw&utm_campaign=yelp_api_v3&utm_medium=api_v3_business_search&utm_source=Klanz-jboxl2XzqrjP6LLw", "review_count": 15, "categories": [{"alias": "chinese", "title": "Chinese"}, {"alias": "noodles", "title": "Noodles"}, {"alias": "soup", "title": "Soup"}], "rating": 5.0, "coordinates": {"latitude": 37.77679, "longitude": -122.4767}, "transactions": ["delivery", "pickup"], "location": {"address1": "1650 Balboa St", "address2": null, "address3": "", "city": "San Francisco", "zip_code": "94121", "country": "US", "state": "CA", "display_address": ["1650 Balboa St", "San Francisco, CA 94121"]}, "phone": "+14157026156", "display_phone": "(415) 702-6156", "distance": 3961.156429143332}, {"id": "ka1_lat2boQwLMsOCiwGiA", "alias": "r-and-g-lounge-san-francisco", "name": "R&G Lounge", "image_url": "https://s3-media3.fl.yelpcdn.com/bphoto/eyficiwnfaHJgZiJhW-3vA/o.jpg", "is_closed": false, "url": "https://www.yelp.com/biz/r-and-g-lounge-san-francisco?adjust_creative=Klanz-jboxl2XzqrjP6LLw&utm_campaign=yelp_api_v3&utm_medium=api_v3_business_search&utm_source=Klanz-jboxl2XzqrjP6LLw", "review_count": 4602, "categories": [{"alias": "seafood", "title": "Seafood"}, {"alias": "cantonese", "title": "Cantonese"}], "rating": 3.5, "coordinates": {"latitude": 37.7941240989441, "longitude": -122.404937406342}, "transactions": ["delivery", "restaurant_reservation"], "price": "$$", "location": {"address1": "631 Kearny St", "address2": "", "address3": "", "city": "San Francisco", "zip_code": "94108", "country": "US", "state": "CA", "display_address": ["631 Kearny St", "San Francisco, CA 94108"]}, "phone": "+14159827877", "display_phone": "(415) 982-7877", "distance": 4617.126365341871}, {"id": "Z_X0WvSmh9DUxBD9xhet9Q", "alias": "sam-wo-restaurant-san-francisco-3", "name": "Sam Wo Restaurant", "image_url": "https://s3-media1.fl.yelpcdn.com/bphoto/DvRtrIbSljZLJ3ulyw9qIg/o.jpg", "is_closed": false, "url": "https://www.yelp.com/biz/sam-wo-restaurant-san-francisco-3?adjust_creative=Klanz-jboxl2XzqrjP6LLw&utm_campaign=yelp_api_v3&utm_medium=api_v3_business_search&utm_source=Klanz-jboxl2XzqrjP6LLw", "review_count": 1129, "categories": [{"alias": "chinese", "title": "Chinese"}], "rating": 4.0, "coordinates": {"latitude": 37.7942543029785, "longitude": -122.405113220215}, "transactions": ["delivery", "pickup"], "price": "$", "location": {"address1": "713 Clay St", "address2": "", "address3": "", "city": "San Francisco", "zip_code": "94108", "country": "US", "state": "CA", "display_address": ["713 Clay St", "San Francisco, CA 94108"]}, "phone": "+14159898898", "display_phone": "(415) 989-8898", "distance": 4618.182214394335}, {"id": "2FOv-XAZ2sMIlrE5xJc1Hw", "alias": "eight-tables-by-george-chen-san-francisco", "name": "Eight Tables by George Chen", "image_url": "https://s3-media3.fl.yelpcdn.com/bphoto/4ZymlTS6U6qdmNva10-Mkg/o.jpg", "is_closed": false, "url": "https://www.yelp.com/biz/eight-tables-by-george-chen-san-francisco?adjust_creative=Klanz-jboxl2XzqrjP6LLw&utm_campaign=yelp_api_v3&utm_medium=api_v3_business_search&utm_source=Klanz-jboxl2XzqrjP6LLw", "review_count": 156, "categories": [{"alias": "chinese", "title": "Chinese"}], "rating": 4.5, "coordinates": {"latitude": 37.7984516089432, "longitude": -122.407781330184}, "transactions": [], "price": "$$$$", "location": {"address1": "8 Kenneth Rexroth Pl", "address2": "", "address3": null, "city": "San Francisco", "zip_code": "94133", "country": "US", "state": "CA", "display_address": ["8 Kenneth Rexroth Pl", "San Francisco, CA 94133"]}, "phone": "+14157888788", "display_phone": "(415) 788-8788", "distance": 4862.361115667435}, {"id": "XZ1_66Wa4tumkbKfTI2dWA", "alias": "china-live-san-francisco", "name": "China Live", "image_url": "https://s3-media4.fl.yelpcdn.com/bphoto/vTiacfMNynZlRjC3lmx_8w/o.jpg", "is_closed": false, "url": "https://www.yelp.com/biz/china-live-san-francisco?adjust_creative=Klanz-jboxl2XzqrjP6LLw&utm_campaign=yelp_api_v3&utm_medium=api_v3_business_search&utm_source=Klanz-jboxl2XzqrjP6LLw", "review_count": 1399, "categories": [{"alias": "chinese", "title": "Chinese"}, {"alias": "cocktailbars", "title": "Cocktail Bars"}, {"alias": "asianfusion", "title": "Asian Fusion"}], "rating": 3.5, "coordinates": {"latitude": 37.7977636140901, "longitude": -122.407851420238}, "transactions": ["delivery", "pickup"], "price": "$$", "location": {"address1": "644 Broadway", "address2": "", "address3": "", "city": "San Francisco", "zip_code": "94133", "country": "US", "state": "CA", "display_address": ["644 Broadway", "San Francisco, CA 94133"]}, "phone": "+14157888188", "display_phone": "(415) 788-8188", "distance": 4808.186132300881}, {"id": "YXfnD0aFmXiicGij8sMymg", "alias": "taishan-cuisine-san-francisco", "name": "Taishan Cuisine", "image_url": "https://s3-media2.fl.yelpcdn.com/bphoto/yrw-fes-azKH4wosDOfmWQ/o.jpg", "is_closed": false, "url": "https://www.yelp.com/biz/taishan-cuisine-san-francisco?adjust_creative=Klanz-jboxl2XzqrjP6LLw&utm_campaign=yelp_api_v3&utm_medium=api_v3_business_search&utm_source=Klanz-jboxl2XzqrjP6LLw", "review_count": 33, "categories": [{"alias": "noodles", "title": "Noodles"}, {"alias": "hotpot", "title": "Hot Pot"}, {"alias": "cantonese", "title": "Cantonese"}], "rating": 4.0, "coordinates": {"latitude": 37.7972962175206, "longitude": -122.409876510501}, "transactions": ["delivery", "pickup"], "location": {"address1": "781 Broadway", "address2": "", "address3": null, "city": "San Francisco", "zip_code": "94133", "country": "US", "state": "CA", "display_address": ["781 Broadway", "San Francisco, CA 94133"]}, "phone": "+14157882288", "display_phone": "(415) 788-2288", "distance": 4672.517685314451}, {"id": "zMwWycmHTEXGiZP1X_ILAA", "alias": "mr-dragon-san-francisco-2", "name": "Mr Dragon", "image_url": "https://s3-media2.fl.yelpcdn.com/bphoto/XQyXAwqkWGR6G17BLkiBvA/o.jpg", "is_closed": false, "url": "https://www.yelp.com/biz/mr-dragon-san-francisco-2?adjust_creative=Klanz-jboxl2XzqrjP6LLw&utm_campaign=yelp_api_v3&utm_medium=api_v3_business_search&utm_source=Klanz-jboxl2XzqrjP6LLw", "review_count": 104, "categories": [{"alias": "chinese", "title": "Chinese"}, {"alias": "seafood", "title": "Seafood"}], "rating": 4.5, "coordinates": {"latitude": 37.76068, "longitude": -122.50408}, "transactions": ["delivery", "pickup"], "price": "$$", "location": {"address1": "3914 Judah St", "address2": null, "address3": "", "city": "San Francisco", "zip_code": "94122", "country": "US", "state": "CA", "display_address": ["3914 Judah St", "San Francisco, CA 94122"]}, "phone": "+14157029935", "display_phone": "(415) 702-9935", "distance": 5947.198633866468}, {"id": "bvdEOVmFuWUV0sAALc_-zw", "alias": "harborview-restaurant-and-bar-san-francisco-2", "name": "Harborview Restaurant & Bar", "image_url": "https://s3-media2.fl.yelpcdn.com/bphoto/TUdjnuxExu7OEwnOa1FQGA/o.jpg", "is_closed": false, "url": "https://www.yelp.com/biz/harborview-restaurant-and-bar-san-francisco-2?adjust_creative=Klanz-jboxl2XzqrjP6LLw&utm_campaign=yelp_api_v3&utm_medium=api_v3_business_search&utm_source=Klanz-jboxl2XzqrjP6LLw", "review_count": 792, "categories": [{"alias": "chinese", "title": "Chinese"}, {"alias": "lounges", "title": "Lounges"}, {"alias": "seafood", "title": "Seafood"}], "rating": 4.0, "coordinates": {"latitude": 37.794959, "longitude": -122.395663}, "transactions": ["pickup", "restaurant_reservation"], "price": "$$", "location": {"address1": "4 Embarcadero Ctr", "address2": "Street Level", "address3": null, "city": "San Francisco", "zip_code": "94111", "country": "US", "state": "CA", "display_address": ["4 Embarcadero Ctr", "Street Level", "San Francisco, CA 94111"]}, "phone": "+14153991200", "display_phone": "(415) 399-1200", "distance": 5214.5257780303045}, {"id": "KCVZ0Z5GQgQxduizQ91O1Q", "alias": "yummy-yummy-san-francisco", "name": "Yummy Yummy", "image_url": "https://s3-media2.fl.yelpcdn.com/bphoto/HQJwDCOdx5tEBL6vGYkmPA/o.jpg", "is_closed": false, "url": "https://www.yelp.com/biz/yummy-yummy-san-francisco?adjust_creative=Klanz-jboxl2XzqrjP6LLw&utm_campaign=yelp_api_v3&utm_medium=api_v3_business_search&utm_source=Klanz-jboxl2XzqrjP6LLw", "review_count": 1491, "categories": [{"alias": "vietnamese", "title": "Vietnamese"}, {"alias": "chinese", "title": "Chinese"}, {"alias": "noodles", "title": "Noodles"}], "rating": 4.0, "coordinates": {"latitude": 37.76368, "longitude": -122.46879}, "transactions": ["delivery", "pickup"], "price": "$$", "location": {"address1": "1015 Irving St", "address2": "", "address3": "", "city": "San Francisco", "zip_code": "94122", "country": "US", "state": "CA", "display_address": ["1015 Irving St", "San Francisco, CA 94122"]}, "phone": "+14155664722", "display_phone": "(415) 566-4722", "distance": 2861.847455798399}, {"id": "VYd8UzwlwmX8Db5umNHNig", "alias": "hong-kong-lounge-san-francisco", "name": "Hong Kong Lounge", "image_url": "https://s3-media1.fl.yelpcdn.com/bphoto/yEhj3x-tSt3FabfDezzkgA/o.jpg", "is_closed": false, "url": "https://www.yelp.com/biz/hong-kong-lounge-san-francisco?adjust_creative=Klanz-jboxl2XzqrjP6LLw&utm_campaign=yelp_api_v3&utm_medium=api_v3_business_search&utm_source=Klanz-jboxl2XzqrjP6LLw", "review_count": 1696, "categories": [{"alias": "dimsum", "title": "Dim Sum"}, {"alias": "seafood", "title": "Seafood"}, {"alias": "cantonese", "title": "Cantonese"}], "rating": 3.5, "coordinates": {"latitude": 37.780671, "longitude": -122.476619}, "transactions": ["delivery", "pickup"], "price": "$$", "location": {"address1": "5322 Geary Blvd", "address2": "", "address3": "", "city": "San Francisco", "zip_code": "94121", "country": "US", "state": "CA", "display_address": ["5322 Geary Blvd", "San Francisco, CA 94121"]}, "phone": "+14156688836", "display_phone": "(415) 668-8836", "distance": 4159.440145608878}, {"id": "8GqReA8EJ3UGRuIFbd9jyQ", "alias": "chong-qing-xiao-mian-san-francisco", "name": "Chong Qing Xiao Mian", "image_url": "https://s3-media2.fl.yelpcdn.com/bphoto/TJOtPEi5a4OYLi_vjxynvw/o.jpg", "is_closed": false, "url": "https://www.yelp.com/biz/chong-qing-xiao-mian-san-francisco?adjust_creative=Klanz-jboxl2XzqrjP6LLw&utm_campaign=yelp_api_v3&utm_medium=api_v3_business_search&utm_source=Klanz-jboxl2XzqrjP6LLw", "review_count": 951, "categories": [{"alias": "noodles", "title": "Noodles"}, {"alias": "szechuan", "title": "Szechuan"}], "rating": 4.0, "coordinates": {"latitude": 37.796386, "longitude": -122.4053411}, "transactions": ["delivery", "pickup"], "price": "$$", "location": {"address1": "915 Kearny St", "address2": "", "address3": null, "city": "San Francisco", "zip_code": "94133", "country": "US", "state": "CA", "display_address": ["915 Kearny St", "San Francisco, CA 94133"]}, "phone": "+14159830888", "display_phone": "(415) 983-0888", "distance": 4801.904299319108}, {"id": "6Ux8vMV2-jd6rRR_bnTvfg", "alias": "happy-lamb-hot-pot-san-francisco-2", "name": "Happy Lamb Hot Pot", "image_url": "https://s3-media2.fl.yelpcdn.com/bphoto/yfWN9B_SCIG0wa7wnhGqKg/o.jpg", "is_closed": false, "url": "https://www.yelp.com/biz/happy-lamb-hot-pot-san-francisco-2?adjust_creative=Klanz-jboxl2XzqrjP6LLw&utm_campaign=yelp_api_v3&utm_medium=api_v3_business_search&utm_source=Klanz-jboxl2XzqrjP6LLw", "review_count": 648, "categories": [{"alias": "hotpot", "title": "Hot Pot"}, {"alias": "chinese", "title": "Chinese"}], "rating": 4.0, "coordinates": {"latitude": 37.787367, "longitude": -122.410103}, "transactions": ["delivery", "pickup"], "price": "$$", "location": {"address1": "405 Mason St", "address2": "", "address3": "", "city": "San Francisco", "zip_code": "94102", "country": "US", "state": "CA", "display_address": ["405 Mason St", "San Francisco, CA 94102"]}, "phone": "+14156739919", "display_phone": "(415) 673-9919", "distance": 3744.7099479150047}, {"id": "OoNhXN0PzwIyrqG9dF6t2Q", "alias": "hl-peninsula-restaurant-south-san-francisco-2", "name": "HL Peninsula Restaurant", "image_url": "https://s3-media3.fl.yelpcdn.com/bphoto/l4ya1oxvxGgiQBayf6EIDw/o.jpg", "is_closed": false, "url": "https://www.yelp.com/biz/hl-peninsula-restaurant-south-san-francisco-2?adjust_creative=Klanz-jboxl2XzqrjP6LLw&utm_campaign=yelp_api_v3&utm_medium=api_v3_business_search&utm_source=Klanz-jboxl2XzqrjP6LLw", "review_count": 461, "categories": [{"alias": "dimsum", "title": "Dim Sum"}, {"alias": "seafood", "title": "Seafood"}, {"alias": "cantonese", "title": "Cantonese"}], "rating": 3.0, "coordinates": {"latitude": 37.656951500831, "longitude": -122.40576816378}, "transactions": ["delivery", "pickup"], "price": "$$$", "location": {"address1": "608 Dubuque Ave", "address2": "", "address3": null, "city": "South San Francisco", "zip_code": "94080", "country": "US", "state": "CA", "display_address": ["608 Dubuque Ave", "South San Francisco, CA 94080"]}, "phone": "+16506168168", "display_phone": "(650) 616-8168", "distance": 11824.975712837659}, {"id": "y5gAYVjPqzJCkG1A_tX7Dg", "alias": "t-kee-restaurant-san-francisco", "name": "T Kee Restaurant", "image_url": "https://s3-media4.fl.yelpcdn.com/bphoto/I4AZ1TxDE7v-onswmC8FoA/o.jpg", "is_closed": false, "url": "https://www.yelp.com/biz/t-kee-restaurant-san-francisco?adjust_creative=Klanz-jboxl2XzqrjP6LLw&utm_campaign=yelp_api_v3&utm_medium=api_v3_business_search&utm_source=Klanz-jboxl2XzqrjP6LLw", "review_count": 38, "categories": [{"alias": "chinese", "title": "Chinese"}], "rating": 4.0, "coordinates": {"latitude": 37.753829, "longitude": -122.490599}, "transactions": ["delivery", "pickup"], "location": {"address1": "2500 Noriega St", "address2": "", "address3": null, "city": "San Francisco", "zip_code": "94122", "country": "US", "state": "CA", "display_address": ["2500 Noriega St", "San Francisco, CA 94122"]}, "phone": "+14156648888", "display_phone": "(415) 664-8888", "distance": 4833.696232633996}, {"id": "uBuIZ8Pdk9HegYSAU0EsKA", "alias": "great-china-berkeley", "name": "Great China", "image_url": "https://s3-media4.fl.yelpcdn.com/bphoto/QpXekbyL5oYjoC-XWdgzxQ/o.jpg", "is_closed": false, "url": "https://www.yelp.com/biz/great-china-berkeley?adjust_creative=Klanz-jboxl2XzqrjP6LLw&utm_campaign=yelp_api_v3&utm_medium=api_v3_business_search&utm_source=Klanz-jboxl2XzqrjP6LLw", "review_count": 2227, "categories": [{"alias": "chinese", "title": "Chinese"}], "rating": 4.0, "coordinates": {"latitude": 37.8676818865786, "longitude": -122.26615783488}, "transactions": ["delivery"], "price": "$$", "location": {"address1": "2190 Bancroft Way", "address2": "", "address3": "", "city": "Berkeley", "zip_code": "94704", "country": "US", "state": "CA", "display_address": ["2190 Bancroft Way", "Berkeley, CA 94704"]}, "phone": "+15108437996", "display_phone": "(510) 843-7996", "distance": 19098.499972024074}, {"id": "Sg_R67gxg9ALW2wtg13aYQ", "alias": "hong-kong-clay-pot-restaurant-san-francisco", "name": "Hong Kong Clay Pot Restaurant", "image_url": "https://s3-media2.fl.yelpcdn.com/bphoto/wJYIt5DMEZKvnBHDDLKkuw/o.jpg", "is_closed": false, "url": "https://www.yelp.com/biz/hong-kong-clay-pot-restaurant-san-francisco?adjust_creative=Klanz-jboxl2XzqrjP6LLw&utm_campaign=yelp_api_v3&utm_medium=api_v3_business_search&utm_source=Klanz-jboxl2XzqrjP6LLw", "review_count": 963, "categories": [{"alias": "cantonese", "title": "Cantonese"}, {"alias": "seafood", "title": "Seafood"}, {"alias": "noodles", "title": "Noodles"}], "rating": 4.0, "coordinates": {"latitude": 37.79588, "longitude": -122.40649}, "transactions": ["delivery", "pickup"], "price": "$$", "location": {"address1": "960 Grant Ave", "address2": "", "address3": "", "city": "San Francisco", "zip_code": "94108", "country": "US", "state": "CA", "display_address": ["960 Grant Ave", "San Francisco, CA 94108"]}, "phone": "+14159892638", "display_phone": "(415) 989-2638", "distance": 4696.303488339721}, {"id": "8p0z-4uwxkWLRGv89IRyOg", "alias": "dong-bei-mama-san-francisco", "name": "Dong Bei Mama", "image_url": "https://s3-media1.fl.yelpcdn.com/bphoto/btcGGqEI_IyEe14xohGznQ/o.jpg", "is_closed": false, "url": "https://www.yelp.com/biz/dong-bei-mama-san-francisco?adjust_creative=Klanz-jboxl2XzqrjP6LLw&utm_campaign=yelp_api_v3&utm_medium=api_v3_business_search&utm_source=Klanz-jboxl2XzqrjP6LLw", "review_count": 434, "categories": [{"alias": "chinese", "title": "Chinese"}], "rating": 4.0, "coordinates": {"latitude": 37.78057316959765, "longitude": -122.47034882026904}, "transactions": ["delivery", "pickup"], "price": "$$", "location": {"address1": "4737 Geary Blvd", "address2": "", "address3": "", "city": "San Francisco", "zip_code": "94118", "country": "US", "state": "CA", "display_address": ["4737 Geary Blvd", "San Francisco, CA 94118"]}, "phone": "+14152214278", "display_phone": "(415) 221-4278", "distance": 3696.621883631139}, {"id": "dY0Mc_PHH6nLENvWmVtwxQ", "alias": "daeho-kalbijjim-and-beef-soup-san-francisco-9", "name": "Daeho Kalbijjim & Beef Soup", "image_url": "https://s3-media4.fl.yelpcdn.com/bphoto/HzzU5aVz-eUYJIPdnNGL0A/o.jpg", "is_closed": false, "url": "https://www.yelp.com/biz/daeho-kalbijjim-and-beef-soup-san-francisco-9?adjust_creative=Klanz-jboxl2XzqrjP6LLw&utm_campaign=yelp_api_v3&utm_medium=api_v3_business_search&utm_source=Klanz-jboxl2XzqrjP6LLw", "review_count": 1246, "categories": [{"alias": "korean", "title": "Korean"}, {"alias": "soup", "title": "Soup"}, {"alias": "noodles", "title": "Noodles"}], "rating": 4.5, "coordinates": {"latitude": 37.78601, "longitude": -122.42858}, "transactions": ["delivery", "pickup"], "price": "$$$", "location": {"address1": "1620 Post St", "address2": "", "address3": null, "city": "San Francisco", "zip_code": "94115", "country": "US", "state": "CA", "display_address": ["1620 Post St", "San Francisco, CA 94115"]}, "phone": "+14155631388", "display_phone": "(415) 563-1388", "distance": 2867.8335670207744}, {"id": "oEJPe3ltDA7Hh1bVf56s7Q", "alias": "zzan-san-francisco-2", "name": "ZZAN", "image_url": "https://s3-media3.fl.yelpcdn.com/bphoto/P1KAV_RTSIr2vMnkzkGmzQ/o.jpg", "is_closed": false, "url": "https://www.yelp.com/biz/zzan-san-francisco-2?adjust_creative=Klanz-jboxl2XzqrjP6LLw&utm_campaign=yelp_api_v3&utm_medium=api_v3_business_search&utm_source=Klanz-jboxl2XzqrjP6LLw", "review_count": 354, "categories": [{"alias": "korean", "title": "Korean"}, {"alias": "bbq", "title": "Barbeque"}, {"alias": "soup", "title": "Soup"}], "rating": 4.0, "coordinates": {"latitude": 37.7875, "longitude": -122.41233}, "transactions": ["delivery", "pickup", "restaurant_reservation"], "price": "$$", "location": {"address1": "643 Post St", "address2": "", "address3": "", "city": "San Francisco", "zip_code": "94109", "country": "US", "state": "CA", "display_address": ["643 Post St", "San Francisco, CA 94109"]}, "phone": "+14158729977", "display_phone": "(415) 872-9977", "distance": 3647.0772201282903}, {"id": "zjdAHQH8EWnj7CfTTo2bIw", "alias": "chili-house-san-francisco-3", "name": "Chili House", "image_url": "https://s3-media1.fl.yelpcdn.com/bphoto/6A1dCohA_glOqC3UacnN_Q/o.jpg", "is_closed": false, "url": "https://www.yelp.com/biz/chili-house-san-francisco-3?adjust_creative=Klanz-jboxl2XzqrjP6LLw&utm_campaign=yelp_api_v3&utm_medium=api_v3_business_search&utm_source=Klanz-jboxl2XzqrjP6LLw", "review_count": 734, "categories": [{"alias": "szechuan", "title": "Szechuan"}, {"alias": "dimsum", "title": "Dim Sum"}], "rating": 3.5, "coordinates": {"latitude": 37.7830006, "longitude": -122.46711683179213}, "transactions": ["delivery", "pickup", "restaurant_reservation"], "price": "$$", "location": {"address1": "726 Clement St", "address2": "", "address3": "", "city": "San Francisco", "zip_code": "94118", "country": "US", "state": "CA", "display_address": ["726 Clement St", "San Francisco, CA 94118"]}, "phone": "+14153872658", "display_phone": "(415) 387-2658", "distance": 3647.777492848029}, {"id": "nXYmPSl2Gy_ge1QwhD6tgw", "alias": "osmanthus-dim-sum-lounge-san-francisco", "name": "Osmanthus Dim Sum Lounge", "image_url": "https://s3-media4.fl.yelpcdn.com/bphoto/JhBTNPFl42Ikf05VT1d8sQ/o.jpg", "is_closed": false, "url": "https://www.yelp.com/biz/osmanthus-dim-sum-lounge-san-francisco?adjust_creative=Klanz-jboxl2XzqrjP6LLw&utm_campaign=yelp_api_v3&utm_medium=api_v3_business_search&utm_source=Klanz-jboxl2XzqrjP6LLw", "review_count": 288, "categories": [{"alias": "cocktailbars", "title": "Cocktail Bars"}, {"alias": "dimsum", "title": "Dim Sum"}], "rating": 4.5, "coordinates": {"latitude": 37.79819, "longitude": -122.40569}, "transactions": ["delivery", "pickup"], "price": "$$", "location": {"address1": "504 Broadway", "address2": "", "address3": null, "city": "San Francisco", "zip_code": "94133", "country": "US", "state": "CA", "display_address": ["504 Broadway", "San Francisco, CA 94133"]}, "phone": "+14158729648", "display_phone": "(415) 872-9648", "distance": 4954.912299333175}, {"id": "hOfTPiT13W-OVZ29lWxmUQ", "alias": "qingshu-san-francisco", "name": "QingShu", "image_url": "https://s3-media1.fl.yelpcdn.com/bphoto/3xE0srF371Qh_MHe3-HOhg/o.jpg", "is_closed": false, "url": "https://www.yelp.com/biz/qingshu-san-francisco?adjust_creative=Klanz-jboxl2XzqrjP6LLw&utm_campaign=yelp_api_v3&utm_medium=api_v3_business_search&utm_source=Klanz-jboxl2XzqrjP6LLw", "review_count": 98, "categories": [{"alias": "noodles", "title": "Noodles"}, {"alias": "chinese", "title": "Chinese"}, {"alias": "soup", "title": "Soup"}], "rating": 4.0, "coordinates": {"latitude": 37.76427, "longitude": -122.46669}, "transactions": ["delivery", "pickup"], "price": "$$", "location": {"address1": "816 Irving St", "address2": "", "address3": null, "city": "San Francisco", "zip_code": "94122", "country": "US", "state": "CA", "display_address": ["816 Irving St", "San Francisco, CA 94122"]}, "phone": "+14157026255", "display_phone": "(415) 702-6255", "distance": 2683.9451064985774}, {"id": "wCf2GGyEOkaSFE0xCYpgOA", "alias": "hai-ky-noodles-san-francisco", "name": "Hai Ky Noodles", "image_url": "https://s3-media3.fl.yelpcdn.com/bphoto/BPgofYcLVSvqnNaVcPnL_Q/o.jpg", "is_closed": false, "url": "https://www.yelp.com/biz/hai-ky-noodles-san-francisco?adjust_creative=Klanz-jboxl2XzqrjP6LLw&utm_campaign=yelp_api_v3&utm_medium=api_v3_business_search&utm_source=Klanz-jboxl2XzqrjP6LLw", "review_count": 1047, "categories": [{"alias": "chinese", "title": "Chinese"}, {"alias": "vietnamese", "title": "Vietnamese"}, {"alias": "noodles", "title": "Noodles"}], "rating": 4.5, "coordinates": {"latitude": 37.7840538024902, "longitude": -122.417953491211}, "transactions": ["delivery"], "price": "$$", "location": {"address1": "707 Ellis St", "address2": "", "address3": "", "city": "San Francisco", "zip_code": "94109", "country": "US", "state": "CA", "display_address": ["707 Ellis St", "San Francisco, CA 94109"]}, "phone": "+14157712577", "display_phone": "(415) 771-2577", "distance": 3044.718892971255}, {"id": "X_5dfcVeiElSE12jWbbwQg", "alias": "won-kok-restaurant-san-francisco", "name": "Won Kok Restaurant", "image_url": "https://s3-media1.fl.yelpcdn.com/bphoto/9t6OvoI3Kd84CrRgiAxjvw/o.jpg", "is_closed": false, "url": "https://www.yelp.com/biz/won-kok-restaurant-san-francisco?adjust_creative=Klanz-jboxl2XzqrjP6LLw&utm_campaign=yelp_api_v3&utm_medium=api_v3_business_search&utm_source=Klanz-jboxl2XzqrjP6LLw", "review_count": 140, "categories": [{"alias": "chinese", "title": "Chinese"}], "rating": 3.0, "coordinates": {"latitude": 37.7318077087402, "longitude": -122.451293945312}, "transactions": ["delivery", "pickup"], "price": "$$", "location": {"address1": "700 Monterey Blvd", "address2": "", "address3": "", "city": "San Francisco", "zip_code": "94127", "country": "US", "state": "CA", "display_address": ["700 Monterey Blvd", "San Francisco, CA 94127"]}, "phone": "+14155871826", "display_phone": "(415) 587-1826", "distance": 3487.197032784074}, {"id": "Dx8EzXCkyLh38dABk19FxA", "alias": "changs-kitchen-san-francisco", "name": "Chang's Kitchen", "image_url": "https://s3-media2.fl.yelpcdn.com/bphoto/Ac6sB6JiqwYsjc5pOv4Yuw/o.jpg", "is_closed": false, "url": "https://www.yelp.com/biz/changs-kitchen-san-francisco?adjust_creative=Klanz-jboxl2XzqrjP6LLw&utm_campaign=yelp_api_v3&utm_medium=api_v3_business_search&utm_source=Klanz-jboxl2XzqrjP6LLw", "review_count": 683, "categories": [{"alias": "chinese", "title": "Chinese"}, {"alias": "asianfusion", "title": "Asian Fusion"}], "rating": 4.0, "coordinates": {"latitude": 37.76417, "longitude": -122.46905}, "transactions": ["delivery", "pickup"], "price": "$$", "location": {"address1": "1030 Irving St", "address2": null, "address3": null, "city": "San Francisco", "zip_code": "94122", "country": "US", "state": "CA", "display_address": ["1030 Irving St", "San Francisco, CA 94122"]}, "phone": "+14157318110", "display_phone": "(415) 731-8110", "distance": 2891.1310110477116}, {"id": "a-Lf60V3BDdS27la95VQWA", "alias": "hodala-san-francisco", "name": "Hodala", "image_url": "https://s3-media2.fl.yelpcdn.com/bphoto/KOH5jllHQ05ExYP4gfz-OQ/o.jpg", "is_closed": false, "url": "https://www.yelp.com/biz/hodala-san-francisco?adjust_creative=Klanz-jboxl2XzqrjP6LLw&utm_campaign=yelp_api_v3&utm_medium=api_v3_business_search&utm_source=Klanz-jboxl2XzqrjP6LLw", "review_count": 597, "categories": [{"alias": "taiwanese", "title": "Taiwanese"}, {"alias": "asianfusion", "title": "Asian Fusion"}], "rating": 4.0, "coordinates": {"latitude": 37.7800054050483, "longitude": -122.481684274971}, "transactions": ["delivery", "pickup"], "price": "$$", "location": {"address1": "5801 Geary Blvd", "address2": "", "address3": null, "city": "San Francisco", "zip_code": "94121", "country": "US", "state": "CA", "display_address": ["5801 Geary Blvd", "San Francisco, CA 94121"]}, "phone": "+14157029510", "display_phone": "(415) 702-9510", "distance": 4508.150665089447}, {"id": "jBdCBZc7-ab7c2tpoIEWJw", "alias": "cocobang-san-francisco", "name": "Cocobang", "image_url": "https://s3-media4.fl.yelpcdn.com/bphoto/SyVefsuVXf8gztNBjHsAIA/o.jpg", "is_closed": false, "url": "https://www.yelp.com/biz/cocobang-san-francisco?adjust_creative=Klanz-jboxl2XzqrjP6LLw&utm_campaign=yelp_api_v3&utm_medium=api_v3_business_search&utm_source=Klanz-jboxl2XzqrjP6LLw", "review_count": 1015, "categories": [{"alias": "korean", "title": "Korean"}], "rating": 3.5, "coordinates": {"latitude": 37.78771, "longitude": -122.41139}, "transactions": ["delivery", "pickup"], "price": "$$", "location": {"address1": "550 Taylor St", "address2": null, "address3": "", "city": "San Francisco", "zip_code": "94102", "country": "US", "state": "CA", "display_address": ["550 Taylor St", "San Francisco, CA 94102"]}, "phone": "+14152925144", "display_phone": "(415) 292-5144", "distance": 3693.359551457288}, {"id": "QxHtdBOe3Kppf8tEd2Wm6A", "alias": "great-eastern-restaurant-san-francisco", "name": "Great Eastern Restaurant", "image_url": "https://s3-media1.fl.yelpcdn.com/bphoto/td_wgZLSvyBpAxpAbWDG0g/o.jpg", "is_closed": false, "url": "https://www.yelp.com/biz/great-eastern-restaurant-san-francisco?adjust_creative=Klanz-jboxl2XzqrjP6LLw&utm_campaign=yelp_api_v3&utm_medium=api_v3_business_search&utm_source=Klanz-jboxl2XzqrjP6LLw", "review_count": 2139, "categories": [{"alias": "dimsum", "title": "Dim Sum"}, {"alias": "seafood", "title": "Seafood"}, {"alias": "cantonese", "title": "Cantonese"}], "rating": 3.5, "coordinates": {"latitude": 37.796085, "longitude": -122.405968}, "transactions": ["delivery", "pickup", "restaurant_reservation"], "price": "$$", "location": {"address1": "649 Jackson St", "address2": "", "address3": "", "city": "San Francisco", "zip_code": "94133", "country": "US", "state": "CA", "display_address": ["649 Jackson St", "San Francisco, CA 94133"]}, "phone": "+14159862500", "display_phone": "(415) 986-2500", "distance": 4741.604680950982}, {"id": "V159gk1QKElB29VPhFFaCw", "alias": "hl-peninsula-pearl-burlingame-6", "name": "HL Peninsula Pearl", "image_url": "https://s3-media3.fl.yelpcdn.com/bphoto/dqQGjl9i_tuwMuDrpR_E1A/o.jpg", "is_closed": false, "url": "https://www.yelp.com/biz/hl-peninsula-pearl-burlingame-6?adjust_creative=Klanz-jboxl2XzqrjP6LLw&utm_campaign=yelp_api_v3&utm_medium=api_v3_business_search&utm_source=Klanz-jboxl2XzqrjP6LLw", "review_count": 292, "categories": [{"alias": "dimsum", "title": "Dim Sum"}, {"alias": "seafood", "title": "Seafood"}, {"alias": "cantonese", "title": "Cantonese"}], "rating": 3.0, "coordinates": {"latitude": 37.5995526710753, "longitude": -122.366497912498}, "transactions": ["delivery", "pickup"], "price": "$$", "location": {"address1": "1590 Old Bayshore Hwy", "address2": "", "address3": null, "city": "Burlingame", "zip_code": "94010", "country": "US", "state": "CA", "display_address": ["1590 Old Bayshore Hwy", "Burlingame, CA 94010"]}, "phone": "+16506971288", "display_phone": "(650) 697-1288", "distance": 18967.602154534718}, {"id": "lMCEPzboR8E1Rw-v2ZjCSA", "alias": "harbor-villa-restaurant-san-francisco-3", "name": "Harbor Villa Restaurant", "image_url": "https://s3-media4.fl.yelpcdn.com/bphoto/5M8giMIU5-VtZuX_up35Tw/o.jpg", "is_closed": false, "url": "https://www.yelp.com/biz/harbor-villa-restaurant-san-francisco-3?adjust_creative=Klanz-jboxl2XzqrjP6LLw&utm_campaign=yelp_api_v3&utm_medium=api_v3_business_search&utm_source=Klanz-jboxl2XzqrjP6LLw", "review_count": 485, "categories": [{"alias": "dimsum", "title": "Dim Sum"}, {"alias": "cantonese", "title": "Cantonese"}], "rating": 3.0, "coordinates": {"latitude": 37.74374, "longitude": -122.43917}, "transactions": ["delivery"], "price": "$$", "location": {"address1": "5238 Diamond Heights Blvd", "address2": "", "address3": "", "city": "San Francisco", "zip_code": "94131", "country": "US", "state": "CA", "display_address": ["5238 Diamond Heights Blvd", "San Francisco, CA 94131"]}, "phone": "+14152828883", "display_phone": "(415) 282-8883", "distance": 1917.6265509464877}, {"id": "kqk5BoCJU59MC9fH0IB4wQ", "alias": "kin-khao-san-francisco-2", "name": "Kin Khao", "image_url": "https://s3-media1.fl.yelpcdn.com/bphoto/zHz6-HG5XuXSZJq2FvNmsQ/o.jpg", "is_closed": false, "url": "https://www.yelp.com/biz/kin-khao-san-francisco-2?adjust_creative=Klanz-jboxl2XzqrjP6LLw&utm_campaign=yelp_api_v3&utm_medium=api_v3_business_search&utm_source=Klanz-jboxl2XzqrjP6LLw", "review_count": 2134, "categories": [{"alias": "thai", "title": "Thai"}], "rating": 4.0, "coordinates": {"latitude": 37.7852278803726, "longitude": -122.409348137336}, "transactions": ["delivery"], "price": "$$", "location": {"address1": "55 Cyril Magnin St", "address2": null, "address3": "", "city": "San Francisco", "zip_code": "94102", "country": "US", "state": "CA", "display_address": ["55 Cyril Magnin St", "San Francisco, CA 94102"]}, "phone": "+14153627456", "display_phone": "(415) 362-7456", "distance": 3604.326557361939}, {"id": "-4wz0dOG3RdBNYE02l9KjA", "alias": "ppq-dungeness-island-san-francisco-san-francisco", "name": "PPQ Dungeness Island - San Francisco", "image_url": "https://s3-media2.fl.yelpcdn.com/bphoto/pR-rR8l625tP2GoftwKlug/o.jpg", "is_closed": false, "url": "https://www.yelp.com/biz/ppq-dungeness-island-san-francisco-san-francisco?adjust_creative=Klanz-jboxl2XzqrjP6LLw&utm_campaign=yelp_api_v3&utm_medium=api_v3_business_search&utm_source=Klanz-jboxl2XzqrjP6LLw", "review_count": 3139, "categories": [{"alias": "seafood", "title": "Seafood"}, {"alias": "vietnamese", "title": "Vietnamese"}, {"alias": "asianfusion", "title": "Asian Fusion"}], "rating": 4.0, "coordinates": {"latitude": 37.78233, "longitude": -122.484454}, "transactions": ["delivery", "pickup", "restaurant_reservation"], "price": "$$", "location": {"address1": "2332 Clement St", "address2": "", "address3": "", "city": "San Francisco", "zip_code": "94121", "country": "US", "state": "CA", "display_address": ["2332 Clement St", "San Francisco, CA 94121"]}, "phone": "+14153868266", "display_phone": "(415) 386-8266", "distance": 4845.948709986807}, {"id": "JwbyzqL33R4oRk5-ymubYg", "alias": "jjamppong-san-francisco-4", "name": "JJamPPong", "image_url": "https://s3-media2.fl.yelpcdn.com/bphoto/lmHhdiaSq6s_F2DEW8bV5A/o.jpg", "is_closed": false, "url": "https://www.yelp.com/biz/jjamppong-san-francisco-4?adjust_creative=Klanz-jboxl2XzqrjP6LLw&utm_campaign=yelp_api_v3&utm_medium=api_v3_business_search&utm_source=Klanz-jboxl2XzqrjP6LLw", "review_count": 4, "categories": [{"alias": "chinese", "title": "Chinese"}, {"alias": "korean", "title": "Korean"}, {"alias": "seafood", "title": "Seafood"}], "rating": 5.0, "coordinates": {"latitude": 37.71467, "longitude": -122.4423}, "transactions": [], "location": {"address1": "5249 Mission St", "address2": null, "address3": "", "city": "San Francisco", "zip_code": "94112", "country": "US", "state": "CA", "display_address": ["5249 Mission St", "San Francisco, CA 94112"]}, "phone": "+14153477412", "display_phone": "(415) 347-7412", "distance": 5169.687116806051}, {"id": "1xvpFG2vz5zKpbCS6lwFlQ", "alias": "riverside-seafood-restaurant-san-francisco", "name": "Riverside Seafood Restaurant", "image_url": "https://s3-media4.fl.yelpcdn.com/bphoto/Gfj7alT197W3wSUWFeOKDQ/o.jpg", "is_closed": false, "url": "https://www.yelp.com/biz/riverside-seafood-restaurant-san-francisco?adjust_creative=Klanz-jboxl2XzqrjP6LLw&utm_campaign=yelp_api_v3&utm_medium=api_v3_business_search&utm_source=Klanz-jboxl2XzqrjP6LLw", "review_count": 332, "categories": [{"alias": "dimsum", "title": "Dim Sum"}, {"alias": "seafood", "title": "Seafood"}, {"alias": "cantonese", "title": "Cantonese"}], "rating": 3.5, "coordinates": {"latitude": 37.7388954162598, "longitude": -122.479881286621}, "transactions": ["delivery"], "price": "$$", "location": {"address1": "1201 Vicente St", "address2": "", "address3": "", "city": "San Francisco", "zip_code": "94116", "country": "US", "state": "CA", "display_address": ["1201 Vicente St", "San Francisco, CA 94116"]}, "phone": "+14157598828", "display_phone": "(415) 759-8828", "distance": 4535.422449590754}, {"id": "tZmiZw49SNRVzF6h1Jfx9g", "alias": "ben-thai-cafe-san-francisco", "name": "Ben Thai Cafe", "image_url": "https://s3-media4.fl.yelpcdn.com/bphoto/A0jRvmDLM9tqhq5KE3Rwpw/o.jpg", "is_closed": false, "url": "https://www.yelp.com/biz/ben-thai-cafe-san-francisco?adjust_creative=Klanz-jboxl2XzqrjP6LLw&utm_campaign=yelp_api_v3&utm_medium=api_v3_business_search&utm_source=Klanz-jboxl2XzqrjP6LLw", "review_count": 661, "categories": [{"alias": "thai", "title": "Thai"}], "rating": 4.5, "coordinates": {"latitude": 37.78924, "longitude": -122.42065}, "transactions": ["delivery", "pickup", "restaurant_reservation"], "price": "$$", "location": {"address1": "1331 Polk St", "address2": null, "address3": "", "city": "San Francisco", "zip_code": "94109", "country": "US", "state": "CA", "display_address": ["1331 Polk St", "San Francisco, CA 94109"]}, "phone": "+14157712562", "display_phone": "(415) 771-2562", "distance": 3445.440156205249}], "total": 1800, "region": {"center": {"longitude": -122.43644714355469, "latitude": 37.76089938976322}}}