{"businesses": [{"id": "HLkzbGwFmOqb5LOhJCFCtQ", "alias": "tops-cafe-b-b-q-house-san-francisco", "name": "Tops Cafe B-B-Q House", "image_url": "https://s3-media3.fl.yelpcdn.com/bphoto/8VVo-BYExuOlBI-HxW8_Xg/o.jpg", "is_closed": false, "url": "https://www.yelp.com/biz/tops-cafe-b-b-q-house-san-francisco?adjust_creative=Klanz-jboxl2XzqrjP6LLw&utm_campaign=yelp_api_v3&utm_medium=api_v3_business_search&utm_source=Klanz-jboxl2XzqrjP6LLw", "review_count": 78, "categories": [{"alias": "bbq", "title": "Barbeque"}], "rating": 3.5, "coordinates": {"latitude": 37.7308616638184, "longitude": -122.405235290527}, "transactions": ["delivery"], "price": "$", "location": {"address1": "2460 San Bruno Ave", "address2": "", "address3": "", "city": "San Francisco", "zip_code": "94134", "country": "US", "state": "CA", "display_address": ["2460 San Bruno Ave", "San Francisco, CA 94134"]}, "phone": "+14157156868", "display_phone": "(415) 715-6868", "distance": 4323.779665282589}, {"id": "KEfL6uzARi8kfL2g6FrkmQ", "alias": "yummy-bbq-kitchen-san-francisco", "name": "Yummy BBQ Kitchen", "image_url": "https://s3-media4.fl.yelpcdn.com/bphoto/IUuzsAII8e2XHS_IkHWOAg/o.jpg", "is_closed": false, "url": "https://www.yelp.com/biz/yummy-bbq-kitchen-san-francisco?adjust_creative=Klanz-jboxl2XzqrjP6LLw&utm_campaign=yelp_api_v3&utm_medium=api_v3_business_search&utm_source=Klanz-jboxl2XzqrjP6LLw", "review_count": 41, "categories": [{"alias": "chinese", "title": "Chinese"}, {"alias": "bbq", "title": "Barbeque"}, {"alias": "noodles", "title": "Noodles"}], "rating": 4.0, "coordinates": {"latitude": 37.79746, "longitude": -122.40835}, "transactions": ["delivery"], "price": "$", "location": {"address1": "683 Broadway", "address2": "", "address3": "", "city": "San Francisco", "zip_code": "94133", "country": "US", "state": "CA", "display_address": ["683 Broadway", "San Francisco, CA 94133"]}, "phone": "+14153783768", "display_phone": "(415) 378-3768", "distance": 4762.87668955834}, {"id": "Qv9uCarXHARRCmMvXFzalg", "alias": "udupi-palace-berkeley", "name": "Udupi Palace", "image_url": "https://s3-media3.fl.yelpcdn.com/bphoto/_V4hpwQHhLJH7Ci3QSmtDg/o.jpg", "is_closed": false, "url": "https://www.yelp.com/biz/udupi-palace-berkeley?adjust_creative=Klanz-jboxl2XzqrjP6LLw&utm_campaign=yelp_api_v3&utm_medium=api_v3_business_search&utm_source=Klanz-jboxl2XzqrjP6LLw", "review_count": 742, "categories": [{"alias": "indpak", "title": "Indian"}, {"alias": "vegetarian", "title": "Vegetarian"}], "rating": 4.0, "coordinates": {"latitude": 37.8717675504509, "longitude": -122.272785276959}, "transactions": ["pickup"], "price": "$$", "location": {"address1": "1903 University Ave", "address2": null, "address3": "", "city": "Berkeley", "zip_code": "94704", "country": "US", "state": "CA", "display_address": ["1903 University Ave", "Berkeley, CA 94704"]}, "phone": "+15108436600", "display_phone": "(510) 843-6600", "distance": 18938.254836421147}, {"id": "wi5CsxdfGlmxYRXU9p2JOw", "alias": "sunflower-authentic-vietnamese-restaurant-san-francisco-3", "name": "Sunflower Authentic Vietnamese Restaurant", "image_url": "https://s3-media3.fl.yelpcdn.com/bphoto/eOvFLnqIUquxN-VnoHbW5w/o.jpg", "is_closed": false, "url": "https://www.yelp.com/biz/sunflower-authentic-vietnamese-restaurant-san-francisco-3?adjust_creative=Klanz-jboxl2XzqrjP6LLw&utm_campaign=yelp_api_v3&utm_medium=api_v3_business_search&utm_source=Klanz-jboxl2XzqrjP6LLw", "review_count": 22, "categories": [{"alias": "vietnamese", "title": "Vietnamese"}], "rating": 3.0, "coordinates": {"latitude": 37.764680139827, "longitude": -122.42203831734}, "transactions": [], "price": "$$", "location": {"address1": "506 Valencia St", "address2": "", "address3": "", "city": "San Francisco", "zip_code": "94110", "country": "US", "state": "CA", "display_address": ["506 Valencia St", "San Francisco, CA 94110"]}, "phone": "+14156265022", "display_phone": "(415) 626-5022", "distance": 1334.5580076159463}, {"id": "yDFSeXOL--o87nHmYas2Mw", "alias": "smokin-warehouse-barbecue-san-francisco-17", "name": "Smokin\u2019 Warehouse Barbecue", "image_url": "https://s3-media1.fl.yelpcdn.com/bphoto/_4wXisEQETRHMi07UOneTg/o.jpg", "is_closed": false, "url": "https://www.yelp.com/biz/smokin-warehouse-barbecue-san-francisco-17?adjust_creative=Klanz-jboxl2XzqrjP6LLw&utm_campaign=yelp_api_v3&utm_medium=api_v3_business_search&utm_source=Klanz-jboxl2XzqrjP6LLw", "review_count": 85, "categories": [{"alias": "tradamerican", "title": "American (Traditional)"}, {"alias": "bbq", "title": "Barbeque"}], "rating": 4.0, "coordinates": {"latitude": 37.7882865, "longitude": -122.4476947}, "transactions": ["delivery"], "price": "$$", "location": {"address1": "3336 Sacramento St", "address2": "", "address3": "", "city": "San Francisco", "zip_code": "94118", "country": "US", "state": "CA", "display_address": ["3336 Sacramento St", "San Francisco, CA 94118"]}, "phone": "+14154400088", "display_phone": "(415) 440-0088", "distance": 3201.7393638157837}, {"id": "rQ8lUysrEPFTXqmqK4ASkQ", "alias": "loving-hut-san-francisco-2", "name": "Loving Hut", "image_url": "https://s3-media1.fl.yelpcdn.com/bphoto/LPPwU2UlqacwgAjTKdmjEA/o.jpg", "is_closed": false, "url": "https://www.yelp.com/biz/loving-hut-san-francisco-2?adjust_creative=Klanz-jboxl2XzqrjP6LLw&utm_campaign=yelp_api_v3&utm_medium=api_v3_business_search&utm_source=Klanz-jboxl2XzqrjP6LLw", "review_count": 464, "categories": [{"alias": "vegan", "title": "Vegan"}, {"alias": "vegetarian", "title": "Vegetarian"}, {"alias": "gluten_free", "title": "Gluten-Free"}], "rating": 4.0, "coordinates": {"latitude": 37.76442, "longitude": -122.46361}, "transactions": ["pickup", "delivery"], "price": "$$", "location": {"address1": "524 Irving St", "address2": "", "address3": "", "city": "San Francisco", "zip_code": "94122", "country": "US", "state": "CA", "display_address": ["524 Irving St", "San Francisco, CA 94122"]}, "phone": "+14157311957", "display_phone": "(415) 731-1957", "distance": 2421.7220244817686}, {"id": "nDSxwe3s61uRbQdwMfqxUg", "alias": "noodles-and-things-millbrae-millbrae", "name": "Noodles & Things - Millbrae", "image_url": "https://s3-media2.fl.yelpcdn.com/bphoto/fIGPQrs7AUpJVZxK3RCqVw/o.jpg", "is_closed": false, "url": "https://www.yelp.com/biz/noodles-and-things-millbrae-millbrae?adjust_creative=Klanz-jboxl2XzqrjP6LLw&utm_campaign=yelp_api_v3&utm_medium=api_v3_business_search&utm_source=Klanz-jboxl2XzqrjP6LLw", "review_count": 106, "categories": [{"alias": "noodles", "title": "Noodles"}, {"alias": "soup", "title": "Soup"}], "rating": 3.5, "coordinates": {"latitude": 37.60186, "longitude": -122.39342}, "transactions": ["pickup", "delivery"], "price": "$$", "location": {"address1": "447 Broadway", "address2": "", "address3": null, "city": "Millbrae", "zip_code": "94030", "country": "US", "state": "CA", "display_address": ["447 Broadway", "Millbrae, CA 94030"]}, "phone": "+16506517105", "display_phone": "(650) 651-7105", "distance": 18084.11025836503}, {"id": "aHnXmu0YUUg5WW_ERihxTw", "alias": "washington-bakery-and-restaurant-san-francisco", "name": "Washington Bakery & Restaurant", "image_url": "https://s3-media1.fl.yelpcdn.com/bphoto/JXtP_JYLPD_yN5eY5qfYfg/o.jpg", "is_closed": false, "url": "https://www.yelp.com/biz/washington-bakery-and-restaurant-san-francisco?adjust_creative=Klanz-jboxl2XzqrjP6LLw&utm_campaign=yelp_api_v3&utm_medium=api_v3_business_search&utm_source=Klanz-jboxl2XzqrjP6LLw", "review_count": 470, "categories": [{"alias": "bakeries", "title": "Bakeries"}, {"alias": "chinese", "title": "Chinese"}, {"alias": "bubbletea", "title": "Bubble Tea"}], "rating": 3.5, "coordinates": {"latitude": 37.7950722, "longitude": -122.4059372}, "transactions": ["pickup", "delivery"], "price": "$$", "location": {"address1": "733 Washington St", "address2": "", "address3": "", "city": "San Francisco", "zip_code": "94108", "country": "US", "state": "CA", "display_address": ["733 Washington St", "San Francisco, CA 94108"]}, "phone": "+14153973232", "display_phone": "(415) 397-3232", "distance": 4640.546891446151}, {"id": "7wq0ftnMS0S2dURpOtuJ3Q", "alias": "on-on-food-co-oakland", "name": "On On Food Co.", "image_url": "", "is_closed": false, "url": "https://www.yelp.com/biz/on-on-food-co-oakland?adjust_creative=Klanz-jboxl2XzqrjP6LLw&utm_campaign=yelp_api_v3&utm_medium=api_v3_business_search&utm_source=Klanz-jboxl2XzqrjP6LLw", "review_count": 2, "categories": [{"alias": "importedfood", "title": "Imported Food"}], "rating": 2.5, "coordinates": {"latitude": 37.7945251464844, "longitude": -122.254997253418}, "transactions": [], "location": {"address1": "1130 5th Ave", "address2": "", "address3": "", "city": "Oakland", "zip_code": "94620", "country": "US", "state": "CA", "display_address": ["1130 5th Ave", "Oakland, CA 94620"]}, "phone": "+15102519588", "display_phone": "(510) 251-9588", "distance": 16372.331859577827}, {"id": "6GpsP11XaFLUT5SDt9HTWA", "alias": "ramen-house-san-francisco-2", "name": "Ramen House", "image_url": "https://s3-media3.fl.yelpcdn.com/bphoto/Q5Kiecz8DqE62M9U_YliaA/o.jpg", "is_closed": false, "url": "https://www.yelp.com/biz/ramen-house-san-francisco-2?adjust_creative=Klanz-jboxl2XzqrjP6LLw&utm_campaign=yelp_api_v3&utm_medium=api_v3_business_search&utm_source=Klanz-jboxl2XzqrjP6LLw", "review_count": 112, "categories": [{"alias": "ramen", "title": "Ramen"}], "rating": 4.0, "coordinates": {"latitude": 37.72859, "longitude": -122.40371}, "transactions": ["delivery"], "price": "$$", "location": {"address1": "2623 San Bruno Ave", "address2": "", "address3": null, "city": "San Francisco", "zip_code": "94134", "country": "US", "state": "CA", "display_address": ["2623 San Bruno Ave", "San Francisco, CA 94134"]}, "phone": "+14159887929", "display_phone": "(415) 988-7929", "distance": 4600.779170895613}, {"id": "HJ6uy98uHvvXSiWEuyWvww", "alias": "gogi-time-oakland", "name": "Gogi Time", "image_url": "https://s3-media4.fl.yelpcdn.com/bphoto/hNuJz-5jfCIC9lv8PrQExw/o.jpg", "is_closed": false, "url": "https://www.yelp.com/biz/gogi-time-oakland?adjust_creative=Klanz-jboxl2XzqrjP6LLw&utm_campaign=yelp_api_v3&utm_medium=api_v3_business_search&utm_source=Klanz-jboxl2XzqrjP6LLw", "review_count": 1780, "categories": [{"alias": "korean", "title": "Korean"}, {"alias": "bbq", "title": "Barbeque"}], "rating": 4.0, "coordinates": {"latitude": 37.815621, "longitude": -122.26761}, "transactions": ["pickup", "restaurant_reservation", "delivery"], "price": "$$$", "location": {"address1": "2600 Telegraph Ave", "address2": null, "address3": "", "city": "Oakland", "zip_code": "94612", "country": "US", "state": "CA", "display_address": ["2600 Telegraph Ave", "Oakland, CA 94612"]}, "phone": "+15108345757", "display_phone": "(510) 834-5757", "distance": 16035.843647075579}, {"id": "uA0_yjd7Jv8DdWZz4vmh-g", "alias": "sorabol-korean-restaurant-san-francisco-3", "name": "Sorabol Korean Restaurant", "image_url": "https://s3-media1.fl.yelpcdn.com/bphoto/uSujE8Rga2gu2aEFZnjrZw/o.jpg", "is_closed": false, "url": "https://www.yelp.com/biz/sorabol-korean-restaurant-san-francisco-3?adjust_creative=Klanz-jboxl2XzqrjP6LLw&utm_campaign=yelp_api_v3&utm_medium=api_v3_business_search&utm_source=Klanz-jboxl2XzqrjP6LLw", "review_count": 553, "categories": [{"alias": "korean", "title": "Korean"}, {"alias": "noodles", "title": "Noodles"}], "rating": 3.0, "coordinates": {"latitude": 37.784621, "longitude": -122.40634}, "transactions": ["delivery"], "price": "$$", "location": {"address1": "845 Market St", "address2": "", "address3": "", "city": "San Francisco", "zip_code": "94103", "country": "US", "state": "CA", "display_address": ["845 Market St", "San Francisco, CA 94103"]}, "phone": "+14157775959", "display_phone": "(415) 777-5959", "distance": 3736.3164937809674}, {"id": "0SI7L3AuaO0-GhdCp4pX0g", "alias": "yarsa-nepalese-cuisine-san-francisco", "name": "Yarsa Nepalese Cuisine", "image_url": "https://s3-media4.fl.yelpcdn.com/bphoto/tmFPdPK9y8sCZtHnkhBhuw/o.jpg", "is_closed": false, "url": "https://www.yelp.com/biz/yarsa-nepalese-cuisine-san-francisco?adjust_creative=Klanz-jboxl2XzqrjP6LLw&utm_campaign=yelp_api_v3&utm_medium=api_v3_business_search&utm_source=Klanz-jboxl2XzqrjP6LLw", "review_count": 115, "categories": [{"alias": "himalayan", "title": "Himalayan/Nepalese"}, {"alias": "indpak", "title": "Indian"}, {"alias": "salad", "title": "Salad"}], "rating": 5.0, "coordinates": {"latitude": 37.7990094278768, "longitude": -122.407201259285}, "transactions": ["delivery"], "price": "$$", "location": {"address1": "1310 Grant Ave", "address2": "", "address3": null, "city": "San Francisco", "zip_code": "94133", "country": "US", "state": "CA", "display_address": ["1310 Grant Ave", "San Francisco, CA 94133"]}, "phone": "+14159265082", "display_phone": "(415) 926-5082", "distance": 4956.196460077349}, {"id": "OC_Z6gunpUXuak8ruZsjVg", "alias": "ocean-thai-san-francisco", "name": "Ocean Thai", "image_url": "https://s3-media3.fl.yelpcdn.com/bphoto/KmU9d1O45BoMDoVXgY1ROg/o.jpg", "is_closed": false, "url": "https://www.yelp.com/biz/ocean-thai-san-francisco?adjust_creative=Klanz-jboxl2XzqrjP6LLw&utm_campaign=yelp_api_v3&utm_medium=api_v3_business_search&utm_source=Klanz-jboxl2XzqrjP6LLw", "review_count": 162, "categories": [{"alias": "thai", "title": "Thai"}], "rating": 4.0, "coordinates": {"latitude": 37.7313745538454, "longitude": -122.473065666854}, "transactions": ["pickup", "delivery"], "price": "$$", "location": {"address1": "2545 Ocean Ave", "address2": "", "address3": null, "city": "San Francisco", "zip_code": "94132", "country": "US", "state": "CA", "display_address": ["2545 Ocean Ave", "San Francisco, CA 94132"]}, "phone": "+14155857251", "display_phone": "(415) 585-7251", "distance": 4598.31966869483}, {"id": "GzaXtAtEnfwoxDVXK3NLuw", "alias": "fogo-de-ch\u00e3o-san-francisco-san-francisco", "name": "Fogo de Ch\u00e3o - San Francisco", "image_url": "https://s3-media3.fl.yelpcdn.com/bphoto/VSBzWW-xAWEF4Pq4DwfE3Q/o.jpg", "is_closed": false, "url": "https://www.yelp.com/biz/fogo-de-ch%C3%A3o-san-francisco-san-francisco?adjust_creative=Klanz-jboxl2XzqrjP6LLw&utm_campaign=yelp_api_v3&utm_medium=api_v3_business_search&utm_source=Klanz-jboxl2XzqrjP6LLw", "review_count": 1222, "categories": [{"alias": "brazilian", "title": "Brazilian"}, {"alias": "seafood", "title": "Seafood"}, {"alias": "steak", "title": "Steakhouses"}], "rating": 3.5, "coordinates": {"latitude": 37.785051, "longitude": -122.400235}, "transactions": ["pickup", "delivery"], "price": "$$$$", "location": {"address1": "201 3rd St", "address2": "Ste 100", "address3": null, "city": "San Francisco", "zip_code": "94103", "country": "US", "state": "CA", "display_address": ["201 3rd St", "Ste 100", "San Francisco, CA 94103"]}, "phone": "+14154270004", "display_phone": "(415) 427-0004", "distance": 4164.41215935975}, {"id": "aZ_YuxbdMB_ViExPkiXTbg", "alias": "osha-thai-san-francisco-3", "name": "Osha Thai", "image_url": "https://s3-media4.fl.yelpcdn.com/bphoto/ScBCLFSSgCIX-5CgAqurKg/o.jpg", "is_closed": false, "url": "https://www.yelp.com/biz/osha-thai-san-francisco-3?adjust_creative=Klanz-jboxl2XzqrjP6LLw&utm_campaign=yelp_api_v3&utm_medium=api_v3_business_search&utm_source=Klanz-jboxl2XzqrjP6LLw", "review_count": 2461, "categories": [{"alias": "thai", "title": "Thai"}, {"alias": "asianfusion", "title": "Asian Fusion"}], "rating": 3.5, "coordinates": {"latitude": 37.7951796166604, "longitude": -122.395804684962}, "transactions": ["pickup", "restaurant_reservation", "delivery"], "price": "$$", "location": {"address1": "4 Embarcadero Ctr", "address2": "", "address3": "", "city": "San Francisco", "zip_code": "94111", "country": "US", "state": "CA", "display_address": ["4 Embarcadero Ctr", "San Francisco, CA 94111"]}, "phone": "+14157886742", "display_phone": "(415) 788-6742", "distance": 5223.843676360597}, {"id": "5Mqsd52IEJtV9dUJAhcTlQ", "alias": "lucky-creation-vegetarian-restaurant-san-francisco", "name": "Lucky Creation Vegetarian Restaurant", "image_url": "https://s3-media1.fl.yelpcdn.com/bphoto/UZY3QdYltj9mhM7o3byfTQ/o.jpg", "is_closed": false, "url": "https://www.yelp.com/biz/lucky-creation-vegetarian-restaurant-san-francisco?adjust_creative=Klanz-jboxl2XzqrjP6LLw&utm_campaign=yelp_api_v3&utm_medium=api_v3_business_search&utm_source=Klanz-jboxl2XzqrjP6LLw", "review_count": 563, "categories": [{"alias": "vegetarian", "title": "Vegetarian"}, {"alias": "chinese", "title": "Chinese"}, {"alias": "vegan", "title": "Vegan"}], "rating": 4.0, "coordinates": {"latitude": 37.7951059659376, "longitude": -122.407378596858}, "transactions": ["delivery"], "price": "$", "location": {"address1": "854 Washington St", "address2": "", "address3": "", "city": "San Francisco", "zip_code": "94108", "country": "US", "state": "CA", "display_address": ["854 Washington St", "San Francisco, CA 94108"]}, "phone": "+14159890818", "display_phone": "(415) 989-0818", "distance": 4581.9319248844195}, {"id": "xYEUC7yO_c95cOuv3DfxvA", "alias": "moonstar-south-san-francisco", "name": "Moonstar", "image_url": "https://s3-media1.fl.yelpcdn.com/bphoto/yNEkwel4czGZ19b_q57qEg/o.jpg", "is_closed": false, "url": "https://www.yelp.com/biz/moonstar-south-san-francisco?adjust_creative=Klanz-jboxl2XzqrjP6LLw&utm_campaign=yelp_api_v3&utm_medium=api_v3_business_search&utm_source=Klanz-jboxl2XzqrjP6LLw", "review_count": 1267, "categories": [{"alias": "seafood", "title": "Seafood"}, {"alias": "asianfusion", "title": "Asian Fusion"}], "rating": 3.0, "coordinates": {"latitude": 37.65045, "longitude": -122.4146754}, "transactions": ["pickup", "delivery"], "price": "$$", "location": {"address1": "405 S Canal St", "address2": null, "address3": "", "city": "South San Francisco", "zip_code": "94080", "country": "US", "state": "CA", "display_address": ["405 S Canal St", "South San Francisco, CA 94080"]}, "phone": "+16509922888", "display_phone": "(650) 992-2888", "distance": 12429.85227196827}, {"id": "KQzMMqzpxhVtdgSpJPeXyg", "alias": "tom-san-ramen-daly-city", "name": "Tom San Ramen", "image_url": "https://s3-media2.fl.yelpcdn.com/bphoto/RWLH67J-DMAWyF6lbZgdAw/o.jpg", "is_closed": false, "url": "https://www.yelp.com/biz/tom-san-ramen-daly-city?adjust_creative=Klanz-jboxl2XzqrjP6LLw&utm_campaign=yelp_api_v3&utm_medium=api_v3_business_search&utm_source=Klanz-jboxl2XzqrjP6LLw", "review_count": 180, "categories": [{"alias": "ramen", "title": "Ramen"}, {"alias": "sushi", "title": "Sushi Bars"}, {"alias": "salad", "title": "Salad"}], "rating": 4.5, "coordinates": {"latitude": 37.697134, "longitude": -122.48377}, "transactions": ["pickup", "delivery"], "price": "$$", "location": {"address1": "177 Southgate Ave", "address2": null, "address3": "", "city": "Daly City", "zip_code": "94015", "country": "US", "state": "CA", "display_address": ["177 Southgate Ave", "Daly City, CA 94015"]}, "phone": "+16509934204", "display_phone": "(650) 993-4204", "distance": 8221.577063287194}, {"id": "TdSMgDvprOcvMurDHFZdZw", "alias": "pomelo-on-judah-san-francisco", "name": "pomelo on Judah", "image_url": "https://s3-media2.fl.yelpcdn.com/bphoto/hLUyiIq0dvtwlqc2eJTYkg/o.jpg", "is_closed": false, "url": "https://www.yelp.com/biz/pomelo-on-judah-san-francisco?adjust_creative=Klanz-jboxl2XzqrjP6LLw&utm_campaign=yelp_api_v3&utm_medium=api_v3_business_search&utm_source=Klanz-jboxl2XzqrjP6LLw", "review_count": 449, "categories": [{"alias": "asianfusion", "title": "Asian Fusion"}, {"alias": "thai", "title": "Thai"}], "rating": 4.0, "coordinates": {"latitude": 37.76247, "longitude": -122.46269}, "transactions": ["pickup"], "price": "$$", "location": {"address1": "92 Judah St", "address2": "", "address3": "", "city": "San Francisco", "zip_code": "94122", "country": "US", "state": "CA", "display_address": ["92 Judah St", "San Francisco, CA 94122"]}, "phone": "+14157316175", "display_phone": "(415) 731-6175", "distance": 2306.9005191764963}, {"id": "__S0AzRSiweDn8Ue0q53kg", "alias": "bund-shanghai-san-francisco", "name": "Bund Shanghai", "image_url": "https://s3-media3.fl.yelpcdn.com/bphoto/1_XqSUD0Qs2HbBRZue2AVQ/o.jpg", "is_closed": false, "url": "https://www.yelp.com/biz/bund-shanghai-san-francisco?adjust_creative=Klanz-jboxl2XzqrjP6LLw&utm_campaign=yelp_api_v3&utm_medium=api_v3_business_search&utm_source=Klanz-jboxl2XzqrjP6LLw", "review_count": 609, "categories": [{"alias": "shanghainese", "title": "Shanghainese"}, {"alias": "dimsum", "title": "Dim Sum"}, {"alias": "noodles", "title": "Noodles"}], "rating": 3.5, "coordinates": {"latitude": 37.79636, "longitude": -122.40597}, "transactions": ["pickup"], "price": "$$", "location": {"address1": "640 Jackson St", "address2": "", "address3": "", "city": "San Francisco", "zip_code": "94133", "country": "US", "state": "CA", "display_address": ["640 Jackson St", "San Francisco, CA 94133"]}, "phone": "+14159820618", "display_phone": "(415) 982-0618", "distance": 4758.459392609615}, {"id": "TfnEaxxOWzgiJXTEILUvQg", "alias": "penang-garden-san-francisco", "name": "Penang Garden", "image_url": "https://s3-media2.fl.yelpcdn.com/bphoto/2qy--NsD0ECiT0mB57iSkw/o.jpg", "is_closed": false, "url": "https://www.yelp.com/biz/penang-garden-san-francisco?adjust_creative=Klanz-jboxl2XzqrjP6LLw&utm_campaign=yelp_api_v3&utm_medium=api_v3_business_search&utm_source=Klanz-jboxl2XzqrjP6LLw", "review_count": 339, "categories": [{"alias": "thai", "title": "Thai"}, {"alias": "singaporean", "title": "Singaporean"}, {"alias": "malaysian", "title": "Malaysian"}], "rating": 3.0, "coordinates": {"latitude": 37.79551, "longitude": -122.40556}, "transactions": ["delivery"], "price": "$$", "location": {"address1": "728 Washington St", "address2": "", "address3": "", "city": "San Francisco", "zip_code": "94108", "country": "US", "state": "CA", "display_address": ["728 Washington St", "San Francisco, CA 94108"]}, "phone": "+14152967878", "display_phone": "(415) 296-7878", "distance": 4705.629989588644}, {"id": "UC1Ei0WZfQq6vkBGmwBHzg", "alias": "king-yen-restaurant-berkeley", "name": "King Yen Restaurant", "image_url": "https://s3-media4.fl.yelpcdn.com/bphoto/YxYMKfAcdYwP0gdtjqJuig/o.jpg", "is_closed": false, "url": "https://www.yelp.com/biz/king-yen-restaurant-berkeley?adjust_creative=Klanz-jboxl2XzqrjP6LLw&utm_campaign=yelp_api_v3&utm_medium=api_v3_business_search&utm_source=Klanz-jboxl2XzqrjP6LLw", "review_count": 286, "categories": [{"alias": "chinese", "title": "Chinese"}], "rating": 4.0, "coordinates": {"latitude": 37.85625, "longitude": -122.25266}, "transactions": ["delivery"], "price": "$$", "location": {"address1": "2995 College Ave", "address2": "", "address3": "", "city": "Berkeley", "zip_code": "94705", "country": "US", "state": "CA", "display_address": ["2995 College Ave", "Berkeley, CA 94705"]}, "phone": "+15108451286", "display_phone": "(510) 845-1286", "distance": 19315.373300571446}, {"id": "QZNRa98Xb0UNwg0GoqNyzw", "alias": "thai-chef-san-francisco", "name": "Thai Chef", "image_url": "https://s3-media4.fl.yelpcdn.com/bphoto/LiV8LJKL8QjWnCYVxfGviA/o.jpg", "is_closed": false, "url": "https://www.yelp.com/biz/thai-chef-san-francisco?adjust_creative=Klanz-jboxl2XzqrjP6LLw&utm_campaign=yelp_api_v3&utm_medium=api_v3_business_search&utm_source=Klanz-jboxl2XzqrjP6LLw", "review_count": 273, "categories": [{"alias": "thai", "title": "Thai"}], "rating": 3.5, "coordinates": {"latitude": 37.760792, "longitude": -122.435785}, "transactions": ["pickup", "delivery"], "price": "$$", "location": {"address1": "4133 18th St", "address2": "", "address3": "", "city": "San Francisco", "zip_code": "94114", "country": "US", "state": "CA", "display_address": ["4133 18th St", "San Francisco, CA 94114"]}, "phone": "+14155512433", "display_phone": "(415) 551-2433", "distance": 59.41974127253157}, {"id": "YQl-Fre0Btv_Vi04-1d2hQ", "alias": "77-chinese-and-vietnamese-cuisine-san-francisco", "name": "77 Chinese & Vietnamese Cuisine", "image_url": "https://s3-media3.fl.yelpcdn.com/bphoto/rgKgawCohaYtRsCNojzI-g/o.jpg", "is_closed": false, "url": "https://www.yelp.com/biz/77-chinese-and-vietnamese-cuisine-san-francisco?adjust_creative=Klanz-jboxl2XzqrjP6LLw&utm_campaign=yelp_api_v3&utm_medium=api_v3_business_search&utm_source=Klanz-jboxl2XzqrjP6LLw", "review_count": 183, "categories": [{"alias": "chinese", "title": "Chinese"}, {"alias": "vietnamese", "title": "Vietnamese"}], "rating": 3.0, "coordinates": {"latitude": 37.7919563924566, "longitude": -122.399952667601}, "transactions": ["pickup", "delivery"], "price": "$", "location": {"address1": "77 Battery St", "address2": "", "address3": "", "city": "San Francisco", "zip_code": "94111", "country": "US", "state": "CA", "display_address": ["77 Battery St", "San Francisco, CA 94111"]}, "phone": "+14154331938", "display_phone": "(415) 433-1938", "distance": 4713.138110398958}, {"id": "N3pFchYNlKUD86nLFMjJAw", "alias": "the-old-clam-house-san-francisco", "name": "The Old Clam House", "image_url": "https://s3-media2.fl.yelpcdn.com/bphoto/pPvg9sYc7wp-RQ1iq1uMow/o.jpg", "is_closed": false, "url": "https://www.yelp.com/biz/the-old-clam-house-san-francisco?adjust_creative=Klanz-jboxl2XzqrjP6LLw&utm_campaign=yelp_api_v3&utm_medium=api_v3_business_search&utm_source=Klanz-jboxl2XzqrjP6LLw", "review_count": 842, "categories": [{"alias": "seafood", "title": "Seafood"}, {"alias": "tradamerican", "title": "American (Traditional)"}, {"alias": "cocktailbars", "title": "Cocktail Bars"}], "rating": 3.5, "coordinates": {"latitude": 37.743104492865, "longitude": -122.404920842484}, "transactions": ["delivery"], "price": "$$", "location": {"address1": "299 Bayshore Blvd", "address2": "", "address3": "", "city": "San Francisco", "zip_code": "94124", "country": "US", "state": "CA", "display_address": ["299 Bayshore Blvd", "San Francisco, CA 94124"]}, "phone": "+14158264880", "display_phone": "(415) 826-4880", "distance": 3405.5500193895928}, {"id": "KKPqmWB7fgoFktTnzHTMMw", "alias": "larb-thai-food-and-tapas-el-cerrito", "name": "Larb Thai Food & Tapas", "image_url": "https://s3-media2.fl.yelpcdn.com/bphoto/9de1Z8c24xeUfa7rtgb06A/o.jpg", "is_closed": false, "url": "https://www.yelp.com/biz/larb-thai-food-and-tapas-el-cerrito?adjust_creative=Klanz-jboxl2XzqrjP6LLw&utm_campaign=yelp_api_v3&utm_medium=api_v3_business_search&utm_source=Klanz-jboxl2XzqrjP6LLw", "review_count": 547, "categories": [{"alias": "thai", "title": "Thai"}], "rating": 4.5, "coordinates": {"latitude": 37.9036293029785, "longitude": -122.303604125977}, "transactions": ["delivery"], "price": "$$", "location": {"address1": "10166 San Pablo Ave", "address2": "", "address3": null, "city": "El Cerrito", "zip_code": "94530", "country": "US", "state": "CA", "display_address": ["10166 San Pablo Ave", "El Cerrito, CA 94530"]}, "phone": "+15105248988", "display_phone": "(510) 524-8988", "distance": 19696.907374591134}, {"id": "YUG2OPp5WiDNGGt-T8Jkcg", "alias": "sowl-bowls-san-francisco", "name": "Sowl Bowls", "image_url": "https://s3-media2.fl.yelpcdn.com/bphoto/9w5jer3MKAwx40xftvJDCg/o.jpg", "is_closed": false, "url": "https://www.yelp.com/biz/sowl-bowls-san-francisco?adjust_creative=Klanz-jboxl2XzqrjP6LLw&utm_campaign=yelp_api_v3&utm_medium=api_v3_business_search&utm_source=Klanz-jboxl2XzqrjP6LLw", "review_count": 71, "categories": [{"alias": "asianfusion", "title": "Asian Fusion"}], "rating": 5.0, "coordinates": {"latitude": 37.78021, "longitude": -122.40823}, "transactions": ["pickup", "delivery"], "price": "$$", "location": {"address1": "138 6th St", "address2": null, "address3": "", "city": "San Francisco", "zip_code": "94103", "country": "US", "state": "CA", "display_address": ["138 6th St", "San Francisco, CA 94103"]}, "phone": "+14158142896", "display_phone": "(415) 814-2896", "distance": 3289.5751983336063}, {"id": "bGI_oq-DVPo2bWJZxDf9gw", "alias": "sai-jai-thai-restaurant-san-francisco", "name": "Sai Jai Thai Restaurant", "image_url": "https://s3-media4.fl.yelpcdn.com/bphoto/OvZnmAhRoKMj82jRfKT31Q/o.jpg", "is_closed": false, "url": "https://www.yelp.com/biz/sai-jai-thai-restaurant-san-francisco?adjust_creative=Klanz-jboxl2XzqrjP6LLw&utm_campaign=yelp_api_v3&utm_medium=api_v3_business_search&utm_source=Klanz-jboxl2XzqrjP6LLw", "review_count": 934, "categories": [{"alias": "thai", "title": "Thai"}, {"alias": "desserts", "title": "Desserts"}, {"alias": "seafood", "title": "Seafood"}], "rating": 4.0, "coordinates": {"latitude": 37.78495, "longitude": -122.41738}, "transactions": ["delivery"], "price": "$", "location": {"address1": "771 O'Farrell St", "address2": "", "address3": "", "city": "San Francisco", "zip_code": "94109", "country": "US", "state": "CA", "display_address": ["771 O'Farrell St", "San Francisco, CA 94109"]}, "phone": "+14156735774", "display_phone": "(415) 673-5774", "distance": 3166.43861105355}, {"id": "hqQoVK0vadOX7_4gN1sh3g", "alias": "saigon-sandwich-san-francisco", "name": "Saigon Sandwich", "image_url": "https://s3-media3.fl.yelpcdn.com/bphoto/lE_HHijKAKt08JIeRHVh7w/o.jpg", "is_closed": false, "url": "https://www.yelp.com/biz/saigon-sandwich-san-francisco?adjust_creative=Klanz-jboxl2XzqrjP6LLw&utm_campaign=yelp_api_v3&utm_medium=api_v3_business_search&utm_source=Klanz-jboxl2XzqrjP6LLw", "review_count": 3439, "categories": [{"alias": "vietnamese", "title": "Vietnamese"}, {"alias": "sandwiches", "title": "Sandwiches"}], "rating": 4.5, "coordinates": {"latitude": 37.7831519576568, "longitude": -122.417318022037}, "transactions": ["delivery"], "price": "$", "location": {"address1": "560 Larkin St", "address2": "", "address3": "", "city": "San Francisco", "zip_code": "94102", "country": "US", "state": "CA", "display_address": ["560 Larkin St", "San Francisco, CA 94102"]}, "phone": "+14154745698", "display_phone": "(415) 474-5698", "distance": 2991.557987577475}, {"id": "HzUyYVeHHbBsB5s2CsPHTg", "alias": "matko-san-francisco-3", "name": "Matko", "image_url": "https://s3-media1.fl.yelpcdn.com/bphoto/EpvPk3I6LdRzZMqmhsqpqg/o.jpg", "is_closed": false, "url": "https://www.yelp.com/biz/matko-san-francisco-3?adjust_creative=Klanz-jboxl2XzqrjP6LLw&utm_campaign=yelp_api_v3&utm_medium=api_v3_business_search&utm_source=Klanz-jboxl2XzqrjP6LLw", "review_count": 31, "categories": [{"alias": "korean", "title": "Korean"}, {"alias": "hotdogs", "title": "Fast Food"}], "rating": 4.5, "coordinates": {"latitude": 37.77702, "longitude": -122.41652}, "transactions": ["pickup", "delivery"], "price": "$$", "location": {"address1": "1355 Market St", "address2": "", "address3": "The Market Square", "city": "San Francisco", "zip_code": "94103", "country": "US", "state": "CA", "display_address": ["1355 Market St", "The Market Square", "San Francisco, CA 94103"]}, "phone": "+14152095302", "display_phone": "(415) 209-5302", "distance": 2506.2139390944776}, {"id": "cW8_VvgXmb-d_3tWzBuQow", "alias": "sidestreet-pho-alameda", "name": "Sidestreet Pho", "image_url": "https://s3-media3.fl.yelpcdn.com/bphoto/ABHLryY1iZvH83dNVV8o4A/o.jpg", "is_closed": false, "url": "https://www.yelp.com/biz/sidestreet-pho-alameda?adjust_creative=Klanz-jboxl2XzqrjP6LLw&utm_campaign=yelp_api_v3&utm_medium=api_v3_business_search&utm_source=Klanz-jboxl2XzqrjP6LLw", "review_count": 904, "categories": [{"alias": "vietnamese", "title": "Vietnamese"}, {"alias": "noodles", "title": "Noodles"}], "rating": 4.0, "coordinates": {"latitude": 37.7629323, "longitude": -122.2450717}, "transactions": ["pickup", "delivery"], "price": "$$", "location": {"address1": "2304 Encinal Ave", "address2": "", "address3": "", "city": "Alameda", "zip_code": "94501", "country": "US", "state": "CA", "display_address": ["2304 Encinal Ave", "Alameda, CA 94501"]}, "phone": "+15108085298", "display_phone": "(510) 808-5298", "distance": 16824.64428229123}, {"id": "uffD_Gg8EgeQ3uytX8ZrlQ", "alias": "international-food-court-san-francisco", "name": "International Food Court", "image_url": "https://s3-media3.fl.yelpcdn.com/bphoto/wvbhetaqIA1GO23sXn8fMQ/o.jpg", "is_closed": false, "url": "https://www.yelp.com/biz/international-food-court-san-francisco?adjust_creative=Klanz-jboxl2XzqrjP6LLw&utm_campaign=yelp_api_v3&utm_medium=api_v3_business_search&utm_source=Klanz-jboxl2XzqrjP6LLw", "review_count": 92, "categories": [{"alias": "food_court", "title": "Food Court"}], "rating": 3.5, "coordinates": {"latitude": 37.7908731634594, "longitude": -122.403904616672}, "transactions": ["delivery"], "price": "$", "location": {"address1": "320 Bush St", "address2": "", "address3": "", "city": "San Francisco", "zip_code": "94104", "country": "US", "state": "CA", "display_address": ["320 Bush St", "San Francisco, CA 94104"]}, "phone": "", "display_phone": "", "distance": 4391.913262211107}, {"id": "PYwAus1gKufLm8xlg0OYpA", "alias": "tamon-tea-berkeley-3", "name": "Tamon Tea", "image_url": "https://s3-media1.fl.yelpcdn.com/bphoto/DX53HSGJG1MPpOD_q9a85A/o.jpg", "is_closed": false, "url": "https://www.yelp.com/biz/tamon-tea-berkeley-3?adjust_creative=Klanz-jboxl2XzqrjP6LLw&utm_campaign=yelp_api_v3&utm_medium=api_v3_business_search&utm_source=Klanz-jboxl2XzqrjP6LLw", "review_count": 224, "categories": [{"alias": "japanese", "title": "Japanese"}], "rating": 4.5, "coordinates": {"latitude": 37.870417, "longitude": -122.269287}, "transactions": ["pickup", "delivery"], "price": "$", "location": {"address1": "2055 A Center St", "address2": "", "address3": "", "city": "Berkeley", "zip_code": "94704", "country": "US", "state": "CA", "display_address": ["2055 A Center St", "Berkeley, CA 94704"]}, "phone": "+15106479370", "display_phone": "(510) 647-9370", "distance": 19076.458585424978}, {"id": "DPmVQEzJzyQx6uoaEQ6wDw", "alias": "zen-peninsula-millbrae", "name": "Zen Peninsula", "image_url": "https://s3-media4.fl.yelpcdn.com/bphoto/GMdqK6lxmn8wVRonumr_dQ/o.jpg", "is_closed": false, "url": "https://www.yelp.com/biz/zen-peninsula-millbrae?adjust_creative=Klanz-jboxl2XzqrjP6LLw&utm_campaign=yelp_api_v3&utm_medium=api_v3_business_search&utm_source=Klanz-jboxl2XzqrjP6LLw", "review_count": 616, "categories": [{"alias": "dimsum", "title": "Dim Sum"}, {"alias": "seafood", "title": "Seafood"}], "rating": 3.0, "coordinates": {"latitude": 37.60776, "longitude": -122.39839}, "transactions": ["delivery"], "price": "$$", "location": {"address1": "1180 El Camino Real", "address2": "", "address3": "", "city": "Millbrae", "zip_code": "94030", "country": "US", "state": "CA", "display_address": ["1180 El Camino Real", "Millbrae, CA 94030"]}, "phone": "+16506169388", "display_phone": "(650) 616-9388", "distance": 17353.909602279313}, {"id": "XqusjspR2LGsm33BBBJkmQ", "alias": "kufuya-japanese-restaurant-san-francisco", "name": "Kufuya Japanese Restaurant", "image_url": "https://s3-media4.fl.yelpcdn.com/bphoto/WywE-cjFZdK-3GFppl2qRg/o.jpg", "is_closed": false, "url": "https://www.yelp.com/biz/kufuya-japanese-restaurant-san-francisco?adjust_creative=Klanz-jboxl2XzqrjP6LLw&utm_campaign=yelp_api_v3&utm_medium=api_v3_business_search&utm_source=Klanz-jboxl2XzqrjP6LLw", "review_count": 560, "categories": [{"alias": "japanese", "title": "Japanese"}, {"alias": "sushi", "title": "Sushi Bars"}], "rating": 4.0, "coordinates": {"latitude": 37.7794369, "longitude": -122.4944874}, "transactions": ["delivery"], "price": "$$", "location": {"address1": "7001 Geary Blvd", "address2": "", "address3": "", "city": "San Francisco", "zip_code": "94121", "country": "US", "state": "CA", "display_address": ["7001 Geary Blvd", "San Francisco, CA 94121"]}, "phone": "+14156688699", "display_phone": "(415) 668-8699", "distance": 5502.233833432008}, {"id": "gmvG10gJ0JDKds84rUgOsQ", "alias": "blind-tiger-oakland", "name": "Blind Tiger", "image_url": "https://s3-media2.fl.yelpcdn.com/bphoto/YdubzEqZvfSsdlenPyTQ9g/o.jpg", "is_closed": false, "url": "https://www.yelp.com/biz/blind-tiger-oakland?adjust_creative=Klanz-jboxl2XzqrjP6LLw&utm_campaign=yelp_api_v3&utm_medium=api_v3_business_search&utm_source=Klanz-jboxl2XzqrjP6LLw", "review_count": 963, "categories": [{"alias": "asianfusion", "title": "Asian Fusion"}, {"alias": "cocktailbars", "title": "Cocktail Bars"}, {"alias": "tapasmallplates", "title": "Tapas/Small Plates"}], "rating": 4.0, "coordinates": {"latitude": 37.815636, "longitude": -122.26763}, "transactions": ["pickup"], "price": "$$", "location": {"address1": "2600 Telegraph Ave", "address2": "Ste B", "address3": "", "city": "Oakland", "zip_code": "94612", "country": "US", "state": "CA", "display_address": ["2600 Telegraph Ave", "Ste B", "Oakland, CA 94612"]}, "phone": "+15108999694", "display_phone": "(510) 899-9694", "distance": 16034.849230947457}, {"id": "R6-KD8GqziSGDAs9W1mbDg", "alias": "pho-de-nguyen-san-bruno-2", "name": "Pho de Nguyen", "image_url": "https://s3-media2.fl.yelpcdn.com/bphoto/CK9yFHqLOcmAv_HCZ82EfQ/o.jpg", "is_closed": false, "url": "https://www.yelp.com/biz/pho-de-nguyen-san-bruno-2?adjust_creative=Klanz-jboxl2XzqrjP6LLw&utm_campaign=yelp_api_v3&utm_medium=api_v3_business_search&utm_source=Klanz-jboxl2XzqrjP6LLw", "review_count": 415, "categories": [{"alias": "vietnamese", "title": "Vietnamese"}], "rating": 4.0, "coordinates": {"latitude": 37.6261563, "longitude": -122.4111054}, "transactions": ["pickup", "delivery"], "price": "$$", "location": {"address1": "586-A San Mateo Ave", "address2": "", "address3": null, "city": "San Bruno", "zip_code": "94066", "country": "US", "state": "CA", "display_address": ["586-A San Mateo Ave", "San Bruno, CA 94066"]}, "phone": "+16508731388", "display_phone": "(650) 873-1388", "distance": 15148.431241607832}, {"id": "RxIFKVvc8iVBPIVpe55Byg", "alias": "bon-nene-san-francisco", "name": "Bon, Nene", "image_url": "https://s3-media3.fl.yelpcdn.com/bphoto/2vFXNGm2eBj0_7xbJ7L5AA/o.jpg", "is_closed": false, "url": "https://www.yelp.com/biz/bon-nene-san-francisco?adjust_creative=Klanz-jboxl2XzqrjP6LLw&utm_campaign=yelp_api_v3&utm_medium=api_v3_business_search&utm_source=Klanz-jboxl2XzqrjP6LLw", "review_count": 266, "categories": [{"alias": "japanese", "title": "Japanese"}, {"alias": "asianfusion", "title": "Asian Fusion"}], "rating": 4.0, "coordinates": {"latitude": 37.75762490446, "longitude": -122.411629484421}, "transactions": ["pickup", "delivery"], "price": "$$", "location": {"address1": "2850 21st St", "address2": "", "address3": null, "city": "San Francisco", "zip_code": "94110", "country": "US", "state": "CA", "display_address": ["2850 21st St", "San Francisco, CA 94110"]}, "phone": "+14158729332", "display_phone": "(415) 872-9332", "distance": 2211.883791862204}, {"id": "ZGAjGYDFBJV1Z0JO2fanKA", "alias": "rocket-sushi-san-francisco-2", "name": "Rocket Sushi", "image_url": "https://s3-media3.fl.yelpcdn.com/bphoto/rpDSk5oEbhGzV7kt7roGOg/o.jpg", "is_closed": false, "url": "https://www.yelp.com/biz/rocket-sushi-san-francisco-2?adjust_creative=Klanz-jboxl2XzqrjP6LLw&utm_campaign=yelp_api_v3&utm_medium=api_v3_business_search&utm_source=Klanz-jboxl2XzqrjP6LLw", "review_count": 112, "categories": [{"alias": "sushi", "title": "Sushi Bars"}, {"alias": "ramen", "title": "Ramen"}], "rating": 4.5, "coordinates": {"latitude": 37.7725738105, "longitude": -122.421973743}, "transactions": ["pickup", "restaurant_reservation", "delivery"], "location": {"address1": "1695 Market St", "address2": null, "address3": "", "city": "San Francisco", "zip_code": "94103", "country": "US", "state": "CA", "display_address": ["1695 Market St", "San Francisco, CA 94103"]}, "phone": "+14158729368", "display_phone": "(415) 872-9368", "distance": 1817.609011717829}, {"id": "foGe0ZZgkviDZcNUH0N70w", "alias": "china-fun-express-san-francisco", "name": "China Fun Express", "image_url": "https://s3-media2.fl.yelpcdn.com/bphoto/7KcU3ycVBGPzDoL0BH_Ayw/o.jpg", "is_closed": false, "url": "https://www.yelp.com/biz/china-fun-express-san-francisco?adjust_creative=Klanz-jboxl2XzqrjP6LLw&utm_campaign=yelp_api_v3&utm_medium=api_v3_business_search&utm_source=Klanz-jboxl2XzqrjP6LLw", "review_count": 171, "categories": [{"alias": "chinese", "title": "Chinese"}], "rating": 3.0, "coordinates": {"latitude": 37.79005337976135, "longitude": -122.404065143492}, "transactions": ["delivery"], "price": "$", "location": {"address1": "211 Kearny St", "address2": "", "address3": "", "city": "San Francisco", "zip_code": "94108", "country": "US", "state": "CA", "display_address": ["211 Kearny St", "San Francisco, CA 94108"]}, "phone": "+14158371179", "display_phone": "(415) 837-1179", "distance": 4313.833990594493}, {"id": "eQTAY6EI1QzJOTz9TlJn4Q", "alias": "three-star-restaurant-san-francisco", "name": "Three Star Restaurant", "image_url": "https://s3-media4.fl.yelpcdn.com/bphoto/Hxh8v64Z7N3YHVGcdUsbNw/o.jpg", "is_closed": false, "url": "https://www.yelp.com/biz/three-star-restaurant-san-francisco?adjust_creative=Klanz-jboxl2XzqrjP6LLw&utm_campaign=yelp_api_v3&utm_medium=api_v3_business_search&utm_source=Klanz-jboxl2XzqrjP6LLw", "review_count": 58, "categories": [{"alias": "chinese", "title": "Chinese"}], "rating": 3.5, "coordinates": {"latitude": 37.7535697817802, "longitude": -122.490672022104}, "transactions": ["delivery"], "price": "$", "location": {"address1": "2515 Noriega St", "address2": "", "address3": "", "city": "San Francisco", "zip_code": "94122", "country": "US", "state": "CA", "display_address": ["2515 Noriega St", "San Francisco, CA 94122"]}, "phone": "+14155667177", "display_phone": "(415) 566-7177", "distance": 4840.3934623680325}, {"id": "dNd0dS4q2XKERicSa03Fsg", "alias": "donburi-ya-san-francisco-2", "name": "Donburi Ya", "image_url": "https://s3-media1.fl.yelpcdn.com/bphoto/UQBUhu4Uo3KlLSoc1l5Z0Q/o.jpg", "is_closed": false, "url": "https://www.yelp.com/biz/donburi-ya-san-francisco-2?adjust_creative=Klanz-jboxl2XzqrjP6LLw&utm_campaign=yelp_api_v3&utm_medium=api_v3_business_search&utm_source=Klanz-jboxl2XzqrjP6LLw", "review_count": 87, "categories": [{"alias": "japanese", "title": "Japanese"}], "rating": 4.0, "coordinates": {"latitude": 37.78153, "longitude": -122.39903}, "transactions": ["pickup", "delivery"], "price": "$$", "location": {"address1": "764 Harrison St", "address2": null, "address3": "", "city": "San Francisco", "zip_code": "94107", "country": "US", "state": "CA", "display_address": ["764 Harrison St", "San Francisco, CA 94107"]}, "phone": "+14158962288", "display_phone": "(415) 896-2288", "distance": 4011.3076735781333}, {"id": "GUgEBsvYNkYk-s4YyIMW9w", "alias": "hancook-oakland-3", "name": "Hancook", "image_url": "https://s3-media1.fl.yelpcdn.com/bphoto/uGr6CIC09p4DVM-YlvtQCA/o.jpg", "is_closed": false, "url": "https://www.yelp.com/biz/hancook-oakland-3?adjust_creative=Klanz-jboxl2XzqrjP6LLw&utm_campaign=yelp_api_v3&utm_medium=api_v3_business_search&utm_source=Klanz-jboxl2XzqrjP6LLw", "review_count": 733, "categories": [{"alias": "korean", "title": "Korean"}, {"alias": "bbq", "title": "Barbeque"}, {"alias": "hotpot", "title": "Hot Pot"}], "rating": 4.5, "coordinates": {"latitude": 37.8318953, "longitude": -122.2639487}, "transactions": ["pickup", "delivery"], "price": "$$", "location": {"address1": "4315 Telegraph Ave", "address2": "", "address3": null, "city": "Oakland", "zip_code": "94609", "country": "US", "state": "CA", "display_address": ["4315 Telegraph Ave", "Oakland, CA 94609"]}, "phone": "+15108769988", "display_phone": "(510) 876-9988", "distance": 17089.32398406357}, {"id": "WKtGwSIbpCE7g_8QG2slZw", "alias": "cafe-colma-colma", "name": "Cafe Colma", "image_url": "https://s3-media3.fl.yelpcdn.com/bphoto/HGHmLMdmdKwE_pfyhxlqAw/o.jpg", "is_closed": false, "url": "https://www.yelp.com/biz/cafe-colma-colma?adjust_creative=Klanz-jboxl2XzqrjP6LLw&utm_campaign=yelp_api_v3&utm_medium=api_v3_business_search&utm_source=Klanz-jboxl2XzqrjP6LLw", "review_count": 391, "categories": [{"alias": "filipino", "title": "Filipino"}, {"alias": "chinese", "title": "Chinese"}, {"alias": "tradamerican", "title": "American (Traditional)"}], "rating": 3.5, "coordinates": {"latitude": 37.6799, "longitude": -122.45259}, "transactions": ["delivery"], "price": "$$", "location": {"address1": "1700 Hillside Blvd", "address2": "", "address3": "", "city": "Colma", "zip_code": "94014", "country": "US", "state": "CA", "display_address": ["1700 Hillside Blvd", "Colma, CA 94014"]}, "phone": "+16507582237", "display_phone": "(650) 758-2237", "distance": 9122.477441480174}, {"id": "ZektwaE58QDyjz8uBlGurg", "alias": "k-elements-bbq-san-francisco-3", "name": "K-Elements BBQ", "image_url": "https://s3-media3.fl.yelpcdn.com/bphoto/BXXrWqgawTmR9YKi3LG4bA/o.jpg", "is_closed": false, "url": "https://www.yelp.com/biz/k-elements-bbq-san-francisco-3?adjust_creative=Klanz-jboxl2XzqrjP6LLw&utm_campaign=yelp_api_v3&utm_medium=api_v3_business_search&utm_source=Klanz-jboxl2XzqrjP6LLw", "review_count": 701, "categories": [{"alias": "korean", "title": "Korean"}, {"alias": "bbq", "title": "Barbeque"}, {"alias": "asianfusion", "title": "Asian Fusion"}], "rating": 4.0, "coordinates": {"latitude": 37.78227, "longitude": -122.48244}, "transactions": ["delivery", "pickup"], "price": "$$", "location": {"address1": "2140 Clement St", "address2": "", "address3": null, "city": "San Francisco", "zip_code": "94121", "country": "US", "state": "CA", "display_address": ["2140 Clement St", "San Francisco, CA 94121"]}, "phone": "+14157801629", "display_phone": "(415) 780-1629", "distance": 4699.030548477603}, {"id": "dp79eNPRsgJ8MgBjH5DozQ", "alias": "thanh-tam-ii-san-francisco", "name": "Thanh Tam II", "image_url": "https://s3-media3.fl.yelpcdn.com/bphoto/jHATImJw9OaGClewrGKQ8A/o.jpg", "is_closed": false, "url": "https://www.yelp.com/biz/thanh-tam-ii-san-francisco?adjust_creative=Klanz-jboxl2XzqrjP6LLw&utm_campaign=yelp_api_v3&utm_medium=api_v3_business_search&utm_source=Klanz-jboxl2XzqrjP6LLw", "review_count": 434, "categories": [{"alias": "vietnamese", "title": "Vietnamese"}], "rating": 3.5, "coordinates": {"latitude": 37.76368, "longitude": -122.42158}, "transactions": ["delivery"], "price": "$$", "location": {"address1": "577 Valencia St", "address2": "", "address3": "", "city": "San Francisco", "zip_code": "94110", "country": "US", "state": "CA", "display_address": ["577 Valencia St", "San Francisco, CA 94110"]}, "phone": "+14152521190", "display_phone": "(415) 252-1190", "distance": 1342.170178051667}, {"id": "1Ar8bGOeXRud-eZGEW1Ygg", "alias": "china-wong-buffet-san-francisco", "name": "China Wong Buffet", "image_url": "", "is_closed": false, "url": "https://www.yelp.com/biz/china-wong-buffet-san-francisco?adjust_creative=Klanz-jboxl2XzqrjP6LLw&utm_campaign=yelp_api_v3&utm_medium=api_v3_business_search&utm_source=Klanz-jboxl2XzqrjP6LLw", "review_count": 1, "categories": [{"alias": "chinese", "title": "Chinese"}], "rating": 2.0, "coordinates": {"latitude": 37.789678, "longitude": -122.392107}, "transactions": [], "price": "$$", "location": {"address1": "2584 S Main St", "address2": "", "address3": "", "city": "San Francisco", "zip_code": "94103", "country": "US", "state": "CA", "display_address": ["2584 S Main St", "San Francisco, CA 94103"]}, "phone": "+15174567919", "display_phone": "(517) 456-7919", "distance": 5042.560947018842}, {"id": "Q19bgCMzGsG4Ao06F0hpjg", "alias": "the-crab-station-san-francisco", "name": "The Crab Station", "image_url": "https://s3-media1.fl.yelpcdn.com/bphoto/NZI0KLTyj9REAw-8pyvArg/o.jpg", "is_closed": false, "url": "https://www.yelp.com/biz/the-crab-station-san-francisco?adjust_creative=Klanz-jboxl2XzqrjP6LLw&utm_campaign=yelp_api_v3&utm_medium=api_v3_business_search&utm_source=Klanz-jboxl2XzqrjP6LLw", "review_count": 344, "categories": [{"alias": "seafood", "title": "Seafood"}], "rating": 3.5, "coordinates": {"latitude": 37.8083438426256, "longitude": -122.415866553783}, "transactions": ["pickup", "delivery"], "price": "$$", "location": {"address1": "2803 Taylor St", "address2": "", "address3": "", "city": "San Francisco", "zip_code": "94133", "country": "US", "state": "CA", "display_address": ["2803 Taylor St", "San Francisco, CA 94133"]}, "phone": "+14154748796", "display_phone": "(415) 474-8796", "distance": 5575.668025870483}, {"id": "TqGrcmC96h-xLpDfW99BAA", "alias": "cocos-ramen-san-francisco-2", "name": "Coco's Ramen", "image_url": "https://s3-media4.fl.yelpcdn.com/bphoto/LQV6EsaJ8uNziXmeR9pKzA/o.jpg", "is_closed": false, "url": "https://www.yelp.com/biz/cocos-ramen-san-francisco-2?adjust_creative=Klanz-jboxl2XzqrjP6LLw&utm_campaign=yelp_api_v3&utm_medium=api_v3_business_search&utm_source=Klanz-jboxl2XzqrjP6LLw", "review_count": 530, "categories": [{"alias": "ramen", "title": "Ramen"}, {"alias": "noodles", "title": "Noodles"}], "rating": 4.0, "coordinates": {"latitude": 37.74368, "longitude": -122.42069}, "transactions": ["pickup", "delivery"], "price": "$$", "location": {"address1": "3319 Mission St", "address2": "", "address3": "", "city": "San Francisco", "zip_code": "94110", "country": "US", "state": "CA", "display_address": ["3319 Mission St", "San Francisco, CA 94110"]}, "phone": "+14156487722", "display_phone": "(415) 648-7722", "distance": 2345.481514392172}], "total": 1800, "region": {"center": {"longitude": -122.43644714355469, "latitude": 37.76089938976322}}}