{"businesses": [{"id": "x2djtavZIsv84ZKnz_vRMA", "alias": "beretta-san-francisco-2", "name": "Beretta", "image_url": "https://s3-media4.fl.yelpcdn.com/bphoto/ZbD1EvYCH0haRdmZ3E_7Ow/o.jpg", "is_closed": false, "url": "https://www.yelp.com/biz/beretta-san-francisco-2?adjust_creative=Klanz-jboxl2XzqrjP6LLw&utm_campaign=yelp_api_v3&utm_medium=api_v3_business_search&utm_source=Klanz-jboxl2XzqrjP6LLw", "review_count": 212, "categories": [{"alias": "italian", "title": "Italian"}, {"alias": "pizza", "title": "Pizza"}, {"alias": "breakfast_brunch", "title": "Breakfast & Brunch"}], "rating": 4.0, "coordinates": {"latitude": 37.775749, "longitude": -122.43825}, "transactions": ["restaurant_reservation"], "price": "$$", "location": {"address1": "661 Divisadero St", "address2": "", "address3": null, "city": "San Francisco", "zip_code": "94117", "country": "US", "state": "CA", "display_address": ["661 Divisadero St", "San Francisco, CA 94117"]}, "phone": "+14156545211", "display_phone": "(415) 654-5211", "distance": 1658.1789778902603}, {"id": "NrYwJNzMQ3GFwXvh2ZAf-Q", "alias": "estrella-taqueria-san-francisco-2", "name": "Estrella Taqueria", "image_url": "https://s3-media4.fl.yelpcdn.com/bphoto/2J74RmUymOFOzeE7Khs_Cg/o.jpg", "is_closed": false, "url": "https://www.yelp.com/biz/estrella-taqueria-san-francisco-2?adjust_creative=Klanz-jboxl2XzqrjP6LLw&utm_campaign=yelp_api_v3&utm_medium=api_v3_business_search&utm_source=Klanz-jboxl2XzqrjP6LLw", "review_count": 20, "categories": [{"alias": "mexican", "title": "Mexican"}], "rating": 3.0, "coordinates": {"latitude": 37.790925, "longitude": -122.403857}, "transactions": ["pickup", "delivery"], "price": "$", "location": {"address1": "380 Bush St", "address2": "Ste 5", "address3": "", "city": "San Francisco", "zip_code": "94104", "country": "US", "state": "CA", "display_address": ["380 Bush St", "Ste 5", "San Francisco, CA 94104"]}, "phone": "+14156045503", "display_phone": "(415) 604-5503", "distance": 4399.012206510049}, {"id": "XXwjqXpoBMDJo7Ukxcw_Zw", "alias": "restaurant-pupuseria-ilobasco-san-francisco", "name": "Restaurant Pupuseria Ilobasco", "image_url": "https://s3-media2.fl.yelpcdn.com/bphoto/T8giF0-R-w6JsvqHPDtqqw/o.jpg", "is_closed": false, "url": "https://www.yelp.com/biz/restaurant-pupuseria-ilobasco-san-francisco?adjust_creative=Klanz-jboxl2XzqrjP6LLw&utm_campaign=yelp_api_v3&utm_medium=api_v3_business_search&utm_source=Klanz-jboxl2XzqrjP6LLw", "review_count": 63, "categories": [{"alias": "salvadoran", "title": "Salvadoran"}], "rating": 3.5, "coordinates": {"latitude": 37.7278, "longitude": -122.40396}, "transactions": ["delivery"], "price": "$$", "location": {"address1": "2680 San Bruno Ave", "address2": "", "address3": "", "city": "San Francisco", "zip_code": "94134", "country": "US", "state": "CA", "display_address": ["2680 San Bruno Ave", "San Francisco, CA 94134"]}, "phone": "+14154683300", "display_phone": "(415) 468-3300", "distance": 4661.726436291764}, {"id": "hRx9n9PJ7FLmoi9GwoFg3g", "alias": "toronado-san-francisco", "name": "Toronado", "image_url": "https://s3-media2.fl.yelpcdn.com/bphoto/KUa4K7ylbhm3VLxrjSdkww/o.jpg", "is_closed": false, "url": "https://www.yelp.com/biz/toronado-san-francisco?adjust_creative=Klanz-jboxl2XzqrjP6LLw&utm_campaign=yelp_api_v3&utm_medium=api_v3_business_search&utm_source=Klanz-jboxl2XzqrjP6LLw", "review_count": 1791, "categories": [{"alias": "divebars", "title": "Dive Bars"}, {"alias": "pubs", "title": "Pubs"}], "rating": 4.0, "coordinates": {"latitude": 37.77183, "longitude": -122.43114}, "transactions": ["delivery"], "price": "$", "location": {"address1": "547 Haight St", "address2": "", "address3": "", "city": "San Francisco", "zip_code": "94117", "country": "US", "state": "CA", "display_address": ["547 Haight St", "San Francisco, CA 94117"]}, "phone": "+14158632276", "display_phone": "(415) 863-2276", "distance": 1302.219926412341}, {"id": "aQuwkkUS_S52ga0PxiOIag", "alias": "atlas-cafe-san-francisco", "name": "Atlas Cafe", "image_url": "https://s3-media3.fl.yelpcdn.com/bphoto/jsQMgMXw48s-yCZwe6uasw/o.jpg", "is_closed": false, "url": "https://www.yelp.com/biz/atlas-cafe-san-francisco?adjust_creative=Klanz-jboxl2XzqrjP6LLw&utm_campaign=yelp_api_v3&utm_medium=api_v3_business_search&utm_source=Klanz-jboxl2XzqrjP6LLw", "review_count": 819, "categories": [{"alias": "sandwiches", "title": "Sandwiches"}, {"alias": "breakfast_brunch", "title": "Breakfast & Brunch"}, {"alias": "cafes", "title": "Cafes"}], "rating": 4.0, "coordinates": {"latitude": 37.758938, "longitude": -122.411428}, "transactions": ["delivery", "pickup"], "price": "$$", "location": {"address1": "3049 20th St", "address2": "", "address3": "", "city": "San Francisco", "zip_code": "94110", "country": "US", "state": "CA", "display_address": ["3049 20th St", "San Francisco, CA 94110"]}, "phone": "+14156481047", "display_phone": "(415) 648-1047", "distance": 2207.9684106763025}, {"id": "vrKMJfA4iUQPkFocQTDLXw", "alias": "el-sur-san-francisco", "name": "El Sur", "image_url": "https://s3-media1.fl.yelpcdn.com/bphoto/c7W_ICKgmU87E6dNk4WDew/o.jpg", "is_closed": false, "url": "https://www.yelp.com/biz/el-sur-san-francisco?adjust_creative=Klanz-jboxl2XzqrjP6LLw&utm_campaign=yelp_api_v3&utm_medium=api_v3_business_search&utm_source=Klanz-jboxl2XzqrjP6LLw", "review_count": 148, "categories": [{"alias": "argentine", "title": "Argentine"}, {"alias": "foodtrucks", "title": "Food Trucks"}, {"alias": "empanadas", "title": "Empanadas"}], "rating": 4.5, "coordinates": {"latitude": 37.76573, "longitude": -122.40202}, "transactions": ["pickup", "delivery"], "price": "$", "location": {"address1": "300 De Haro St", "address2": "Ste 342", "address3": "", "city": "San Francisco", "zip_code": "94103", "country": "US", "state": "CA", "display_address": ["300 De Haro St", "Ste 342", "San Francisco, CA 94103"]}, "phone": "+14155302803", "display_phone": "(415) 530-2803", "distance": 3089.1261256496055}, {"id": "dt0nffJ_d5jInX2x_jQmOQ", "alias": "king-of-noodles-san-francisco-3", "name": "King of Noodles", "image_url": "https://s3-media2.fl.yelpcdn.com/bphoto/zvHayWpHvZWRxc3dAubi4w/o.jpg", "is_closed": false, "url": "https://www.yelp.com/biz/king-of-noodles-san-francisco-3?adjust_creative=Klanz-jboxl2XzqrjP6LLw&utm_campaign=yelp_api_v3&utm_medium=api_v3_business_search&utm_source=Klanz-jboxl2XzqrjP6LLw", "review_count": 780, "categories": [{"alias": "chinese", "title": "Chinese"}, {"alias": "noodles", "title": "Noodles"}, {"alias": "soup", "title": "Soup"}], "rating": 4.0, "coordinates": {"latitude": 37.76338, "longitude": -122.47567}, "transactions": ["delivery", "pickup"], "price": "$", "location": {"address1": "1639 Irving St", "address2": "", "address3": "", "city": "San Francisco", "zip_code": "94122", "country": "US", "state": "CA", "display_address": ["1639 Irving St", "San Francisco, CA 94122"]}, "phone": "+14155668318", "display_phone": "(415) 566-8318", "distance": 3465.7856377306275}, {"id": "Hkzi2jZscbVIWR7LBAO5pw", "alias": "the-deli-lama-san-francisco", "name": "The Deli Lama", "image_url": "https://s3-media4.fl.yelpcdn.com/bphoto/rAVU8PfhWwenES3lvTSRLA/o.jpg", "is_closed": false, "url": "https://www.yelp.com/biz/the-deli-lama-san-francisco?adjust_creative=Klanz-jboxl2XzqrjP6LLw&utm_campaign=yelp_api_v3&utm_medium=api_v3_business_search&utm_source=Klanz-jboxl2XzqrjP6LLw", "review_count": 92, "categories": [{"alias": "delis", "title": "Delis"}, {"alias": "cheesesteaks", "title": "Cheesesteaks"}, {"alias": "breakfast_brunch", "title": "Breakfast & Brunch"}], "rating": 4.5, "coordinates": {"latitude": 37.74646, "longitude": -122.39713}, "transactions": ["pickup", "delivery"], "price": "$", "location": {"address1": "150 Toland St", "address2": "", "address3": "", "city": "San Francisco", "zip_code": "94124", "country": "US", "state": "CA", "display_address": ["150 Toland St", "San Francisco, CA 94124"]}, "phone": "+14158213795", "display_phone": "(415) 821-3795", "distance": 3827.585448200608}, {"id": "xpzGXyxXO8U0AbBc9ssZfw", "alias": "cancun-sabor-mexicano-berkeley-2", "name": "Cancun Sabor Mexicano", "image_url": "https://s3-media1.fl.yelpcdn.com/bphoto/2riWUwg98CfHtFFh07SXSA/o.jpg", "is_closed": false, "url": "https://www.yelp.com/biz/cancun-sabor-mexicano-berkeley-2?adjust_creative=Klanz-jboxl2XzqrjP6LLw&utm_campaign=yelp_api_v3&utm_medium=api_v3_business_search&utm_source=Klanz-jboxl2XzqrjP6LLw", "review_count": 1003, "categories": [{"alias": "mexican", "title": "Mexican"}], "rating": 3.5, "coordinates": {"latitude": 37.8693466186523, "longitude": -122.266784667969}, "transactions": ["pickup", "delivery"], "price": "$$", "location": {"address1": "2134 Allston Way", "address2": "", "address3": "", "city": "Berkeley", "zip_code": "94704", "country": "US", "state": "CA", "display_address": ["2134 Allston Way", "Berkeley, CA 94704"]}, "phone": "+15105490964", "display_phone": "(510) 549-0964", "distance": 19172.996684563488}, {"id": "Fqdet_mrlLITWjwFZX5suA", "alias": "5-tacos-and-beers-albany", "name": "5 Tacos and Beers", "image_url": "https://s3-media1.fl.yelpcdn.com/bphoto/wPSnFNe3DBqJ373kTe8Slw/o.jpg", "is_closed": false, "url": "https://www.yelp.com/biz/5-tacos-and-beers-albany?adjust_creative=Klanz-jboxl2XzqrjP6LLw&utm_campaign=yelp_api_v3&utm_medium=api_v3_business_search&utm_source=Klanz-jboxl2XzqrjP6LLw", "review_count": 172, "categories": [{"alias": "tacos", "title": "Tacos"}, {"alias": "beerbar", "title": "Beer Bar"}, {"alias": "cocktailbars", "title": "Cocktail Bars"}], "rating": 3.5, "coordinates": {"latitude": 37.89065, "longitude": -122.296764}, "transactions": ["pickup", "delivery"], "price": "$$", "location": {"address1": "1175 Solano Ave", "address2": null, "address3": "", "city": "Albany", "zip_code": "94706", "country": "US", "state": "CA", "display_address": ["1175 Solano Ave", "Albany, CA 94706"]}, "phone": "+15108981829", "display_phone": "(510) 898-1829", "distance": 18917.097120112}, {"id": "YT7rdWYcgQ6shxg7zQO44w", "alias": "las-cocineras-restaurant-san-francisco", "name": "Las Cocineras Restaurant", "image_url": "https://s3-media1.fl.yelpcdn.com/bphoto/m4eL8GnrpMR8yy5iMHtbNQ/o.jpg", "is_closed": false, "url": "https://www.yelp.com/biz/las-cocineras-restaurant-san-francisco?adjust_creative=Klanz-jboxl2XzqrjP6LLw&utm_campaign=yelp_api_v3&utm_medium=api_v3_business_search&utm_source=Klanz-jboxl2XzqrjP6LLw", "review_count": 21, "categories": [{"alias": "mexican", "title": "Mexican"}], "rating": 3.5, "coordinates": {"latitude": 37.75985, "longitude": -122.41442}, "transactions": ["delivery", "pickup"], "price": "$", "location": {"address1": "2341 Folsom St", "address2": null, "address3": null, "city": "San Francisco", "zip_code": "94110", "country": "US", "state": "CA", "display_address": ["2341 Folsom St", "San Francisco, CA 94110"]}, "phone": "+14156844638", "display_phone": "(415) 684-4638", "distance": 1925.409533966548}, {"id": "2k5yh0ZG2uc0ZDYNcNvXsw", "alias": "scopo-divino-san-francisco", "name": "Scopo Divino", "image_url": "https://s3-media1.fl.yelpcdn.com/bphoto/8yHXVQCsi8SCv5ZMwBQUKg/o.jpg", "is_closed": false, "url": "https://www.yelp.com/biz/scopo-divino-san-francisco?adjust_creative=Klanz-jboxl2XzqrjP6LLw&utm_campaign=yelp_api_v3&utm_medium=api_v3_business_search&utm_source=Klanz-jboxl2XzqrjP6LLw", "review_count": 298, "categories": [{"alias": "wine_bars", "title": "Wine Bars"}, {"alias": "newamerican", "title": "American (New)"}, {"alias": "breakfast_brunch", "title": "Breakfast & Brunch"}], "rating": 4.5, "coordinates": {"latitude": 37.78829, "longitude": -122.44078}, "transactions": ["pickup", "delivery"], "price": "$$", "location": {"address1": "2800 California St", "address2": null, "address3": "", "city": "San Francisco", "zip_code": "94115", "country": "US", "state": "CA", "display_address": ["2800 California St", "San Francisco, CA 94115"]}, "phone": "+14159283728", "display_phone": "(415) 928-3728", "distance": 3061.4881347993773}, {"id": "7gZvNgv1iV8XRuUqh3UtSA", "alias": "carrie-dove-catering-and-events-san-francisco", "name": "Carrie Dove Catering & Events", "image_url": "https://s3-media4.fl.yelpcdn.com/bphoto/q5bKSBjm3K_uhRLT_jXlVw/o.jpg", "is_closed": false, "url": "https://www.yelp.com/biz/carrie-dove-catering-and-events-san-francisco?adjust_creative=Klanz-jboxl2XzqrjP6LLw&utm_campaign=yelp_api_v3&utm_medium=api_v3_business_search&utm_source=Klanz-jboxl2XzqrjP6LLw", "review_count": 174, "categories": [{"alias": "catering", "title": "Caterers"}, {"alias": "eventplanning", "title": "Party & Event Planning"}], "rating": 5.0, "coordinates": {"latitude": 37.74434, "longitude": -122.47868}, "transactions": [], "location": {"address1": "", "address2": "", "address3": "", "city": "San Francisco", "zip_code": "94016", "country": "US", "state": "CA", "display_address": ["San Francisco, CA 94016"]}, "phone": "+14154609995", "display_phone": "(415) 460-9995", "distance": 5783.869989521069}, {"id": "E0ceJh3NitoNjlZxmvCVLQ", "alias": "sanguchon-eatery-san-francisco", "name": "Sanguchon Eatery", "image_url": "https://s3-media2.fl.yelpcdn.com/bphoto/4uNV7dk3WU33wjIucQ031Q/o.jpg", "is_closed": false, "url": "https://www.yelp.com/biz/sanguchon-eatery-san-francisco?adjust_creative=Klanz-jboxl2XzqrjP6LLw&utm_campaign=yelp_api_v3&utm_medium=api_v3_business_search&utm_source=Klanz-jboxl2XzqrjP6LLw", "review_count": 65, "categories": [{"alias": "peruvian", "title": "Peruvian"}, {"alias": "sandwiches", "title": "Sandwiches"}], "rating": 4.5, "coordinates": {"latitude": 37.75408, "longitude": -122.42101}, "transactions": ["pickup", "delivery"], "price": "$$", "location": {"address1": "1182 Valencia St", "address2": null, "address3": "", "city": "San Francisco", "zip_code": "94110", "country": "US", "state": "CA", "display_address": ["1182 Valencia St", "San Francisco, CA 94110"]}, "phone": "+14157664317", "display_phone": "(415) 766-4317", "distance": 1554.5183865345302}, {"id": "-1azCU_4ysYXu7mW-BQ12g", "alias": "king-knish-san-francisco-18", "name": "King Knish", "image_url": "https://s3-media3.fl.yelpcdn.com/bphoto/ckpey4gwnx21onIyfXiAiQ/o.jpg", "is_closed": false, "url": "https://www.yelp.com/biz/king-knish-san-francisco-18?adjust_creative=Klanz-jboxl2XzqrjP6LLw&utm_campaign=yelp_api_v3&utm_medium=api_v3_business_search&utm_source=Klanz-jboxl2XzqrjP6LLw", "review_count": 22, "categories": [{"alias": "catering", "title": "Caterers"}, {"alias": "personalchefs", "title": "Personal Chefs"}], "rating": 4.0, "coordinates": {"latitude": 37.766477600839444, "longitude": -122.394633209477}, "transactions": ["delivery"], "location": {"address1": "", "address2": "", "address3": null, "city": "San Francisco", "zip_code": "94107", "country": "US", "state": "CA", "display_address": ["San Francisco, CA 94107"]}, "phone": "+16282466783", "display_phone": "(628) 246-6783", "distance": 3727.5930712960403}, {"id": "iEbNZymY3kEbPG7wP1i19w", "alias": "taqueria-la-cumbre-san-francisco", "name": "Taqueria La Cumbre", "image_url": "https://s3-media3.fl.yelpcdn.com/bphoto/NNYXKaRFpTW6W0Uoo6smaQ/o.jpg", "is_closed": false, "url": "https://www.yelp.com/biz/taqueria-la-cumbre-san-francisco?adjust_creative=Klanz-jboxl2XzqrjP6LLw&utm_campaign=yelp_api_v3&utm_medium=api_v3_business_search&utm_source=Klanz-jboxl2XzqrjP6LLw", "review_count": 900, "categories": [{"alias": "mexican", "title": "Mexican"}], "rating": 3.0, "coordinates": {"latitude": 37.7645683288574, "longitude": -122.421592712402}, "transactions": ["delivery", "pickup"], "price": "$$", "location": {"address1": "515 Valencia St", "address2": "", "address3": "", "city": "San Francisco", "zip_code": "94110", "country": "US", "state": "CA", "display_address": ["515 Valencia St", "San Francisco, CA 94110"]}, "phone": "+14158638205", "display_phone": "(415) 863-8205", "distance": 1365.2221218195891}, {"id": "u1qumXEGzdxzl0lM3Sjf9Q", "alias": "local-kitchen-and-wine-merchant-san-francisco-2", "name": "Local Kitchen & Wine Merchant", "image_url": "https://s3-media4.fl.yelpcdn.com/bphoto/CYSTajGQKPLoi808wqankg/o.jpg", "is_closed": false, "url": "https://www.yelp.com/biz/local-kitchen-and-wine-merchant-san-francisco-2?adjust_creative=Klanz-jboxl2XzqrjP6LLw&utm_campaign=yelp_api_v3&utm_medium=api_v3_business_search&utm_source=Klanz-jboxl2XzqrjP6LLw", "review_count": 1079, "categories": [{"alias": "wine_bars", "title": "Wine Bars"}, {"alias": "newamerican", "title": "American (New)"}, {"alias": "pizza", "title": "Pizza"}], "rating": 3.5, "coordinates": {"latitude": 37.7867851257324, "longitude": -122.394218444824}, "transactions": ["delivery", "pickup"], "price": "$$", "location": {"address1": "330 1st St", "address2": "", "address3": "", "city": "San Francisco", "zip_code": "94105", "country": "US", "state": "CA", "display_address": ["330 1st St", "San Francisco, CA 94105"]}, "phone": "+14157774200", "display_phone": "(415) 777-4200", "distance": 4698.721024054892}, {"id": "zkVm2lMNdKWfbE4Uo1tMeA", "alias": "abrazo-san-francisco-2", "name": "Abrazo", "image_url": "https://s3-media1.fl.yelpcdn.com/bphoto/g3TqyzHXSsKm0zhVCUErrw/o.jpg", "is_closed": false, "url": "https://www.yelp.com/biz/abrazo-san-francisco-2?adjust_creative=Klanz-jboxl2XzqrjP6LLw&utm_campaign=yelp_api_v3&utm_medium=api_v3_business_search&utm_source=Klanz-jboxl2XzqrjP6LLw", "review_count": 111, "categories": [{"alias": "spanish", "title": "Spanish"}, {"alias": "newamerican", "title": "American (New)"}, {"alias": "seafood", "title": "Seafood"}], "rating": 4.5, "coordinates": {"latitude": 37.7994, "longitude": -122.41888}, "transactions": ["delivery"], "price": "$$$", "location": {"address1": "2000 Hyde St", "address2": null, "address3": "", "city": "San Francisco", "zip_code": "94109", "country": "US", "state": "CA", "display_address": ["2000 Hyde St", "San Francisco, CA 94109"]}, "phone": "+14158729239", "display_phone": "(415) 872-9239", "distance": 4544.339524282116}, {"id": "jLKP2lt2ZDEnRhMQ2Yk55Q", "alias": "las-palmeras-restaurant-san-francisco", "name": "Las Palmeras Restaurant", "image_url": "https://s3-media4.fl.yelpcdn.com/bphoto/c0_hv9G0gBkpe4t5OwZVQw/o.jpg", "is_closed": false, "url": "https://www.yelp.com/biz/las-palmeras-restaurant-san-francisco?adjust_creative=Klanz-jboxl2XzqrjP6LLw&utm_campaign=yelp_api_v3&utm_medium=api_v3_business_search&utm_source=Klanz-jboxl2XzqrjP6LLw", "review_count": 82, "categories": [{"alias": "mexican", "title": "Mexican"}, {"alias": "latin", "title": "Latin American"}], "rating": 3.5, "coordinates": {"latitude": 37.75348, "longitude": -122.4182}, "transactions": ["delivery"], "price": "$", "location": {"address1": "2723 Mission St", "address2": "", "address3": "", "city": "San Francisco", "zip_code": "94110", "country": "US", "state": "CA", "display_address": ["2723 Mission St", "San Francisco, CA 94110"]}, "phone": "+14152857796", "display_phone": "(415) 285-7796", "distance": 1792.0942908239815}, {"id": "CvmIfaftFA4bp0HBnwQ_bw", "alias": "cafe-zoetrope-san-francisco-4", "name": "Cafe Zoetrope", "image_url": "https://s3-media1.fl.yelpcdn.com/bphoto/IP3mQDB2z4_2BiktJCSRZQ/o.jpg", "is_closed": false, "url": "https://www.yelp.com/biz/cafe-zoetrope-san-francisco-4?adjust_creative=Klanz-jboxl2XzqrjP6LLw&utm_campaign=yelp_api_v3&utm_medium=api_v3_business_search&utm_source=Klanz-jboxl2XzqrjP6LLw", "review_count": 443, "categories": [{"alias": "italian", "title": "Italian"}, {"alias": "beer_and_wine", "title": "Beer, Wine & Spirits"}, {"alias": "wine_bars", "title": "Wine Bars"}], "rating": 3.5, "coordinates": {"latitude": 37.79659658173354, "longitude": -122.40509392052708}, "transactions": ["delivery", "pickup"], "price": "$$", "location": {"address1": "916 Kearny St", "address2": "", "address3": "", "city": "San Francisco", "zip_code": "94133", "country": "US", "state": "CA", "display_address": ["916 Kearny St", "San Francisco, CA 94133"]}, "phone": "+14152911700", "display_phone": "(415) 291-1700", "distance": 4832.036701680007}, {"id": "-JN1whnyt6V138qNIjGLcw", "alias": "cholita-linda-alameda-8", "name": "Cholita Linda", "image_url": "https://s3-media2.fl.yelpcdn.com/bphoto/OKV9IE-j9T8wSOQ7AfxJuw/o.jpg", "is_closed": false, "url": "https://www.yelp.com/biz/cholita-linda-alameda-8?adjust_creative=Klanz-jboxl2XzqrjP6LLw&utm_campaign=yelp_api_v3&utm_medium=api_v3_business_search&utm_source=Klanz-jboxl2XzqrjP6LLw", "review_count": 362, "categories": [{"alias": "latin", "title": "Latin American"}, {"alias": "sandwiches", "title": "Sandwiches"}, {"alias": "tacos", "title": "Tacos"}], "rating": 4.5, "coordinates": {"latitude": 37.76355, "longitude": -122.24355}, "transactions": ["delivery"], "price": "$$", "location": {"address1": "1337 Park St", "address2": "", "address3": null, "city": "Alameda", "zip_code": "94501", "country": "US", "state": "CA", "display_address": ["1337 Park St", "Alameda, CA 94501"]}, "phone": "+15103981150", "display_phone": "(510) 398-1150", "distance": 16949.461147026395}, {"id": "UGKNNQ6bjL-ZttHSdZISfA", "alias": "blackwood-san-francisco-3", "name": "Blackwood", "image_url": "https://s3-media3.fl.yelpcdn.com/bphoto/4J7kmKdrkZjb48WRxzx4TQ/o.jpg", "is_closed": false, "url": "https://www.yelp.com/biz/blackwood-san-francisco-3?adjust_creative=Klanz-jboxl2XzqrjP6LLw&utm_campaign=yelp_api_v3&utm_medium=api_v3_business_search&utm_source=Klanz-jboxl2XzqrjP6LLw", "review_count": 1897, "categories": [{"alias": "thai", "title": "Thai"}, {"alias": "breakfast_brunch", "title": "Breakfast & Brunch"}, {"alias": "asianfusion", "title": "Asian Fusion"}], "rating": 4.0, "coordinates": {"latitude": 37.800591, "longitude": -122.438832}, "transactions": ["restaurant_reservation", "pickup", "delivery"], "price": "$$", "location": {"address1": "2150 Chestnut St", "address2": "", "address3": "", "city": "San Francisco", "zip_code": "94123", "country": "US", "state": "CA", "display_address": ["2150 Chestnut St", "San Francisco, CA 94123"]}, "phone": "+14159319663", "display_phone": "(415) 931-9663", "distance": 4418.474572931308}, {"id": "tVedCeFnVQQx4e9GeESnow", "alias": "slate-bar-san-francisco", "name": "Slate Bar", "image_url": "https://s3-media3.fl.yelpcdn.com/bphoto/fcy7qeOFzk4h2JXxRk_TwA/o.jpg", "is_closed": false, "url": "https://www.yelp.com/biz/slate-bar-san-francisco?adjust_creative=Klanz-jboxl2XzqrjP6LLw&utm_campaign=yelp_api_v3&utm_medium=api_v3_business_search&utm_source=Klanz-jboxl2XzqrjP6LLw", "review_count": 143, "categories": [{"alias": "danceclubs", "title": "Dance Clubs"}, {"alias": "cocktailbars", "title": "Cocktail Bars"}, {"alias": "karaoke", "title": "Karaoke"}], "rating": 4.0, "coordinates": {"latitude": 37.7650479, "longitude": -122.418117}, "transactions": [], "price": "$$", "location": {"address1": "2925 16th St", "address2": "", "address3": "", "city": "San Francisco", "zip_code": "94103", "country": "US", "state": "CA", "display_address": ["2925 16th St", "San Francisco, CA 94103"]}, "phone": "+14155588521", "display_phone": "(415) 558-8521", "distance": 1676.0442036575073}, {"id": "np0rNe05zgX1xlYEl3lbJA", "alias": "cafe-mason-san-francisco-4", "name": "Cafe Mason", "image_url": "https://s3-media2.fl.yelpcdn.com/bphoto/w9Elklv5zPG7M-c6A8ioTg/o.jpg", "is_closed": false, "url": "https://www.yelp.com/biz/cafe-mason-san-francisco-4?adjust_creative=Klanz-jboxl2XzqrjP6LLw&utm_campaign=yelp_api_v3&utm_medium=api_v3_business_search&utm_source=Klanz-jboxl2XzqrjP6LLw", "review_count": 1047, "categories": [{"alias": "breakfast_brunch", "title": "Breakfast & Brunch"}, {"alias": "newamerican", "title": "American (New)"}, {"alias": "sandwiches", "title": "Sandwiches"}], "rating": 3.0, "coordinates": {"latitude": 37.78649, "longitude": -122.40951}, "transactions": ["pickup", "delivery"], "price": "$$", "location": {"address1": "320 Mason St", "address2": "", "address3": "", "city": "San Francisco", "zip_code": "94102", "country": "US", "state": "CA", "display_address": ["320 Mason St", "San Francisco, CA 94102"]}, "phone": "+14155440320", "display_phone": "(415) 544-0320", "distance": 3706.565452016943}, {"id": "DHPOA4JEkrdbUil6N8WlSg", "alias": "ariels-breakfast-ghd-san-francisco", "name": "Ariel's Breakfast - GHD", "image_url": "https://s3-media1.fl.yelpcdn.com/bphoto/bpO9yvCnwoMD8mrbCWr_Dw/o.jpg", "is_closed": false, "url": "https://www.yelp.com/biz/ariels-breakfast-ghd-san-francisco?adjust_creative=Klanz-jboxl2XzqrjP6LLw&utm_campaign=yelp_api_v3&utm_medium=api_v3_business_search&utm_source=Klanz-jboxl2XzqrjP6LLw", "review_count": 4, "categories": [{"alias": "salad", "title": "Salad"}, {"alias": "breakfast_brunch", "title": "Breakfast & Brunch"}, {"alias": "bagels", "title": "Bagels"}], "rating": 4.5, "coordinates": {"latitude": 37.751536, "longitude": -122.418133}, "transactions": ["delivery"], "location": {"address1": "2845 Mission St", "address2": null, "address3": null, "city": "San Francisco", "zip_code": "94110", "country": "US", "state": "CA", "display_address": ["2845 Mission St", "San Francisco, CA 94110"]}, "phone": "+14152854455", "display_phone": "(415) 285-4455", "distance": 1916.7629367185439}, {"id": "GzOumj6_QOeQByuc_0yajQ", "alias": "z-and-y-restaurant-san-francisco-3", "name": "Z & Y Restaurant", "image_url": "https://s3-media2.fl.yelpcdn.com/bphoto/c5OhQCnCXClBEngrz4jgMw/o.jpg", "is_closed": false, "url": "https://www.yelp.com/biz/z-and-y-restaurant-san-francisco-3?adjust_creative=Klanz-jboxl2XzqrjP6LLw&utm_campaign=yelp_api_v3&utm_medium=api_v3_business_search&utm_source=Klanz-jboxl2XzqrjP6LLw", "review_count": 1906, "categories": [{"alias": "chinese", "title": "Chinese"}, {"alias": "seafood", "title": "Seafood"}], "rating": 3.5, "coordinates": {"latitude": 37.796, "longitude": -122.406}, "transactions": ["delivery", "restaurant_reservation", "pickup"], "price": "$$", "location": {"address1": "655 Jackson St", "address2": "", "address3": "", "city": "San Francisco", "zip_code": "94133", "country": "US", "state": "CA", "display_address": ["655 Jackson St", "San Francisco, CA 94133"]}, "phone": "+14159818988", "display_phone": "(415) 981-8988", "distance": 4725.053029734407}, {"id": "5c_mlYDTeFdH72MZALSvVw", "alias": "d-maize-san-francisco-3", "name": "D\u2019Maize", "image_url": "https://s3-media3.fl.yelpcdn.com/bphoto/T3r-Z-u5sdgBMnmJBXHoZw/o.jpg", "is_closed": false, "url": "https://www.yelp.com/biz/d-maize-san-francisco-3?adjust_creative=Klanz-jboxl2XzqrjP6LLw&utm_campaign=yelp_api_v3&utm_medium=api_v3_business_search&utm_source=Klanz-jboxl2XzqrjP6LLw", "review_count": 66, "categories": [{"alias": "breakfast_brunch", "title": "Breakfast & Brunch"}, {"alias": "salvadoran", "title": "Salvadoran"}], "rating": 4.5, "coordinates": {"latitude": 37.7531, "longitude": -122.4078}, "transactions": ["pickup", "delivery"], "price": "$", "location": {"address1": "2778 24th St", "address2": "", "address3": "", "city": "San Francisco", "zip_code": "94110", "country": "US", "state": "CA", "display_address": ["2778 24th St", "San Francisco, CA 94110"]}, "phone": "+14154240604", "display_phone": "(415) 424-0604", "distance": 2664.8398739799077}, {"id": "-Q-iG5JGTTwfuifDMbXNAQ", "alias": "moonlight-cafe-san-francisco", "name": "Moonlight Cafe", "image_url": "https://s3-media2.fl.yelpcdn.com/bphoto/aaS8ygMmW0sqWkx18ZOY9A/o.jpg", "is_closed": false, "url": "https://www.yelp.com/biz/moonlight-cafe-san-francisco?adjust_creative=Klanz-jboxl2XzqrjP6LLw&utm_campaign=yelp_api_v3&utm_medium=api_v3_business_search&utm_source=Klanz-jboxl2XzqrjP6LLw", "review_count": 265, "categories": [{"alias": "cafes", "title": "Cafes"}, {"alias": "breakfast_brunch", "title": "Breakfast & Brunch"}], "rating": 4.0, "coordinates": {"latitude": 37.73876, "longitude": -122.4153}, "transactions": [], "price": "$$", "location": {"address1": "634 Cortland Ave", "address2": "", "address3": "", "city": "San Francisco", "zip_code": "94110", "country": "US", "state": "CA", "display_address": ["634 Cortland Ave", "San Francisco, CA 94110"]}, "phone": "+14156476448", "display_phone": "(415) 647-6448", "distance": 3077.542372034694}, {"id": "HGANiSkXUTEEX50Xhtz_5Q", "alias": "el-paisa-restaurante-jenny-and-jesse-san-francisco", "name": "El Paisa Restaurante-Jenny & Jesse", "image_url": "https://s3-media4.fl.yelpcdn.com/bphoto/34Qts4g5eEu9DO1ZTW9iEg/o.jpg", "is_closed": false, "url": "https://www.yelp.com/biz/el-paisa-restaurante-jenny-and-jesse-san-francisco?adjust_creative=Klanz-jboxl2XzqrjP6LLw&utm_campaign=yelp_api_v3&utm_medium=api_v3_business_search&utm_source=Klanz-jboxl2XzqrjP6LLw", "review_count": 79, "categories": [{"alias": "latin", "title": "Latin American"}, {"alias": "honduran", "title": "Honduran"}], "rating": 4.0, "coordinates": {"latitude": 37.7436278695822, "longitude": -122.421432494205}, "transactions": [], "price": "$$", "location": {"address1": "3322 Mission St", "address2": "", "address3": null, "city": "San Francisco", "zip_code": "94110", "country": "US", "state": "CA", "display_address": ["3322 Mission St", "San Francisco, CA 94110"]}, "phone": "+14155500557", "display_phone": "(415) 550-0557", "distance": 2330.4250981978203}, {"id": "Yw4GGa8B8DRNCJOADxk41Q", "alias": "harveys-san-francisco", "name": "Harvey's", "image_url": "https://s3-media4.fl.yelpcdn.com/bphoto/OEeIDSjzoHbAbywnDqJ-7Q/o.jpg", "is_closed": false, "url": "https://www.yelp.com/biz/harveys-san-francisco?adjust_creative=Klanz-jboxl2XzqrjP6LLw&utm_campaign=yelp_api_v3&utm_medium=api_v3_business_search&utm_source=Klanz-jboxl2XzqrjP6LLw", "review_count": 833, "categories": [{"alias": "tradamerican", "title": "American (Traditional)"}, {"alias": "sportsbars", "title": "Sports Bars"}, {"alias": "breakfast_brunch", "title": "Breakfast & Brunch"}], "rating": 3.5, "coordinates": {"latitude": 37.7607805322717, "longitude": -122.435256826083}, "transactions": ["pickup", "delivery"], "price": "$$", "location": {"address1": "500 Castro St", "address2": "", "address3": "", "city": "San Francisco", "zip_code": "94114", "country": "US", "state": "CA", "display_address": ["500 Castro St", "San Francisco, CA 94114"]}, "phone": "+14154314278", "display_phone": "(415) 431-4278", "distance": 105.46940383069769}, {"id": "KXmA7LX88n61HS1W3otsTg", "alias": "blackthorn-san-francisco", "name": "Blackthorn", "image_url": "https://s3-media3.fl.yelpcdn.com/bphoto/uL9e_4IEC70Dp0Uqp8LuwA/o.jpg", "is_closed": false, "url": "https://www.yelp.com/biz/blackthorn-san-francisco?adjust_creative=Klanz-jboxl2XzqrjP6LLw&utm_campaign=yelp_api_v3&utm_medium=api_v3_business_search&utm_source=Klanz-jboxl2XzqrjP6LLw", "review_count": 222, "categories": [{"alias": "sportsbars", "title": "Sports Bars"}, {"alias": "pubs", "title": "Pubs"}], "rating": 4.0, "coordinates": {"latitude": 37.7642499, "longitude": -122.46703}, "transactions": [], "price": "$", "location": {"address1": "834 Irving St", "address2": "", "address3": "", "city": "San Francisco", "zip_code": "94122", "country": "US", "state": "CA", "display_address": ["834 Irving St", "San Francisco, CA 94122"]}, "phone": "+14155646626", "display_phone": "(415) 564-6626", "distance": 2715.3599265102616}, {"id": "yjD16DQ2GI1I0c2rmVI8zA", "alias": "la-laguna-taqueria-san-francisco", "name": "La Laguna Taqueria", "image_url": "https://s3-media3.fl.yelpcdn.com/bphoto/o7PhTHxHrcXSd25ZAdQ-bQ/o.jpg", "is_closed": false, "url": "https://www.yelp.com/biz/la-laguna-taqueria-san-francisco?adjust_creative=Klanz-jboxl2XzqrjP6LLw&utm_campaign=yelp_api_v3&utm_medium=api_v3_business_search&utm_source=Klanz-jboxl2XzqrjP6LLw", "review_count": 127, "categories": [{"alias": "mexican", "title": "Mexican"}], "rating": 4.0, "coordinates": {"latitude": 37.74185, "longitude": -122.38858}, "transactions": ["pickup"], "price": "$", "location": {"address1": "3906 3rd St", "address2": "", "address3": "", "city": "San Francisco", "zip_code": "94124", "country": "US", "state": "CA", "display_address": ["3906 3rd St", "San Francisco, CA 94124"]}, "phone": "+14154019420", "display_phone": "(415) 401-9420", "distance": 4712.786972107747}, {"id": "XiB2DFy_gRhhuBYfHZk91w", "alias": "fireside-bar-san-francisco", "name": "Fireside Bar", "image_url": "https://s3-media2.fl.yelpcdn.com/bphoto/IXXmGVjrhyTkQX6iU1uldA/o.jpg", "is_closed": false, "url": "https://www.yelp.com/biz/fireside-bar-san-francisco?adjust_creative=Klanz-jboxl2XzqrjP6LLw&utm_campaign=yelp_api_v3&utm_medium=api_v3_business_search&utm_source=Klanz-jboxl2XzqrjP6LLw", "review_count": 329, "categories": [{"alias": "cocktailbars", "title": "Cocktail Bars"}], "rating": 3.5, "coordinates": {"latitude": 37.7639, "longitude": -122.46447}, "transactions": [], "price": "$", "location": {"address1": "603 Irving St", "address2": "", "address3": "", "city": "San Francisco", "zip_code": "94122", "country": "US", "state": "CA", "display_address": ["603 Irving St", "San Francisco, CA 94122"]}, "phone": "+14157316433", "display_phone": "(415) 731-6433", "distance": 2485.494660805609}, {"id": "eozQsh2UnHM9aok46zGgyA", "alias": "the-pig-and-whistle-san-francisco", "name": "The Pig & Whistle", "image_url": "https://s3-media3.fl.yelpcdn.com/bphoto/i6Dbf5sj6lcVKd84hEIanQ/o.jpg", "is_closed": false, "url": "https://www.yelp.com/biz/the-pig-and-whistle-san-francisco?adjust_creative=Klanz-jboxl2XzqrjP6LLw&utm_campaign=yelp_api_v3&utm_medium=api_v3_business_search&utm_source=Klanz-jboxl2XzqrjP6LLw", "review_count": 478, "categories": [{"alias": "pubs", "title": "Pubs"}, {"alias": "british", "title": "British"}], "rating": 4.0, "coordinates": {"latitude": 37.782129, "longitude": -122.449641}, "transactions": ["delivery"], "price": "$$", "location": {"address1": "2801 Geary Blvd", "address2": "", "address3": "", "city": "San Francisco", "zip_code": "94118", "country": "US", "state": "CA", "display_address": ["2801 Geary Blvd", "San Francisco, CA 94118"]}, "phone": "+14158854779", "display_phone": "(415) 885-4779", "distance": 2630.09157375858}, {"id": "z044R1luJTuVtzUGUA9d-A", "alias": "phoenix-irish-bar-san-francisco", "name": "Phoenix Irish Bar", "image_url": "https://s3-media2.fl.yelpcdn.com/bphoto/N16wERUskeRCm8wkE-8OSA/o.jpg", "is_closed": false, "url": "https://www.yelp.com/biz/phoenix-irish-bar-san-francisco?adjust_creative=Klanz-jboxl2XzqrjP6LLw&utm_campaign=yelp_api_v3&utm_medium=api_v3_business_search&utm_source=Klanz-jboxl2XzqrjP6LLw", "review_count": 674, "categories": [{"alias": "sportsbars", "title": "Sports Bars"}, {"alias": "irish_pubs", "title": "Irish Pub"}], "rating": 3.5, "coordinates": {"latitude": 37.7598422, "longitude": -122.4211}, "transactions": ["delivery", "pickup"], "price": "$$", "location": {"address1": "811 Valencia St", "address2": "", "address3": "", "city": "San Francisco", "zip_code": "94110", "country": "US", "state": "CA", "display_address": ["811 Valencia St", "San Francisco, CA 94110"]}, "phone": "+14156951811", "display_phone": "(415) 695-1811", "distance": 1354.2522084385466}, {"id": "3SwDv3ZPcpng8Ldq6lbpXg", "alias": "comal-next-door-berkeley-2", "name": "Comal Next Door", "image_url": "https://s3-media4.fl.yelpcdn.com/bphoto/66T1VKefQsJMc4gZs6uCNA/o.jpg", "is_closed": false, "url": "https://www.yelp.com/biz/comal-next-door-berkeley-2?adjust_creative=Klanz-jboxl2XzqrjP6LLw&utm_campaign=yelp_api_v3&utm_medium=api_v3_business_search&utm_source=Klanz-jboxl2XzqrjP6LLw", "review_count": 191, "categories": [{"alias": "mexican", "title": "Mexican"}], "rating": 4.0, "coordinates": {"latitude": 37.87142, "longitude": -122.26882}, "transactions": ["delivery"], "price": "$$", "location": {"address1": "2024 Shattuck Ave", "address2": "", "address3": null, "city": "Berkeley", "zip_code": "94704", "country": "US", "state": "CA", "display_address": ["2024 Shattuck Ave", "Berkeley, CA 94704"]}, "phone": "+15104226625", "display_phone": "(510) 422-6625", "distance": 19180.127822657392}, {"id": "oqyeLUSC2Z3Aczzh_4-4Yw", "alias": "berkeley-social-club-berkeley", "name": "Berkeley Social Club", "image_url": "https://s3-media2.fl.yelpcdn.com/bphoto/JZyCHH5vbr4phHequQn-zA/o.jpg", "is_closed": false, "url": "https://www.yelp.com/biz/berkeley-social-club-berkeley?adjust_creative=Klanz-jboxl2XzqrjP6LLw&utm_campaign=yelp_api_v3&utm_medium=api_v3_business_search&utm_source=Klanz-jboxl2XzqrjP6LLw", "review_count": 1579, "categories": [{"alias": "breakfast_brunch", "title": "Breakfast & Brunch"}, {"alias": "korean", "title": "Korean"}, {"alias": "bars", "title": "Bars"}], "rating": 4.0, "coordinates": {"latitude": 37.8718158, "longitude": -122.2696171}, "transactions": ["delivery", "restaurant_reservation", "pickup"], "price": "$$", "location": {"address1": "2050 University Ave", "address2": "", "address3": null, "city": "Berkeley", "zip_code": "94704", "country": "US", "state": "CA", "display_address": ["2050 University Ave", "Berkeley, CA 94704"]}, "phone": "+15109005858", "display_phone": "(510) 900-5858", "distance": 19158.66521511331}, {"id": "MKfsbZ8E1QOXruZOAo9TNw", "alias": "gestalt-san-francisco", "name": "Gestalt", "image_url": "https://s3-media3.fl.yelpcdn.com/bphoto/-HUCUfQgPLVz-oVDOuTEBA/o.jpg", "is_closed": false, "url": "https://www.yelp.com/biz/gestalt-san-francisco?adjust_creative=Klanz-jboxl2XzqrjP6LLw&utm_campaign=yelp_api_v3&utm_medium=api_v3_business_search&utm_source=Klanz-jboxl2XzqrjP6LLw", "review_count": 529, "categories": [{"alias": "german", "title": "German"}, {"alias": "divebars", "title": "Dive Bars"}, {"alias": "beerbar", "title": "Beer Bar"}], "rating": 4.0, "coordinates": {"latitude": 37.76469, "longitude": -122.4233}, "transactions": ["delivery"], "price": "$", "location": {"address1": "3159 16th St", "address2": null, "address3": "", "city": "San Francisco", "zip_code": "94103", "country": "US", "state": "CA", "display_address": ["3159 16th St", "San Francisco, CA 94103"]}, "phone": "+14158132790", "display_phone": "(415) 813-2790", "distance": 1227.2628655174294}, {"id": "eL1aKZx9bplkBesYcGJ11w", "alias": "curbside-cafe-san-francisco", "name": "Curbside Cafe", "image_url": "https://s3-media3.fl.yelpcdn.com/bphoto/gmb0rYEgraIYjGSMiuI30g/o.jpg", "is_closed": false, "url": "https://www.yelp.com/biz/curbside-cafe-san-francisco?adjust_creative=Klanz-jboxl2XzqrjP6LLw&utm_campaign=yelp_api_v3&utm_medium=api_v3_business_search&utm_source=Klanz-jboxl2XzqrjP6LLw", "review_count": 803, "categories": [{"alias": "breakfast_brunch", "title": "Breakfast & Brunch"}, {"alias": "french", "title": "French"}, {"alias": "newamerican", "title": "American (New)"}], "rating": 4.0, "coordinates": {"latitude": 37.78869, "longitude": -122.43405}, "transactions": ["delivery"], "price": "$$", "location": {"address1": "2417 California St", "address2": "", "address3": "", "city": "San Francisco", "zip_code": "94115", "country": "US", "state": "CA", "display_address": ["2417 California St", "San Francisco, CA 94115"]}, "phone": "+14159299030", "display_phone": "(415) 929-9030", "distance": 3100.8891579613946}, {"id": "MXKWFQHoC0SXy9UI-Djn7g", "alias": "arts-cafe-san-francisco", "name": "Art's Cafe", "image_url": "https://s3-media2.fl.yelpcdn.com/bphoto/ULP8kf8ATnzSnH8nPu794w/o.jpg", "is_closed": false, "url": "https://www.yelp.com/biz/arts-cafe-san-francisco?adjust_creative=Klanz-jboxl2XzqrjP6LLw&utm_campaign=yelp_api_v3&utm_medium=api_v3_business_search&utm_source=Klanz-jboxl2XzqrjP6LLw", "review_count": 1165, "categories": [{"alias": "diners", "title": "Diners"}, {"alias": "breakfast_brunch", "title": "Breakfast & Brunch"}, {"alias": "korean", "title": "Korean"}], "rating": 4.5, "coordinates": {"latitude": 37.763926, "longitude": -122.4657578}, "transactions": ["delivery"], "price": "$$", "location": {"address1": "747 Irving St", "address2": "", "address3": "", "city": "San Francisco", "zip_code": "94122", "country": "US", "state": "CA", "display_address": ["747 Irving St", "San Francisco, CA 94122"]}, "phone": "+14156657440", "display_phone": "(415) 665-7440", "distance": 2621.456024412098}, {"id": "Avc_8DPcnBll9WZcEzaJHA", "alias": "la-cocina-municipal-marketplace-san-francisco", "name": "La Cocina Municipal Marketplace", "image_url": "https://s3-media3.fl.yelpcdn.com/bphoto/0N7THsFhhVIaJ6kUUCol9Q/o.jpg", "is_closed": false, "url": "https://www.yelp.com/biz/la-cocina-municipal-marketplace-san-francisco?adjust_creative=Klanz-jboxl2XzqrjP6LLw&utm_campaign=yelp_api_v3&utm_medium=api_v3_business_search&utm_source=Klanz-jboxl2XzqrjP6LLw", "review_count": 22, "categories": [{"alias": "food_court", "title": "Food Court"}], "rating": 5.0, "coordinates": {"latitude": 37.781804, "longitude": -122.415897}, "transactions": [], "price": "$$", "location": {"address1": "101 Hyde St", "address2": "", "address3": null, "city": "San Francisco", "zip_code": "94102", "country": "US", "state": "CA", "display_address": ["101 Hyde St", "San Francisco, CA 94102"]}, "phone": "+14155702595", "display_phone": "(415) 570-2595", "distance": 2949.0892130718285}, {"id": "eB-za5XIBYqMwKZGc2-1rQ", "alias": "la-furia-chalaca-oakland", "name": "La Furia Chalaca", "image_url": "https://s3-media2.fl.yelpcdn.com/bphoto/T8tiMGPt-ct2llpb_MTpKA/o.jpg", "is_closed": false, "url": "https://www.yelp.com/biz/la-furia-chalaca-oakland?adjust_creative=Klanz-jboxl2XzqrjP6LLw&utm_campaign=yelp_api_v3&utm_medium=api_v3_business_search&utm_source=Klanz-jboxl2XzqrjP6LLw", "review_count": 376, "categories": [{"alias": "peruvian", "title": "Peruvian"}], "rating": 3.5, "coordinates": {"latitude": 37.79695, "longitude": -122.27543}, "transactions": ["delivery", "pickup"], "price": "$$", "location": {"address1": "310 Broadway", "address2": "", "address3": "", "city": "Oakland", "zip_code": "94607", "country": "US", "state": "CA", "display_address": ["310 Broadway", "Oakland, CA 94607"]}, "phone": "+15104514206", "display_phone": "(510) 451-4206", "distance": 14701.954021796737}, {"id": "VNkYnTGhOYw-IzuKA_msHg", "alias": "the-thonglor-san-francisco-2", "name": "The Thonglor", "image_url": "https://s3-media4.fl.yelpcdn.com/bphoto/N91H4wB9_CHDzN4flsQ76g/o.jpg", "is_closed": false, "url": "https://www.yelp.com/biz/the-thonglor-san-francisco-2?adjust_creative=Klanz-jboxl2XzqrjP6LLw&utm_campaign=yelp_api_v3&utm_medium=api_v3_business_search&utm_source=Klanz-jboxl2XzqrjP6LLw", "review_count": 168, "categories": [{"alias": "thai", "title": "Thai"}, {"alias": "desserts", "title": "Desserts"}, {"alias": "soup", "title": "Soup"}], "rating": 4.5, "coordinates": {"latitude": 37.78726, "longitude": -122.41038}, "transactions": ["pickup", "delivery"], "price": "$$", "location": {"address1": "420 Geary St", "address2": null, "address3": "", "city": "San Francisco", "zip_code": "94102", "country": "US", "state": "CA", "display_address": ["420 Geary St", "San Francisco, CA 94102"]}, "phone": "+14153463121", "display_phone": "(415) 346-3121", "distance": 3717.7671164068825}, {"id": "O1sRAas2IZQKYVSNZeBagQ", "alias": "cracked-and-battered-potrero-hill-san-francisco", "name": "Cracked & Battered - Potrero Hill", "image_url": "https://s3-media4.fl.yelpcdn.com/bphoto/PXc8apY7YcOvT6iTRrMPAQ/o.jpg", "is_closed": false, "url": "https://www.yelp.com/biz/cracked-and-battered-potrero-hill-san-francisco?adjust_creative=Klanz-jboxl2XzqrjP6LLw&utm_campaign=yelp_api_v3&utm_medium=api_v3_business_search&utm_source=Klanz-jboxl2XzqrjP6LLw", "review_count": 1064, "categories": [{"alias": "breakfast_brunch", "title": "Breakfast & Brunch"}, {"alias": "tradamerican", "title": "American (Traditional)"}, {"alias": "halal", "title": "Halal"}], "rating": 4.5, "coordinates": {"latitude": 37.76266, "longitude": -122.39719}, "transactions": ["pickup", "delivery"], "price": "$$", "location": {"address1": "1434 18th St", "address2": "", "address3": null, "city": "San Francisco", "zip_code": "94107", "country": "US", "state": "CA", "display_address": ["1434 18th St", "San Francisco, CA 94107"]}, "phone": "+14159268645", "display_phone": "(415) 926-8645", "distance": 3444.784701280227}, {"id": "TOaVNHNg5-tkzsQrqIGQOw", "alias": "do\u00f1a-teres-market-san-francisco-3", "name": "Do\u00f1a Tere's Market", "image_url": "https://s3-media3.fl.yelpcdn.com/bphoto/VYeE42IojoFdndsBde474A/o.jpg", "is_closed": false, "url": "https://www.yelp.com/biz/do%C3%B1a-teres-market-san-francisco-3?adjust_creative=Klanz-jboxl2XzqrjP6LLw&utm_campaign=yelp_api_v3&utm_medium=api_v3_business_search&utm_source=Klanz-jboxl2XzqrjP6LLw", "review_count": 67, "categories": [{"alias": "mexican", "title": "Mexican"}], "rating": 4.5, "coordinates": {"latitude": 37.75776, "longitude": -122.4104}, "transactions": ["delivery"], "price": "$", "location": {"address1": "2780 21st St", "address2": null, "address3": "", "city": "San Francisco", "zip_code": "94110", "country": "US", "state": "CA", "display_address": ["2780 21st St", "San Francisco, CA 94110"]}, "phone": "+14154018031", "display_phone": "(415) 401-8031", "distance": 2313.9630365763364}, {"id": "XEXSWqdJjE3sg-3bJHj_tA", "alias": "the-nacho-dispensary-san-francisco", "name": "The Nacho Dispensary", "image_url": "https://s3-media4.fl.yelpcdn.com/bphoto/BoF9zGe4ECUQFvTZIKMY0Q/o.jpg", "is_closed": false, "url": "https://www.yelp.com/biz/the-nacho-dispensary-san-francisco?adjust_creative=Klanz-jboxl2XzqrjP6LLw&utm_campaign=yelp_api_v3&utm_medium=api_v3_business_search&utm_source=Klanz-jboxl2XzqrjP6LLw", "review_count": 4, "categories": [{"alias": "indpak", "title": "Indian"}, {"alias": "mexican", "title": "Mexican"}], "rating": 1.5, "coordinates": {"latitude": 37.7768635, "longitude": -122.4026719}, "transactions": ["delivery"], "location": {"address1": "60 Morris St", "address2": "", "address3": null, "city": "San Francisco", "zip_code": "94107", "country": "US", "state": "CA", "display_address": ["60 Morris St", "San Francisco, CA 94107"]}, "phone": "", "display_phone": "", "distance": 3462.2869525826054}, {"id": "1DDbE3XJF6lFL_KpU6Pmww", "alias": "mi-lindo-per\u00fa-san-francisco-6", "name": "Mi Lindo Per\u00fa", "image_url": "https://s3-media3.fl.yelpcdn.com/bphoto/rncwcsx3Rjiz2vKlfJNMQg/o.jpg", "is_closed": false, "url": "https://www.yelp.com/biz/mi-lindo-per%C3%BA-san-francisco-6?adjust_creative=Klanz-jboxl2XzqrjP6LLw&utm_campaign=yelp_api_v3&utm_medium=api_v3_business_search&utm_source=Klanz-jboxl2XzqrjP6LLw", "review_count": 752, "categories": [{"alias": "peruvian", "title": "Peruvian"}], "rating": 4.0, "coordinates": {"latitude": 37.7450935396928, "longitude": -122.420390950891}, "transactions": ["pickup", "delivery"], "price": "$$", "location": {"address1": "3226 Mission St", "address2": "", "address3": "", "city": "San Francisco", "zip_code": "94110", "country": "US", "state": "CA", "display_address": ["3226 Mission St", "San Francisco, CA 94110"]}, "phone": "+14156424897", "display_phone": "(415) 642-4897", "distance": 2254.230638502797}, {"id": "2P-JvZYW2c6sk5ncRSnCVA", "alias": "the-cinch-san-francisco", "name": "The Cinch", "image_url": "https://s3-media1.fl.yelpcdn.com/bphoto/6gb1avp6-fASqdASsMpcrA/o.jpg", "is_closed": false, "url": "https://www.yelp.com/biz/the-cinch-san-francisco?adjust_creative=Klanz-jboxl2XzqrjP6LLw&utm_campaign=yelp_api_v3&utm_medium=api_v3_business_search&utm_source=Klanz-jboxl2XzqrjP6LLw", "review_count": 226, "categories": [{"alias": "gaybars", "title": "Gay Bars"}, {"alias": "divebars", "title": "Dive Bars"}], "rating": 4.0, "coordinates": {"latitude": 37.7927322387695, "longitude": -122.421463012695}, "transactions": [], "price": "$", "location": {"address1": "1723 Polk St", "address2": "", "address3": "", "city": "San Francisco", "zip_code": "94109", "country": "US", "state": "CA", "display_address": ["1723 Polk St", "San Francisco, CA 94109"]}, "phone": "+14157764162", "display_phone": "(415) 776-4162", "distance": 3779.2946400142605}, {"id": "XFGp13lfiGHHkxzHXScGzQ", "alias": "lucindas-mexican-food-to-go-mill-valley", "name": "Lucinda's Mexican Food To Go", "image_url": "https://s3-media2.fl.yelpcdn.com/bphoto/t-CqRQN8jv7H9tepesJBbw/o.jpg", "is_closed": false, "url": "https://www.yelp.com/biz/lucindas-mexican-food-to-go-mill-valley?adjust_creative=Klanz-jboxl2XzqrjP6LLw&utm_campaign=yelp_api_v3&utm_medium=api_v3_business_search&utm_source=Klanz-jboxl2XzqrjP6LLw", "review_count": 279, "categories": [{"alias": "mexican", "title": "Mexican"}], "rating": 3.5, "coordinates": {"latitude": 37.900718, "longitude": -122.515098}, "transactions": ["delivery"], "price": "$", "location": {"address1": "930 Redwood Hwy", "address2": "", "address3": "", "city": "Mill Valley", "zip_code": "94941", "country": "US", "state": "CA", "display_address": ["930 Redwood Hwy", "Mill Valley, CA 94941"]}, "phone": "+14153880754", "display_phone": "(415) 388-0754", "distance": 17012.509497079558}, {"id": "kn89IIyDdoF6wzBrO9ybmQ", "alias": "araujos-restaurant-san-bruno-2", "name": "Araujo's Restaurant", "image_url": "https://s3-media2.fl.yelpcdn.com/bphoto/vSUaFvufZlrzw5hfSH10uA/o.jpg", "is_closed": false, "url": "https://www.yelp.com/biz/araujos-restaurant-san-bruno-2?adjust_creative=Klanz-jboxl2XzqrjP6LLw&utm_campaign=yelp_api_v3&utm_medium=api_v3_business_search&utm_source=Klanz-jboxl2XzqrjP6LLw", "review_count": 318, "categories": [{"alias": "mexican", "title": "Mexican"}, {"alias": "tradamerican", "title": "American (Traditional)"}], "rating": 3.0, "coordinates": {"latitude": 37.62983, "longitude": -122.41465}, "transactions": ["delivery", "pickup"], "price": "$", "location": {"address1": "404 W San Bruno Ave", "address2": "", "address3": "", "city": "San Bruno", "zip_code": "94066", "country": "US", "state": "CA", "display_address": ["404 W San Bruno Ave", "San Bruno, CA 94066"]}, "phone": "+16505884257", "display_phone": "(650) 588-4257", "distance": 14704.069357004135}], "total": 1700, "region": {"center": {"longitude": -122.43644714355469, "latitude": 37.76089938976322}}}