{"businesses": [{"id": "jdfO0RGI1Wspn6sCR3OY7Q", "alias": "abu-salim-middle-eastern-grill-san-francisco-2", "name": "Abu Salim Middle Eastern Grill", "image_url": "https://s3-media3.fl.yelpcdn.com/bphoto/DDBkVO_AZ6Pbx0ILH12e7w/o.jpg", "is_closed": false, "url": "https://www.yelp.com/biz/abu-salim-middle-eastern-grill-san-francisco-2?adjust_creative=Klanz-jboxl2XzqrjP6LLw&utm_campaign=yelp_api_v3&utm_medium=api_v3_business_search&utm_source=Klanz-jboxl2XzqrjP6LLw", "review_count": 184, "categories": [{"alias": "halal", "title": "Halal"}, {"alias": "mediterranean", "title": "Mediterranean"}, {"alias": "salad", "title": "Salad"}], "rating": 4.5, "coordinates": {"latitude": 37.769675, "longitude": -122.4483383}, "transactions": ["pickup", "delivery"], "price": "$$", "location": {"address1": "1599 Haight St", "address2": null, "address3": "", "city": "San Francisco", "zip_code": "94117", "country": "US", "state": "CA", "display_address": ["1599 Haight St", "San Francisco, CA 94117"]}, "phone": "+14155220122", "display_phone": "(415) 522-0122", "distance": 1429.9514386739963}, {"id": "nXYmPSl2Gy_ge1QwhD6tgw", "alias": "osmanthus-dim-sum-lounge-san-francisco", "name": "Osmanthus Dim Sum Lounge", "image_url": "https://s3-media4.fl.yelpcdn.com/bphoto/JhBTNPFl42Ikf05VT1d8sQ/o.jpg", "is_closed": false, "url": "https://www.yelp.com/biz/osmanthus-dim-sum-lounge-san-francisco?adjust_creative=Klanz-jboxl2XzqrjP6LLw&utm_campaign=yelp_api_v3&utm_medium=api_v3_business_search&utm_source=Klanz-jboxl2XzqrjP6LLw", "review_count": 288, "categories": [{"alias": "cocktailbars", "title": "Cocktail Bars"}, {"alias": "dimsum", "title": "Dim Sum"}], "rating": 4.5, "coordinates": {"latitude": 37.79819, "longitude": -122.40569}, "transactions": ["pickup", "delivery"], "price": "$$", "location": {"address1": "504 Broadway", "address2": "", "address3": null, "city": "San Francisco", "zip_code": "94133", "country": "US", "state": "CA", "display_address": ["504 Broadway", "San Francisco, CA 94133"]}, "phone": "+14158729648", "display_phone": "(415) 872-9648", "distance": 4954.912299333175}, {"id": "KzyxvCTyHsxqcDEz5WgjFQ", "alias": "local-roots-san-francisco", "name": "Local Roots", "image_url": "https://s3-media2.fl.yelpcdn.com/bphoto/Wk2dOEW5AHQpgwV_pEmWXg/o.jpg", "is_closed": false, "url": "https://www.yelp.com/biz/local-roots-san-francisco?adjust_creative=Klanz-jboxl2XzqrjP6LLw&utm_campaign=yelp_api_v3&utm_medium=api_v3_business_search&utm_source=Klanz-jboxl2XzqrjP6LLw", "review_count": 49, "categories": [{"alias": "salad", "title": "Salad"}, {"alias": "sandwiches", "title": "Sandwiches"}], "rating": 4.0, "coordinates": {"latitude": 37.79268, "longitude": -122.40166}, "transactions": ["pickup", "delivery"], "location": {"address1": "70 Leidesdorff St", "address2": "", "address3": null, "city": "San Francisco", "zip_code": "94114", "country": "US", "state": "CA", "display_address": ["70 Leidesdorff St", "San Francisco, CA 94114"]}, "phone": "+14155761144", "display_phone": "(415) 576-1144", "distance": 4669.130770132014}, {"id": "QTaE3Ptk8nDU4RGt1IxXWg", "alias": "tacos-sinaloa-berkeley", "name": "Tacos Sinaloa", "image_url": "https://s3-media2.fl.yelpcdn.com/bphoto/2ohN38APUI1OzrimxJVBgw/o.jpg", "is_closed": false, "url": "https://www.yelp.com/biz/tacos-sinaloa-berkeley?adjust_creative=Klanz-jboxl2XzqrjP6LLw&utm_campaign=yelp_api_v3&utm_medium=api_v3_business_search&utm_source=Klanz-jboxl2XzqrjP6LLw", "review_count": 460, "categories": [{"alias": "mexican", "title": "Mexican"}], "rating": 4.0, "coordinates": {"latitude": 37.867214307189, "longitude": -122.258953303099}, "transactions": ["delivery"], "price": "$", "location": {"address1": "2384 Telegraph Ave", "address2": "", "address3": "", "city": "Berkeley", "zip_code": "94704", "country": "US", "state": "CA", "display_address": ["2384 Telegraph Ave", "Berkeley, CA 94704"]}, "phone": "+15106657895", "display_phone": "(510) 665-7895", "distance": 19565.492076113813}, {"id": "4nLK0z_A4Cyd3C28HCkwlg", "alias": "platano-berkeley-2", "name": "Platano", "image_url": "https://s3-media3.fl.yelpcdn.com/bphoto/ws4mqhL4_uDrHRIZr9tmKw/o.jpg", "is_closed": false, "url": "https://www.yelp.com/biz/platano-berkeley-2?adjust_creative=Klanz-jboxl2XzqrjP6LLw&utm_campaign=yelp_api_v3&utm_medium=api_v3_business_search&utm_source=Klanz-jboxl2XzqrjP6LLw", "review_count": 1049, "categories": [{"alias": "salvadoran", "title": "Salvadoran"}], "rating": 4.0, "coordinates": {"latitude": 37.87164, "longitude": -122.26961}, "transactions": ["pickup", "delivery"], "price": "$$", "location": {"address1": "2042 University Ave", "address2": null, "address3": "", "city": "Berkeley", "zip_code": "94704", "country": "US", "state": "CA", "display_address": ["2042 University Ave", "Berkeley, CA 94704"]}, "phone": "+15107040325", "display_phone": "(510) 704-0325", "distance": 19144.15945252516}, {"id": "o1dsJJrvNoT1B02SQ65U3g", "alias": "celias-mexican-restaurant-san-bruno-san-bruno", "name": "Celia's Mexican Restaurant - San Bruno", "image_url": "https://s3-media1.fl.yelpcdn.com/bphoto/kIhMwovgdAIcMxJ-W-RmCg/o.jpg", "is_closed": false, "url": "https://www.yelp.com/biz/celias-mexican-restaurant-san-bruno-san-bruno?adjust_creative=Klanz-jboxl2XzqrjP6LLw&utm_campaign=yelp_api_v3&utm_medium=api_v3_business_search&utm_source=Klanz-jboxl2XzqrjP6LLw", "review_count": 344, "categories": [{"alias": "mexican", "title": "Mexican"}, {"alias": "sportsbars", "title": "Sports Bars"}], "rating": 3.5, "coordinates": {"latitude": 37.617738, "longitude": -122.409107}, "transactions": ["pickup", "delivery"], "price": "$$", "location": {"address1": "201 El Camino Real", "address2": "", "address3": "", "city": "San Bruno", "zip_code": "94066", "country": "US", "state": "CA", "display_address": ["201 El Camino Real", "San Bruno, CA 94066"]}, "phone": "+16508778245", "display_phone": "(650) 877-8245", "distance": 16099.55925057274}, {"id": "48jDL_PmclHPRW9txNrSDw", "alias": "balompie-cafe-san-francisco", "name": "Balompie Cafe", "image_url": "https://s3-media4.fl.yelpcdn.com/bphoto/2B6x1jB-Bin3tJGMvx1KBA/o.jpg", "is_closed": false, "url": "https://www.yelp.com/biz/balompie-cafe-san-francisco?adjust_creative=Klanz-jboxl2XzqrjP6LLw&utm_campaign=yelp_api_v3&utm_medium=api_v3_business_search&utm_source=Klanz-jboxl2XzqrjP6LLw", "review_count": 698, "categories": [{"alias": "salvadoran", "title": "Salvadoran"}, {"alias": "comfortfood", "title": "Comfort Food"}], "rating": 4.0, "coordinates": {"latitude": 37.7618121, "longitude": -122.4181677}, "transactions": ["pickup", "delivery"], "price": "$$", "location": {"address1": "3349 18th St", "address2": "", "address3": "", "city": "San Francisco", "zip_code": "94110", "country": "US", "state": "CA", "display_address": ["3349 18th St", "San Francisco, CA 94110"]}, "phone": "+14156489199", "display_phone": "(415) 648-9199", "distance": 1610.0941986473892}, {"id": "BiZAzf2SAFCE0gJrX-PGFw", "alias": "gather-berkeley", "name": "Gather", "image_url": "https://s3-media4.fl.yelpcdn.com/bphoto/rb22DgOl5oKasPQwqRS6TQ/o.jpg", "is_closed": false, "url": "https://www.yelp.com/biz/gather-berkeley?adjust_creative=Klanz-jboxl2XzqrjP6LLw&utm_campaign=yelp_api_v3&utm_medium=api_v3_business_search&utm_source=Klanz-jboxl2XzqrjP6LLw", "review_count": 2300, "categories": [{"alias": "newamerican", "title": "American (New)"}, {"alias": "bars", "title": "Bars"}, {"alias": "pizza", "title": "Pizza"}], "rating": 4.0, "coordinates": {"latitude": 37.8694781027984, "longitude": -122.266114248013}, "transactions": ["restaurant_reservation", "pickup", "delivery"], "price": "$$", "location": {"address1": "2200 Oxford St", "address2": "", "address3": "", "city": "Berkeley", "zip_code": "94704", "country": "US", "state": "CA", "display_address": ["2200 Oxford St", "Berkeley, CA 94704"]}, "phone": "+15108090400", "display_phone": "(510) 809-0400", "distance": 19226.147687520814}, {"id": "22v8sohi8qcFTXxbvag3Zg", "alias": "tortas-boos-voni-san-francisco", "name": "Tortas Boos Voni", "image_url": "https://s3-media4.fl.yelpcdn.com/bphoto/BfauKf6LfYjfvXG_11vguQ/o.jpg", "is_closed": false, "url": "https://www.yelp.com/biz/tortas-boos-voni-san-francisco?adjust_creative=Klanz-jboxl2XzqrjP6LLw&utm_campaign=yelp_api_v3&utm_medium=api_v3_business_search&utm_source=Klanz-jboxl2XzqrjP6LLw", "review_count": 165, "categories": [{"alias": "mexican", "title": "Mexican"}, {"alias": "breakfast_brunch", "title": "Breakfast & Brunch"}], "rating": 4.0, "coordinates": {"latitude": 37.7161199, "longitude": -122.44165}, "transactions": ["delivery"], "price": "$", "location": {"address1": "5170 Mission St", "address2": "", "address3": "", "city": "San Francisco", "zip_code": "94112", "country": "US", "state": "CA", "display_address": ["5170 Mission St", "San Francisco, CA 94112"]}, "phone": "+14155855880", "display_phone": "(415) 585-5880", "distance": 5009.8984037604805}, {"id": "HYJm9K4X4G6scmjIOexe3g", "alias": "boudin-bakery-and-cafe-san-francisco-14", "name": "Boudin Bakery & Cafe", "image_url": "https://s3-media3.fl.yelpcdn.com/bphoto/IQqym3JCouR0m93XlGvafA/o.jpg", "is_closed": false, "url": "https://www.yelp.com/biz/boudin-bakery-and-cafe-san-francisco-14?adjust_creative=Klanz-jboxl2XzqrjP6LLw&utm_campaign=yelp_api_v3&utm_medium=api_v3_business_search&utm_source=Klanz-jboxl2XzqrjP6LLw", "review_count": 430, "categories": [{"alias": "bakeries", "title": "Bakeries"}, {"alias": "sandwiches", "title": "Sandwiches"}, {"alias": "salad", "title": "Salad"}], "rating": 3.5, "coordinates": {"latitude": 37.7866386467972, "longitude": -122.407294734953}, "transactions": ["pickup", "delivery"], "price": "$", "location": {"address1": "170 O'farrel St", "address2": "", "address3": "Macy's Cellar", "city": "San Francisco", "zip_code": "94102", "country": "US", "state": "CA", "display_address": ["170 O'farrel St", "Macy's Cellar", "San Francisco, CA 94102"]}, "phone": "+14152964740", "display_phone": "(415) 296-4740", "distance": 3841.444535673198}, {"id": "Ulh3Vc44OLD1MJlQg2Ox4Q", "alias": "tijuana-restaurant-oakland", "name": "Tijuana Restaurant", "image_url": "https://s3-media4.fl.yelpcdn.com/bphoto/jJZf3qqJVCir4vPfmXQ_fQ/o.jpg", "is_closed": false, "url": "https://www.yelp.com/biz/tijuana-restaurant-oakland?adjust_creative=Klanz-jboxl2XzqrjP6LLw&utm_campaign=yelp_api_v3&utm_medium=api_v3_business_search&utm_source=Klanz-jboxl2XzqrjP6LLw", "review_count": 137, "categories": [{"alias": "mexican", "title": "Mexican"}, {"alias": "seafood", "title": "Seafood"}], "rating": 4.0, "coordinates": {"latitude": 37.7899543609266, "longitude": -122.246858352538}, "transactions": ["pickup", "delivery"], "price": "$$", "location": {"address1": "1308 International Blvd", "address2": "", "address3": "", "city": "Oakland", "zip_code": "94606", "country": "US", "state": "CA", "display_address": ["1308 International Blvd", "Oakland, CA 94606"]}, "phone": "+15105325575", "display_phone": "(510) 532-5575", "distance": 16973.33595483581}, {"id": "ofFgj0sd8iDQunY00hhDVQ", "alias": "garden-creamery-san-francisco-2", "name": "Garden Creamery", "image_url": "https://s3-media2.fl.yelpcdn.com/bphoto/sfWBoMDDCKAB9qUIGM-Ebw/o.jpg", "is_closed": false, "url": "https://www.yelp.com/biz/garden-creamery-san-francisco-2?adjust_creative=Klanz-jboxl2XzqrjP6LLw&utm_campaign=yelp_api_v3&utm_medium=api_v3_business_search&utm_source=Klanz-jboxl2XzqrjP6LLw", "review_count": 1054, "categories": [{"alias": "icecream", "title": "Ice Cream & Frozen Yogurt"}, {"alias": "foodtrucks", "title": "Food Trucks"}], "rating": 4.5, "coordinates": {"latitude": 37.75869, "longitude": -122.420435}, "transactions": ["delivery"], "price": "$", "location": {"address1": "3566 20th St", "address2": "", "address3": "", "city": "San Francisco", "zip_code": "94110", "country": "US", "state": "CA", "display_address": ["3566 20th St", "San Francisco, CA 94110"]}, "phone": "+18082246626", "display_phone": "(808) 224-6626", "distance": 1428.888462509458}, {"id": "9e2UrZrwbWsTyN3hWyS6Ig", "alias": "monsieur-benjamin-san-francisco", "name": "Monsieur Benjamin", "image_url": "https://s3-media4.fl.yelpcdn.com/bphoto/PPjVA55yqgwrx8e8uFuP2Q/o.jpg", "is_closed": false, "url": "https://www.yelp.com/biz/monsieur-benjamin-san-francisco?adjust_creative=Klanz-jboxl2XzqrjP6LLw&utm_campaign=yelp_api_v3&utm_medium=api_v3_business_search&utm_source=Klanz-jboxl2XzqrjP6LLw", "review_count": 1002, "categories": [{"alias": "french", "title": "French"}, {"alias": "bars", "title": "Bars"}, {"alias": "seafood", "title": "Seafood"}], "rating": 4.0, "coordinates": {"latitude": 37.777526602149, "longitude": -122.423157468438}, "transactions": ["delivery"], "price": "$$$", "location": {"address1": "451 Gough St", "address2": "", "address3": "", "city": "San Francisco", "zip_code": "94102", "country": "US", "state": "CA", "display_address": ["451 Gough St", "San Francisco, CA 94102"]}, "phone": "+14154032233", "display_phone": "(415) 403-2233", "distance": 2175.1366164344126}, {"id": "wguMOi1Bem-YrYo0LibHhg", "alias": "caramba-san-francisco", "name": "Caramba", "image_url": "https://s3-media1.fl.yelpcdn.com/bphoto/1taomN_1fmAuHzlZXmztLQ/o.jpg", "is_closed": false, "url": "https://www.yelp.com/biz/caramba-san-francisco?adjust_creative=Klanz-jboxl2XzqrjP6LLw&utm_campaign=yelp_api_v3&utm_medium=api_v3_business_search&utm_source=Klanz-jboxl2XzqrjP6LLw", "review_count": 368, "categories": [{"alias": "mexican", "title": "Mexican"}, {"alias": "breakfast_brunch", "title": "Breakfast & Brunch"}], "rating": 3.5, "coordinates": {"latitude": 37.7882225811481, "longitude": -122.400147467852}, "transactions": ["pickup", "delivery"], "price": "$$", "location": {"address1": "78 2nd St", "address2": "", "address3": "", "city": "San Francisco", "zip_code": "94105", "country": "US", "state": "CA", "display_address": ["78 2nd St", "San Francisco, CA 94105"]}, "phone": "+14155438226", "display_phone": "(415) 543-8226", "distance": 4395.336311996553}, {"id": "cG-txGXNcZzxYSYkV99b2A", "alias": "cava-22-san-francisco", "name": "Cava 22", "image_url": "https://s3-media4.fl.yelpcdn.com/bphoto/7f1aUlDwHFCgdIUtRdXlBA/o.jpg", "is_closed": false, "url": "https://www.yelp.com/biz/cava-22-san-francisco?adjust_creative=Klanz-jboxl2XzqrjP6LLw&utm_campaign=yelp_api_v3&utm_medium=api_v3_business_search&utm_source=Klanz-jboxl2XzqrjP6LLw", "review_count": 229, "categories": [{"alias": "latin", "title": "Latin American"}, {"alias": "bars", "title": "Bars"}, {"alias": "tacos", "title": "Tacos"}], "rating": 3.5, "coordinates": {"latitude": 37.7552553, "longitude": -122.4195151}, "transactions": ["delivery"], "price": "$$", "location": {"address1": "3239 22nd St", "address2": "", "address3": "", "city": "San Francisco", "zip_code": "94110", "country": "US", "state": "CA", "display_address": ["3239 22nd St", "San Francisco, CA 94110"]}, "phone": "+14156427224", "display_phone": "(415) 642-7224", "distance": 1602.5811060425592}, {"id": "JDLbxkEcQE_MakuwZfPcKA", "alias": "magic-flute-ristorante-san-francisco", "name": "Magic Flute Ristorante", "image_url": "https://s3-media3.fl.yelpcdn.com/bphoto/YWk5MCMeaywRvhr3AW4ONw/o.jpg", "is_closed": false, "url": "https://www.yelp.com/biz/magic-flute-ristorante-san-francisco?adjust_creative=Klanz-jboxl2XzqrjP6LLw&utm_campaign=yelp_api_v3&utm_medium=api_v3_business_search&utm_source=Klanz-jboxl2XzqrjP6LLw", "review_count": 602, "categories": [{"alias": "italian", "title": "Italian"}, {"alias": "breakfast_brunch", "title": "Breakfast & Brunch"}, {"alias": "seafood", "title": "Seafood"}], "rating": 4.0, "coordinates": {"latitude": 37.787162, "longitude": -122.453086}, "transactions": ["pickup", "delivery"], "price": "$$", "location": {"address1": "3673 Sacramento St", "address2": "", "address3": "", "city": "San Francisco", "zip_code": "94118", "country": "US", "state": "CA", "display_address": ["3673 Sacramento St", "San Francisco, CA 94118"]}, "phone": "+14159221225", "display_phone": "(415) 922-1225", "distance": 3279.0466890249186}, {"id": "6Av8uyn7TDOWhOR29elabQ", "alias": "bar-via-san-francisco-7", "name": "Bar VIA", "image_url": "https://s3-media1.fl.yelpcdn.com/bphoto/hEtDbdkryUL9Q0vGZdA8zg/o.jpg", "is_closed": false, "url": "https://www.yelp.com/biz/bar-via-san-francisco-7?adjust_creative=Klanz-jboxl2XzqrjP6LLw&utm_campaign=yelp_api_v3&utm_medium=api_v3_business_search&utm_source=Klanz-jboxl2XzqrjP6LLw", "review_count": 46, "categories": [{"alias": "bars", "title": "Bars"}, {"alias": "newamerican", "title": "American (New)"}, {"alias": "tapasmallplates", "title": "Tapas/Small Plates"}], "rating": 4.0, "coordinates": {"latitude": 37.7792251, "longitude": -122.3906072}, "transactions": [], "price": "$$", "location": {"address1": "138 King St", "address2": "", "address3": null, "city": "San Francisco", "zip_code": "94107", "country": "US", "state": "CA", "display_address": ["138 King St", "San Francisco, CA 94107"]}, "phone": "+14152004998", "display_phone": "(415) 200-4998", "distance": 4515.154243250194}, {"id": "moXnQ7cbzgyeKA-Fdqhkuw", "alias": "the-barrel-room-san-francisco-3", "name": "The Barrel Room", "image_url": "https://s3-media2.fl.yelpcdn.com/bphoto/eOZLOAApmBafUDYJEhflXA/o.jpg", "is_closed": false, "url": "https://www.yelp.com/biz/the-barrel-room-san-francisco-3?adjust_creative=Klanz-jboxl2XzqrjP6LLw&utm_campaign=yelp_api_v3&utm_medium=api_v3_business_search&utm_source=Klanz-jboxl2XzqrjP6LLw", "review_count": 323, "categories": [{"alias": "wine_bars", "title": "Wine Bars"}, {"alias": "newamerican", "title": "American (New)"}, {"alias": "cocktailbars", "title": "Cocktail Bars"}], "rating": 4.0, "coordinates": {"latitude": 37.794261932373, "longitude": -122.401649475098}, "transactions": ["delivery"], "price": "$$", "location": {"address1": "415 Sansome St", "address2": "", "address3": "", "city": "San Francisco", "zip_code": "94111", "country": "US", "state": "CA", "display_address": ["415 Sansome St", "San Francisco, CA 94111"]}, "phone": "+14159566900", "display_phone": "(415) 956-6900", "distance": 4809.822465172444}, {"id": "cwLN5xjMi6UJ14QmEtEs4A", "alias": "bandit-san-francisco", "name": "Bandit", "image_url": "https://s3-media1.fl.yelpcdn.com/bphoto/HpAaK-rP4hDh7oBiZfjhGg/o.jpg", "is_closed": false, "url": "https://www.yelp.com/biz/bandit-san-francisco?adjust_creative=Klanz-jboxl2XzqrjP6LLw&utm_campaign=yelp_api_v3&utm_medium=api_v3_business_search&utm_source=Klanz-jboxl2XzqrjP6LLw", "review_count": 488, "categories": [{"alias": "burgers", "title": "Burgers"}, {"alias": "breakfast_brunch", "title": "Breakfast & Brunch"}, {"alias": "tradamerican", "title": "American (Traditional)"}], "rating": 4.5, "coordinates": {"latitude": 37.78643, "longitude": -122.414516}, "transactions": ["pickup", "delivery"], "price": "$$", "location": {"address1": "683 Geary St", "address2": "", "address3": null, "city": "San Francisco", "zip_code": "94102", "country": "US", "state": "CA", "display_address": ["683 Geary St", "San Francisco, CA 94102"]}, "phone": "+14156587780", "display_phone": "(415) 658-7780", "distance": 3434.354006329338}, {"id": "jToTQStksqPPbcinvUqhlA", "alias": "shakewell-oakland", "name": "Shakewell", "image_url": "https://s3-media3.fl.yelpcdn.com/bphoto/VlJ0xziaXK_vu67ryJ4OAA/o.jpg", "is_closed": false, "url": "https://www.yelp.com/biz/shakewell-oakland?adjust_creative=Klanz-jboxl2XzqrjP6LLw&utm_campaign=yelp_api_v3&utm_medium=api_v3_business_search&utm_source=Klanz-jboxl2XzqrjP6LLw", "review_count": 918, "categories": [{"alias": "bars", "title": "Bars"}, {"alias": "mediterranean", "title": "Mediterranean"}, {"alias": "spanish", "title": "Spanish"}], "rating": 4.0, "coordinates": {"latitude": 37.8113694419706, "longitude": -122.24299026164636}, "transactions": ["pickup", "delivery"], "price": "$$", "location": {"address1": "3407 Lakeshore Ave", "address2": "", "address3": "", "city": "Oakland", "zip_code": "94610", "country": "US", "state": "CA", "display_address": ["3407 Lakeshore Ave", "Oakland, CA 94610"]}, "phone": "+15102510329", "display_phone": "(510) 251-0329", "distance": 17902.863312115445}, {"id": "I3GNU1b9NCaPbts6art1WQ", "alias": "outpost-san-francisco", "name": "Outpost", "image_url": "https://s3-media3.fl.yelpcdn.com/bphoto/C7q-8d1pwPmJJwYzxrBySA/o.jpg", "is_closed": false, "url": "https://www.yelp.com/biz/outpost-san-francisco?adjust_creative=Klanz-jboxl2XzqrjP6LLw&utm_campaign=yelp_api_v3&utm_medium=api_v3_business_search&utm_source=Klanz-jboxl2XzqrjP6LLw", "review_count": 628, "categories": [{"alias": "coffee", "title": "Coffee & Tea"}, {"alias": "cafes", "title": "Cafes"}, {"alias": "wine_bars", "title": "Wine Bars"}], "rating": 4.0, "coordinates": {"latitude": 37.7776832580566, "longitude": -122.407096862793}, "transactions": ["pickup", "delivery"], "price": "$$", "location": {"address1": "1052 Folsom St", "address2": "", "address3": "", "city": "San Francisco", "zip_code": "94103", "country": "US", "state": "CA", "display_address": ["1052 Folsom St", "San Francisco, CA 94103"]}, "phone": "+14158171973", "display_phone": "(415) 817-1973", "distance": 3185.8563460570226}, {"id": "u1XwNjU75q7q6JHm7iQTvA", "alias": "kahnfections-san-francisco", "name": "Kahnfections", "image_url": "https://s3-media4.fl.yelpcdn.com/bphoto/gACYOmpKSco1DMAObekLpw/o.jpg", "is_closed": false, "url": "https://www.yelp.com/biz/kahnfections-san-francisco?adjust_creative=Klanz-jboxl2XzqrjP6LLw&utm_campaign=yelp_api_v3&utm_medium=api_v3_business_search&utm_source=Klanz-jboxl2XzqrjP6LLw", "review_count": 175, "categories": [{"alias": "bakeries", "title": "Bakeries"}, {"alias": "coffee", "title": "Coffee & Tea"}, {"alias": "breakfast_brunch", "title": "Breakfast & Brunch"}], "rating": 4.5, "coordinates": {"latitude": 37.75873, "longitude": -122.41502}, "transactions": ["delivery"], "price": "$", "location": {"address1": "3321 20th St", "address2": null, "address3": "", "city": "San Francisco", "zip_code": "94110", "country": "US", "state": "CA", "display_address": ["3321 20th St", "San Francisco, CA 94110"]}, "phone": "+14155253328", "display_phone": "(415) 525-3328", "distance": 1879.5476306789208}, {"id": "NZh4o98Jxg_579ORjDEJvw", "alias": "taqueria-la-iguana-azul-san-francisco", "name": "Taqueria La Iguana Azul", "image_url": "https://s3-media4.fl.yelpcdn.com/bphoto/VqlIqmEK5G9vQjOrYBhnMQ/o.jpg", "is_closed": false, "url": "https://www.yelp.com/biz/taqueria-la-iguana-azul-san-francisco?adjust_creative=Klanz-jboxl2XzqrjP6LLw&utm_campaign=yelp_api_v3&utm_medium=api_v3_business_search&utm_source=Klanz-jboxl2XzqrjP6LLw", "review_count": 179, "categories": [{"alias": "mexican", "title": "Mexican"}], "rating": 3.0, "coordinates": {"latitude": 37.715965, "longitude": -122.44079}, "transactions": ["pickup", "delivery"], "price": "$", "location": {"address1": "928 Geneva Ave", "address2": "", "address3": "", "city": "San Francisco", "zip_code": "94112", "country": "US", "state": "CA", "display_address": ["928 Geneva Ave", "San Francisco, CA 94112"]}, "phone": "+14155842318", "display_phone": "(415) 584-2318", "distance": 5011.043379392035}, {"id": "qXUzHmPdbGEt5EKSdWqbmg", "alias": "gotts-roadside-san-francisco-8", "name": "Gott's Roadside", "image_url": "https://s3-media1.fl.yelpcdn.com/bphoto/eDO8Fsy3QtEdEcMsjsc17w/o.jpg", "is_closed": false, "url": "https://www.yelp.com/biz/gotts-roadside-san-francisco-8?adjust_creative=Klanz-jboxl2XzqrjP6LLw&utm_campaign=yelp_api_v3&utm_medium=api_v3_business_search&utm_source=Klanz-jboxl2XzqrjP6LLw", "review_count": 2797, "categories": [{"alias": "icecream", "title": "Ice Cream & Frozen Yogurt"}, {"alias": "salad", "title": "Salad"}, {"alias": "burgers", "title": "Burgers"}], "rating": 3.5, "coordinates": {"latitude": 37.7961786095916, "longitude": -122.39410980362}, "transactions": ["pickup", "delivery"], "price": "$$", "location": {"address1": "1 Ferry Building", "address2": "Ste 6", "address3": null, "city": "San Francisco", "zip_code": "94111", "country": "US", "state": "CA", "display_address": ["1 Ferry Building", "Ste 6", "San Francisco, CA 94111"]}, "phone": "+14153183423", "display_phone": "(415) 318-3423", "distance": 5406.836056525471}, {"id": "yQ5_zQbdfiexfvDe90__KQ", "alias": "zingari-ristorante-and-jazz-room-san-francisco", "name": "Zingari Ristorante & Jazz Room", "image_url": "https://s3-media4.fl.yelpcdn.com/bphoto/crfwb1dtxWC--qwYSct9xg/o.jpg", "is_closed": false, "url": "https://www.yelp.com/biz/zingari-ristorante-and-jazz-room-san-francisco?adjust_creative=Klanz-jboxl2XzqrjP6LLw&utm_campaign=yelp_api_v3&utm_medium=api_v3_business_search&utm_source=Klanz-jboxl2XzqrjP6LLw", "review_count": 696, "categories": [{"alias": "italian", "title": "Italian"}, {"alias": "cocktailbars", "title": "Cocktail Bars"}, {"alias": "jazzandblues", "title": "Jazz & Blues"}], "rating": 3.5, "coordinates": {"latitude": 37.78782, "longitude": -122.41037}, "transactions": ["pickup", "delivery"], "price": "$$$", "location": {"address1": "501 Post St", "address2": "", "address3": "", "city": "San Francisco", "zip_code": "94102", "country": "US", "state": "CA", "display_address": ["501 Post St", "San Francisco, CA 94102"]}, "phone": "+14158858850", "display_phone": "(415) 885-8850", "distance": 3771.5250390289843}, {"id": "AFTci6Er9rb7KSXQgfycsg", "alias": "capullo-cocina-mexicana-alameda-alameda", "name": "Capullo Cocina Mexicana Alameda", "image_url": "https://s3-media3.fl.yelpcdn.com/bphoto/hxjTkW-eR30A_N6atWsqMQ/o.jpg", "is_closed": false, "url": "https://www.yelp.com/biz/capullo-cocina-mexicana-alameda-alameda?adjust_creative=Klanz-jboxl2XzqrjP6LLw&utm_campaign=yelp_api_v3&utm_medium=api_v3_business_search&utm_source=Klanz-jboxl2XzqrjP6LLw", "review_count": 59, "categories": [{"alias": "mexican", "title": "Mexican"}, {"alias": "wine_bars", "title": "Wine Bars"}, {"alias": "cocktailbars", "title": "Cocktail Bars"}], "rating": 3.5, "coordinates": {"latitude": 37.76560972323137, "longitude": -122.2414824}, "transactions": ["pickup", "delivery"], "price": "$$", "location": {"address1": "1508 Park St", "address2": null, "address3": "", "city": "Alameda", "zip_code": "94501", "country": "US", "state": "CA", "display_address": ["1508 Park St", "Alameda, CA 94501"]}, "phone": "+15105212141", "display_phone": "(510) 521-2141", "distance": 17146.33928863226}, {"id": "BRu5jonHeKavdCnna9f1YA", "alias": "rico-rico-taco-oakland-3", "name": "Rico Rico Taco", "image_url": "https://s3-media2.fl.yelpcdn.com/bphoto/c9Nkwb08M98Jgl8l8_0Cwg/o.jpg", "is_closed": false, "url": "https://www.yelp.com/biz/rico-rico-taco-oakland-3?adjust_creative=Klanz-jboxl2XzqrjP6LLw&utm_campaign=yelp_api_v3&utm_medium=api_v3_business_search&utm_source=Klanz-jboxl2XzqrjP6LLw", "review_count": 375, "categories": [{"alias": "tacos", "title": "Tacos"}], "rating": 4.0, "coordinates": {"latitude": 37.810400072992, "longitude": -122.245598249137}, "transactions": ["pickup", "delivery"], "price": "$$", "location": {"address1": "3205 Lakeshore Ave", "address2": "", "address3": null, "city": "Oakland", "zip_code": "94610", "country": "US", "state": "CA", "display_address": ["3205 Lakeshore Ave", "Oakland, CA 94610"]}, "phone": "+15109228262", "display_phone": "(510) 922-8262", "distance": 17651.573395475894}, {"id": "NO7uen-10Bwkf_n4tHCEjg", "alias": "el-toro-taqueria-san-francisco", "name": "El Toro Taqueria", "image_url": "https://s3-media1.fl.yelpcdn.com/bphoto/HBua6f0nOZIAY1eaWd9iXw/o.jpg", "is_closed": false, "url": "https://www.yelp.com/biz/el-toro-taqueria-san-francisco?adjust_creative=Klanz-jboxl2XzqrjP6LLw&utm_campaign=yelp_api_v3&utm_medium=api_v3_business_search&utm_source=Klanz-jboxl2XzqrjP6LLw", "review_count": 705, "categories": [{"alias": "mexican", "title": "Mexican"}], "rating": 3.5, "coordinates": {"latitude": 37.763391, "longitude": -122.421983}, "transactions": ["pickup", "delivery"], "price": "$$", "location": {"address1": "598 Valencia St", "address2": null, "address3": "", "city": "San Francisco", "zip_code": "94110", "country": "US", "state": "CA", "display_address": ["598 Valencia St", "San Francisco, CA 94110"]}, "phone": "+14154313351", "display_phone": "(415) 431-3351", "distance": 1303.9524755083685}, {"id": "Z4-xQ6mO3v9liiVC8yAWng", "alias": "mar-y-mar-san-bruno", "name": "Mar Y Mar", "image_url": "https://s3-media1.fl.yelpcdn.com/bphoto/fvUJ96D4AmEf3MNrvOO3yA/o.jpg", "is_closed": false, "url": "https://www.yelp.com/biz/mar-y-mar-san-bruno?adjust_creative=Klanz-jboxl2XzqrjP6LLw&utm_campaign=yelp_api_v3&utm_medium=api_v3_business_search&utm_source=Klanz-jboxl2XzqrjP6LLw", "review_count": 140, "categories": [{"alias": "mexican", "title": "Mexican"}, {"alias": "bars", "title": "Bars"}, {"alias": "seafood", "title": "Seafood"}], "rating": 3.5, "coordinates": {"latitude": 37.62666687388289, "longitude": -122.41111076057528}, "transactions": ["delivery"], "price": "$$", "location": {"address1": "602 San Mateo Ave", "address2": "", "address3": "", "city": "San Bruno", "zip_code": "94066", "country": "US", "state": "CA", "display_address": ["602 San Mateo Ave", "San Bruno, CA 94066"]}, "phone": "+16502250516", "display_phone": "(650) 225-0516", "distance": 15091.517930967588}, {"id": "-sioS9ySL8ArfUcRagpw7w", "alias": "el-super-burrito-san-francisco", "name": "El Super Burrito", "image_url": "https://s3-media2.fl.yelpcdn.com/bphoto/gVJNt9-zKd51LRonr5b05Q/o.jpg", "is_closed": false, "url": "https://www.yelp.com/biz/el-super-burrito-san-francisco?adjust_creative=Klanz-jboxl2XzqrjP6LLw&utm_campaign=yelp_api_v3&utm_medium=api_v3_business_search&utm_source=Klanz-jboxl2XzqrjP6LLw", "review_count": 370, "categories": [{"alias": "mexican", "title": "Mexican"}], "rating": 3.5, "coordinates": {"latitude": 37.7879027277231, "longitude": -122.420070916414}, "transactions": ["delivery"], "price": "$", "location": {"address1": "1200 Polk St", "address2": "", "address3": "", "city": "San Francisco", "zip_code": "94109", "country": "US", "state": "CA", "display_address": ["1200 Polk St", "San Francisco, CA 94109"]}, "phone": "+14157719700", "display_phone": "(415) 771-9700", "distance": 3338.76553136117}, {"id": "ywAzfZh5be5gceqyYEPT_Q", "alias": "taqueria-el-jalapeno-san-francisco", "name": "Taqueria El Jalapeno", "image_url": "https://s3-media3.fl.yelpcdn.com/bphoto/2Ocgkhd1GROUx1LvL3awXA/o.jpg", "is_closed": false, "url": "https://www.yelp.com/biz/taqueria-el-jalapeno-san-francisco?adjust_creative=Klanz-jboxl2XzqrjP6LLw&utm_campaign=yelp_api_v3&utm_medium=api_v3_business_search&utm_source=Klanz-jboxl2XzqrjP6LLw", "review_count": 149, "categories": [{"alias": "mexican", "title": "Mexican"}], "rating": 3.5, "coordinates": {"latitude": 37.72432, "longitude": -122.45703}, "transactions": ["delivery"], "price": "$", "location": {"address1": "1338 Ocean Ave", "address2": null, "address3": "", "city": "San Francisco", "zip_code": "94105", "country": "US", "state": "CA", "display_address": ["1338 Ocean Ave", "San Francisco, CA 94105"]}, "phone": "+14155848600", "display_phone": "(415) 584-8600", "distance": 4458.351655854039}, {"id": "7N3a7JsA2OaW9lSTwocHFg", "alias": "taqueria-el-castillito-san-francisco-3", "name": "Taqueria El Castillito", "image_url": "https://s3-media1.fl.yelpcdn.com/bphoto/Fj7_F6wIHgWdgBXD6Ibjgg/o.jpg", "is_closed": false, "url": "https://www.yelp.com/biz/taqueria-el-castillito-san-francisco-3?adjust_creative=Klanz-jboxl2XzqrjP6LLw&utm_campaign=yelp_api_v3&utm_medium=api_v3_business_search&utm_source=Klanz-jboxl2XzqrjP6LLw", "review_count": 226, "categories": [{"alias": "mexican", "title": "Mexican"}], "rating": 3.5, "coordinates": {"latitude": 37.7636236, "longitude": -122.4196886}, "transactions": ["pickup", "delivery"], "price": "$", "location": {"address1": "2092 Mission St", "address2": "", "address3": "", "city": "San Francisco", "zip_code": "94110", "country": "US", "state": "CA", "display_address": ["2092 Mission St", "San Francisco, CA 94110"]}, "phone": "+14156216971", "display_phone": "(415) 621-6971", "distance": 1490.747539980109}, {"id": "2ZV1b_J6ZdFR7d3y6Dbweg", "alias": "cholita-linda-san-francisco-4", "name": "Cholita Linda", "image_url": "https://s3-media3.fl.yelpcdn.com/bphoto/bKQWJNp7Kx4tNGm-VnlKgA/o.jpg", "is_closed": false, "url": "https://www.yelp.com/biz/cholita-linda-san-francisco-4?adjust_creative=Klanz-jboxl2XzqrjP6LLw&utm_campaign=yelp_api_v3&utm_medium=api_v3_business_search&utm_source=Klanz-jboxl2XzqrjP6LLw", "review_count": 15, "categories": [{"alias": "latin", "title": "Latin American"}, {"alias": "sandwiches", "title": "Sandwiches"}, {"alias": "tacos", "title": "Tacos"}], "rating": 4.5, "coordinates": {"latitude": 37.79532, "longitude": -122.39375}, "transactions": ["pickup", "delivery"], "price": "$$", "location": {"address1": "1 Ferry Building", "address2": "Ste 44", "address3": null, "city": "San Francisco", "zip_code": "94111", "country": "US", "state": "CA", "display_address": ["1 Ferry Building", "Ste 44", "San Francisco, CA 94111"]}, "phone": "+14155657424", "display_phone": "(415) 565-7424", "distance": 5393.969625926013}, {"id": "jacfiaCXCWzFZ1fCNrcdiQ", "alias": "oeste-bar-oakland-2", "name": "Oeste - Bar", "image_url": "https://s3-media1.fl.yelpcdn.com/bphoto/iXJiOGzbjf-3BGIdmB31dg/o.jpg", "is_closed": false, "url": "https://www.yelp.com/biz/oeste-bar-oakland-2?adjust_creative=Klanz-jboxl2XzqrjP6LLw&utm_campaign=yelp_api_v3&utm_medium=api_v3_business_search&utm_source=Klanz-jboxl2XzqrjP6LLw", "review_count": 369, "categories": [{"alias": "cafes", "title": "Cafes"}, {"alias": "wine_bars", "title": "Wine Bars"}, {"alias": "beerbar", "title": "Beer Bar"}], "rating": 4.0, "coordinates": {"latitude": 37.800765, "longitude": -122.276122}, "transactions": ["delivery"], "price": "$$", "location": {"address1": "722 Clay St", "address2": null, "address3": "", "city": "Oakland", "zip_code": "94607", "country": "US", "state": "CA", "display_address": ["722 Clay St", "Oakland, CA 94607"]}, "phone": "+15108174157", "display_phone": "(510) 817-4157", "distance": 14770.858548795313}, {"id": "3xSVGyvQhSBCAVCCPUmVxQ", "alias": "island-taqueria-alameda", "name": "Island Taqueria", "image_url": "https://s3-media3.fl.yelpcdn.com/bphoto/CJut3KhNQyAqcJc8BmiMkA/o.jpg", "is_closed": false, "url": "https://www.yelp.com/biz/island-taqueria-alameda?adjust_creative=Klanz-jboxl2XzqrjP6LLw&utm_campaign=yelp_api_v3&utm_medium=api_v3_business_search&utm_source=Klanz-jboxl2XzqrjP6LLw", "review_count": 346, "categories": [{"alias": "mexican", "title": "Mexican"}], "rating": 4.0, "coordinates": {"latitude": 37.76587, "longitude": -122.24172}, "transactions": ["delivery"], "price": "$$", "location": {"address1": "1513 Park St", "address2": "", "address3": "", "city": "Alameda", "zip_code": "94501", "country": "US", "state": "CA", "display_address": ["1513 Park St", "Alameda, CA 94501"]}, "phone": "+15107497018", "display_phone": "(510) 749-7018", "distance": 17120.188777594994}, {"id": "f1wCrwF1ggcJQQogaFP1zQ", "alias": "melissas-taqueria-brisbane", "name": "Melissa's Taqueria", "image_url": "https://s3-media1.fl.yelpcdn.com/bphoto/0c2r_rYiXUf0BvXu9Cr8aA/o.jpg", "is_closed": false, "url": "https://www.yelp.com/biz/melissas-taqueria-brisbane?adjust_creative=Klanz-jboxl2XzqrjP6LLw&utm_campaign=yelp_api_v3&utm_medium=api_v3_business_search&utm_source=Klanz-jboxl2XzqrjP6LLw", "review_count": 156, "categories": [{"alias": "mexican", "title": "Mexican"}, {"alias": "salad", "title": "Salad"}, {"alias": "breakfast_brunch", "title": "Breakfast & Brunch"}], "rating": 3.5, "coordinates": {"latitude": 37.68338, "longitude": -122.40343}, "transactions": ["pickup", "delivery"], "price": "$", "location": {"address1": "160 Visitacion Ave", "address2": "", "address3": "", "city": "Brisbane", "zip_code": "94005", "country": "US", "state": "CA", "display_address": ["160 Visitacion Ave", "Brisbane, CA 94005"]}, "phone": "+14156561369", "display_phone": "(415) 656-1369", "distance": 9097.205129248923}, {"id": "PGGtbjr8m4V54tWMgqYxmQ", "alias": "marica-oakland-2", "name": "Marica", "image_url": "https://s3-media4.fl.yelpcdn.com/bphoto/3w65XPvraq-Q1ZQsrxvtkA/o.jpg", "is_closed": false, "url": "https://www.yelp.com/biz/marica-oakland-2?adjust_creative=Klanz-jboxl2XzqrjP6LLw&utm_campaign=yelp_api_v3&utm_medium=api_v3_business_search&utm_source=Klanz-jboxl2XzqrjP6LLw", "review_count": 2255, "categories": [{"alias": "seafood", "title": "Seafood"}, {"alias": "newamerican", "title": "American (New)"}], "rating": 4.5, "coordinates": {"latitude": 37.83798, "longitude": -122.2517}, "transactions": ["pickup", "delivery"], "price": "$$", "location": {"address1": "5301 College Ave", "address2": null, "address3": "", "city": "Oakland", "zip_code": "94618", "country": "US", "state": "CA", "display_address": ["5301 College Ave", "Oakland, CA 94618"]}, "phone": "+15109858388", "display_phone": "(510) 985-8388", "distance": 18375.817181914965}, {"id": "XZi5rsUdnXeDdhRdgsRVpw", "alias": "palette-san-francisco-3", "name": "Palette", "image_url": "https://s3-media4.fl.yelpcdn.com/bphoto/oosSToVyeJIH4g28srdjOw/o.jpg", "is_closed": false, "url": "https://www.yelp.com/biz/palette-san-francisco-3?adjust_creative=Klanz-jboxl2XzqrjP6LLw&utm_campaign=yelp_api_v3&utm_medium=api_v3_business_search&utm_source=Klanz-jboxl2XzqrjP6LLw", "review_count": 141, "categories": [{"alias": "venues", "title": "Venues & Event Spaces"}, {"alias": "newamerican", "title": "American (New)"}, {"alias": "cocktailbars", "title": "Cocktail Bars"}], "rating": 4.5, "coordinates": {"latitude": 37.781794, "longitude": -122.401819}, "transactions": [], "price": "$$$", "location": {"address1": "816 Folsom St", "address2": null, "address3": "", "city": "San Francisco", "zip_code": "94107", "country": "US", "state": "CA", "display_address": ["816 Folsom St", "San Francisco, CA 94107"]}, "phone": "+14158650529", "display_phone": "(415) 865-0529", "distance": 3829.079355162623}, {"id": "8b5g7vzOiQllXgsQMOMOew", "alias": "tacubaya-berkeley", "name": "Tacubaya", "image_url": "https://s3-media2.fl.yelpcdn.com/bphoto/UMps-nJnaedxc4wKoEua0g/o.jpg", "is_closed": false, "url": "https://www.yelp.com/biz/tacubaya-berkeley?adjust_creative=Klanz-jboxl2XzqrjP6LLw&utm_campaign=yelp_api_v3&utm_medium=api_v3_business_search&utm_source=Klanz-jboxl2XzqrjP6LLw", "review_count": 1047, "categories": [{"alias": "mexican", "title": "Mexican"}, {"alias": "desserts", "title": "Desserts"}], "rating": 3.5, "coordinates": {"latitude": 37.8703648, "longitude": -122.3012731}, "transactions": ["pickup", "delivery"], "price": "$$", "location": {"address1": "1782 4th St", "address2": "", "address3": "", "city": "Berkeley", "zip_code": "94710", "country": "US", "state": "CA", "display_address": ["1782 4th St", "Berkeley, CA 94710"]}, "phone": "+15105255160", "display_phone": "(510) 525-5160", "distance": 17004.40144237194}, {"id": "w6bwuiCl388Fj7FmIeOMIA", "alias": "soma-restaurant-and-bar-san-francisco", "name": "SOMA Restaurant & Bar", "image_url": "https://s3-media3.fl.yelpcdn.com/bphoto/WevhTJKqF00cGn3Kf80l4w/o.jpg", "is_closed": false, "url": "https://www.yelp.com/biz/soma-restaurant-and-bar-san-francisco?adjust_creative=Klanz-jboxl2XzqrjP6LLw&utm_campaign=yelp_api_v3&utm_medium=api_v3_business_search&utm_source=Klanz-jboxl2XzqrjP6LLw", "review_count": 306, "categories": [{"alias": "italian", "title": "Italian"}, {"alias": "mediterranean", "title": "Mediterranean"}, {"alias": "bars", "title": "Bars"}], "rating": 3.5, "coordinates": {"latitude": 37.78301, "longitude": -122.40651}, "transactions": ["pickup", "delivery"], "price": "$$", "location": {"address1": "85 5th St", "address2": "", "address3": "", "city": "San Francisco", "zip_code": "94103", "country": "US", "state": "CA", "display_address": ["85 5th St", "San Francisco, CA 94103"]}, "phone": "+14157788500", "display_phone": "(415) 778-8500", "distance": 3589.3457901827924}, {"id": "36I1kp3_bIWMYtpsVod5rA", "alias": "all-day-kitchens-san-francisco-2", "name": "All Day Kitchens", "image_url": "https://s3-media4.fl.yelpcdn.com/bphoto/Kr84_IJR2OIhHC3fzCxn2Q/o.jpg", "is_closed": false, "url": "https://www.yelp.com/biz/all-day-kitchens-san-francisco-2?adjust_creative=Klanz-jboxl2XzqrjP6LLw&utm_campaign=yelp_api_v3&utm_medium=api_v3_business_search&utm_source=Klanz-jboxl2XzqrjP6LLw", "review_count": 17, "categories": [{"alias": "food_court", "title": "Food Court"}, {"alias": "fooddeliveryservices", "title": "Food Delivery Services"}], "rating": 4.0, "coordinates": {"latitude": 37.75141, "longitude": -122.43612}, "transactions": ["pickup", "delivery"], "location": {"address1": "741 Diamond St", "address2": null, "address3": null, "city": "San Francisco", "zip_code": "94114", "country": "US", "state": "CA", "display_address": ["741 Diamond St", "San Francisco, CA 94114"]}, "phone": "+14159428304", "display_phone": "(415) 942-8304", "distance": 1062.8990507271108}, {"id": "czaf6Xaz8aAG2o_XQt5JCA", "alias": "pier-29-waterfront-restaurant-alameda", "name": "Pier 29 Waterfront Restaurant", "image_url": "https://s3-media1.fl.yelpcdn.com/bphoto/Cf7trSdV7qAfwnZnlL1Azg/o.jpg", "is_closed": false, "url": "https://www.yelp.com/biz/pier-29-waterfront-restaurant-alameda?adjust_creative=Klanz-jboxl2XzqrjP6LLw&utm_campaign=yelp_api_v3&utm_medium=api_v3_business_search&utm_source=Klanz-jboxl2XzqrjP6LLw", "review_count": 406, "categories": [{"alias": "seafood", "title": "Seafood"}, {"alias": "cocktailbars", "title": "Cocktail Bars"}, {"alias": "steak", "title": "Steakhouses"}], "rating": 3.0, "coordinates": {"latitude": 37.767368, "longitude": -122.2880754}, "transactions": ["pickup", "delivery"], "price": "$$", "location": {"address1": "1148 Ballena Blvd", "address2": null, "address3": "", "city": "Alameda", "zip_code": "94501", "country": "US", "state": "CA", "display_address": ["1148 Ballena Blvd", "Alameda, CA 94501"]}, "phone": "+15108655088", "display_phone": "(510) 865-5088", "distance": 13098.399468807482}, {"id": "Xdx2_n3nk9Td_aSe7E5ARQ", "alias": "rich-table-san-francisco", "name": "Rich Table", "image_url": "https://s3-media4.fl.yelpcdn.com/bphoto/rvIRMaMEDWyAQLqDgGOxBA/o.jpg", "is_closed": false, "url": "https://www.yelp.com/biz/rich-table-san-francisco?adjust_creative=Klanz-jboxl2XzqrjP6LLw&utm_campaign=yelp_api_v3&utm_medium=api_v3_business_search&utm_source=Klanz-jboxl2XzqrjP6LLw", "review_count": 1352, "categories": [{"alias": "newamerican", "title": "American (New)"}, {"alias": "cocktailbars", "title": "Cocktail Bars"}, {"alias": "wine_bars", "title": "Wine Bars"}], "rating": 4.0, "coordinates": {"latitude": 37.77485, "longitude": -122.42284}, "transactions": ["delivery"], "price": "$$$", "location": {"address1": "199 Gough St", "address2": null, "address3": "", "city": "San Francisco", "zip_code": "94102", "country": "US", "state": "CA", "display_address": ["199 Gough St", "San Francisco, CA 94102"]}, "phone": "+14153559085", "display_phone": "(415) 355-9085", "distance": 1961.4214691036389}, {"id": "27jQXgyYIFvVSXaiF47YrQ", "alias": "chavitas-san-francisco", "name": "Chavitas", "image_url": "https://s3-media2.fl.yelpcdn.com/bphoto/T0Df_CLxe1bk6dyLqKrEUg/o.jpg", "is_closed": false, "url": "https://www.yelp.com/biz/chavitas-san-francisco?adjust_creative=Klanz-jboxl2XzqrjP6LLw&utm_campaign=yelp_api_v3&utm_medium=api_v3_business_search&utm_source=Klanz-jboxl2XzqrjP6LLw", "review_count": 51, "categories": [{"alias": "mexican", "title": "Mexican"}], "rating": 3.5, "coordinates": {"latitude": 37.748871, "longitude": -122.418316}, "transactions": ["pickup"], "price": "$", "location": {"address1": "3006 Mission St", "address2": "", "address3": "", "city": "San Francisco", "zip_code": "94110", "country": "US", "state": "CA", "display_address": ["3006 Mission St", "San Francisco, CA 94110"]}, "phone": "+14152856927", "display_phone": "(415) 285-6927", "distance": 2080.7960545256824}, {"id": "Y6SAopp28TD6-dwdVO9ZCQ", "alias": "zombie-village-san-francisco-2", "name": "Zombie Village", "image_url": "https://s3-media2.fl.yelpcdn.com/bphoto/x8auWCVsBmU-2bGMjBJ3EQ/o.jpg", "is_closed": false, "url": "https://www.yelp.com/biz/zombie-village-san-francisco-2?adjust_creative=Klanz-jboxl2XzqrjP6LLw&utm_campaign=yelp_api_v3&utm_medium=api_v3_business_search&utm_source=Klanz-jboxl2XzqrjP6LLw", "review_count": 255, "categories": [{"alias": "tikibars", "title": "Tiki Bars"}], "rating": 4.0, "coordinates": {"latitude": 37.78555, "longitude": -122.41312}, "transactions": ["restaurant_reservation"], "price": "$$", "location": {"address1": "441 Jones St", "address2": "", "address3": null, "city": "San Francisco", "zip_code": "94102", "country": "US", "state": "CA", "display_address": ["441 Jones St", "San Francisco, CA 94102"]}, "phone": "+14154742284", "display_phone": "(415) 474-2284", "distance": 3416.652483004041}, {"id": "qMoaAv2WUAybwx-bOxCc5w", "alias": "the-fishbowl-bar-and-grill-san-francisco", "name": "The Fishbowl Bar & Grill", "image_url": "https://s3-media3.fl.yelpcdn.com/bphoto/AADpfpryMltarVomUsFyGQ/o.jpg", "is_closed": false, "url": "https://www.yelp.com/biz/the-fishbowl-bar-and-grill-san-francisco?adjust_creative=Klanz-jboxl2XzqrjP6LLw&utm_campaign=yelp_api_v3&utm_medium=api_v3_business_search&utm_source=Klanz-jboxl2XzqrjP6LLw", "review_count": 264, "categories": [{"alias": "pubs", "title": "Pubs"}], "rating": 3.5, "coordinates": {"latitude": 37.7868335311542, "longitude": -122.440078107488}, "transactions": [], "price": "$", "location": {"address1": "1854 Divisadero St", "address2": "", "address3": "", "city": "San Francisco", "zip_code": "94115", "country": "US", "state": "CA", "display_address": ["1854 Divisadero St", "San Francisco, CA 94115"]}, "phone": "+14157753630", "display_phone": "(415) 775-3630", "distance": 2901.3466928195717}, {"id": "9yM20-7fj4LMrOO30nqkBw", "alias": "l-ardoise-bistro-san-francisco", "name": "L\u2019Ardoise Bistro", "image_url": "https://s3-media3.fl.yelpcdn.com/bphoto/dhXuKb4LhkUmQdX8yhZMzA/o.jpg", "is_closed": false, "url": "https://www.yelp.com/biz/l-ardoise-bistro-san-francisco?adjust_creative=Klanz-jboxl2XzqrjP6LLw&utm_campaign=yelp_api_v3&utm_medium=api_v3_business_search&utm_source=Klanz-jboxl2XzqrjP6LLw", "review_count": 1325, "categories": [{"alias": "french", "title": "French"}, {"alias": "wine_bars", "title": "Wine Bars"}, {"alias": "desserts", "title": "Desserts"}], "rating": 4.5, "coordinates": {"latitude": 37.7665241, "longitude": -122.4331385}, "transactions": ["pickup", "delivery"], "price": "$$$", "location": {"address1": "151 Noe St", "address2": "", "address3": "", "city": "San Francisco", "zip_code": "94114", "country": "US", "state": "CA", "display_address": ["151 Noe St", "San Francisco, CA 94114"]}, "phone": "+14154372600", "display_phone": "(415) 437-2600", "distance": 700.3831983058177}, {"id": "9gM9Z-dOZXkg5UiP2KlrGg", "alias": "brick-and-beam-san-francisco", "name": "Brick & Beam", "image_url": "https://s3-media3.fl.yelpcdn.com/bphoto/O4heb37dK73dS7ztMyUYpg/o.jpg", "is_closed": false, "url": "https://www.yelp.com/biz/brick-and-beam-san-francisco?adjust_creative=Klanz-jboxl2XzqrjP6LLw&utm_campaign=yelp_api_v3&utm_medium=api_v3_business_search&utm_source=Klanz-jboxl2XzqrjP6LLw", "review_count": 236, "categories": [{"alias": "bars", "title": "Bars"}, {"alias": "newamerican", "title": "American (New)"}], "rating": 3.5, "coordinates": {"latitude": 37.805885, "longitude": -122.415992}, "transactions": ["delivery"], "price": "$$", "location": {"address1": "555 N Point St", "address2": "", "address3": "Hyatt Fisherman's Wharf", "city": "San Francisco", "zip_code": "94133", "country": "US", "state": "CA", "display_address": ["555 N Point St", "Hyatt Fisherman's Wharf", "San Francisco, CA 94133"]}, "phone": "+14152023612", "display_phone": "(415) 202-3612", "distance": 5330.889955110164}, {"id": "IEeN7LRBEb2S1gbAwFjejg", "alias": "smellys-creole-and-soul-food-catering-oakland-3", "name": "Smelly's Creole & Soul Food Catering", "image_url": "https://s3-media1.fl.yelpcdn.com/bphoto/VMPex7D4zo0G4AODcLG7nA/o.jpg", "is_closed": false, "url": "https://www.yelp.com/biz/smellys-creole-and-soul-food-catering-oakland-3?adjust_creative=Klanz-jboxl2XzqrjP6LLw&utm_campaign=yelp_api_v3&utm_medium=api_v3_business_search&utm_source=Klanz-jboxl2XzqrjP6LLw", "review_count": 31, "categories": [{"alias": "catering", "title": "Caterers"}], "rating": 4.5, "coordinates": {"latitude": 37.8043637, "longitude": -122.2711137}, "transactions": [], "location": {"address1": null, "address2": null, "address3": "", "city": "Oakland", "zip_code": "94612", "country": "US", "state": "CA", "display_address": ["Oakland, CA 94612"]}, "phone": "+15108122675", "display_phone": "(510) 812-2675", "distance": 15312.507944492663}, {"id": "s4GvKQzi6eHEr-2F5z8o_A", "alias": "oye-managua-san-francisco", "name": "Oye Managua", "image_url": "https://s3-media4.fl.yelpcdn.com/bphoto/QDc5Pk17kcfkS3VMEa5lSw/o.jpg", "is_closed": false, "url": "https://www.yelp.com/biz/oye-managua-san-francisco?adjust_creative=Klanz-jboxl2XzqrjP6LLw&utm_campaign=yelp_api_v3&utm_medium=api_v3_business_search&utm_source=Klanz-jboxl2XzqrjP6LLw", "review_count": 302, "categories": [{"alias": "latin", "title": "Latin American"}, {"alias": "nicaraguan", "title": "Nicaraguan"}], "rating": 3.5, "coordinates": {"latitude": 37.7423, "longitude": -122.42179}, "transactions": ["pickup"], "price": "$$", "location": {"address1": "3385 Mission St", "address2": null, "address3": "", "city": "San Francisco", "zip_code": "94110", "country": "US", "state": "CA", "display_address": ["3385 Mission St", "San Francisco, CA 94110"]}, "phone": "+14158212702", "display_phone": "(415) 821-2702", "distance": 2433.5419896018457}], "total": 1700, "region": {"center": {"longitude": -122.43644714355469, "latitude": 37.76089938976322}}}