{"businesses": [{"id": "JOVyRw09-_LnCemd6vLJLg", "alias": "evil-eye-san-francisco", "name": "Evil Eye", "image_url": "https://s3-media2.fl.yelpcdn.com/bphoto/wbU6oWos-IA48T9ue96-mQ/o.jpg", "is_closed": false, "url": "https://www.yelp.com/biz/evil-eye-san-francisco?adjust_creative=Klanz-jboxl2XzqrjP6LLw&utm_campaign=yelp_api_v3&utm_medium=api_v3_business_search&utm_source=Klanz-jboxl2XzqrjP6LLw", "review_count": 159, "categories": [{"alias": "cocktailbars", "title": "Cocktail Bars"}, {"alias": "lounges", "title": "Lounges"}], "rating": 4.0, "coordinates": {"latitude": 37.75002, "longitude": -122.41804}, "transactions": ["delivery"], "price": "$$", "location": {"address1": "2937 Mission St", "address2": "", "address3": "", "city": "San Francisco", "zip_code": "94110", "country": "US", "state": "CA", "display_address": ["2937 Mission St", "San Francisco, CA 94110"]}, "phone": "+14158143779", "display_phone": "(415) 814-3779", "distance": 2015.1600685959481}, {"id": "uyaJ0h-INWa0VSLBrbp8mA", "alias": "tlaloc-sabor-mexicano-san-francisco-2", "name": "Tlaloc Sabor Mexicano", "image_url": "https://s3-media2.fl.yelpcdn.com/bphoto/fD3gPfzMgnVxMWkICpQ3KA/o.jpg", "is_closed": false, "url": "https://www.yelp.com/biz/tlaloc-sabor-mexicano-san-francisco-2?adjust_creative=Klanz-jboxl2XzqrjP6LLw&utm_campaign=yelp_api_v3&utm_medium=api_v3_business_search&utm_source=Klanz-jboxl2XzqrjP6LLw", "review_count": 669, "categories": [{"alias": "mexican", "title": "Mexican"}], "rating": 3.5, "coordinates": {"latitude": 37.7943305138881, "longitude": -122.40184301104301}, "transactions": ["pickup", "delivery"], "price": "$$", "location": {"address1": "525 Commercial St", "address2": "", "address3": "", "city": "San Francisco", "zip_code": "94111", "country": "US", "state": "CA", "display_address": ["525 Commercial St", "San Francisco, CA 94111"]}, "phone": "+14159817800", "display_phone": "(415) 981-7800", "distance": 4802.936484364456}, {"id": "NzSuKIBKI2LI6t1K-IJjjQ", "alias": "montecristo-restaurant-san-francisco", "name": "Montecristo Restaurant", "image_url": "https://s3-media1.fl.yelpcdn.com/bphoto/MTJIoIEgNYRdIo7JezLgmg/o.jpg", "is_closed": false, "url": "https://www.yelp.com/biz/montecristo-restaurant-san-francisco?adjust_creative=Klanz-jboxl2XzqrjP6LLw&utm_campaign=yelp_api_v3&utm_medium=api_v3_business_search&utm_source=Klanz-jboxl2XzqrjP6LLw", "review_count": 57, "categories": [{"alias": "salvadoran", "title": "Salvadoran"}, {"alias": "mexican", "title": "Mexican"}], "rating": 3.0, "coordinates": {"latitude": 37.7209665854088, "longitude": -122.396621704102}, "transactions": ["delivery"], "price": "$", "location": {"address1": "6286 3rd St", "address2": "", "address3": "", "city": "San Francisco", "zip_code": "94124", "country": "US", "state": "CA", "display_address": ["6286 3rd St", "San Francisco, CA 94124"]}, "phone": "+14154682113", "display_phone": "(415) 468-2113", "distance": 5655.0665251079645}, {"id": "kWrVV4mS-SLy-Ph_DeJSAg", "alias": "crab-house-at-pier-39-san-francisco-3", "name": "Crab House at Pier 39", "image_url": "https://s3-media1.fl.yelpcdn.com/bphoto/fYHHyi1oiH_Vo6wZ3czMkw/o.jpg", "is_closed": false, "url": "https://www.yelp.com/biz/crab-house-at-pier-39-san-francisco-3?adjust_creative=Klanz-jboxl2XzqrjP6LLw&utm_campaign=yelp_api_v3&utm_medium=api_v3_business_search&utm_source=Klanz-jboxl2XzqrjP6LLw", "review_count": 2460, "categories": [{"alias": "seafood", "title": "Seafood"}], "rating": 4.0, "coordinates": {"latitude": 37.809437, "longitude": -122.410365343094}, "transactions": ["restaurant_reservation", "delivery"], "price": "$$$", "location": {"address1": "203 C Pier 39", "address2": "", "address3": "", "city": "San Francisco", "zip_code": "94133", "country": "US", "state": "CA", "display_address": ["203 C Pier 39", "San Francisco, CA 94133"]}, "phone": "+14156512574", "display_phone": "(415) 651-2574", "distance": 5863.654418560364}, {"id": "XtiHkl_3Aq8RC7OMRSJA1g", "alias": "los-cuates-taqueria-daly-city-daly-city", "name": "Los Cuates Taqueria - Daly City", "image_url": "https://s3-media2.fl.yelpcdn.com/bphoto/ejbyX6zSCFBbt8ruRTNG3A/o.jpg", "is_closed": false, "url": "https://www.yelp.com/biz/los-cuates-taqueria-daly-city-daly-city?adjust_creative=Klanz-jboxl2XzqrjP6LLw&utm_campaign=yelp_api_v3&utm_medium=api_v3_business_search&utm_source=Klanz-jboxl2XzqrjP6LLw", "review_count": 79, "categories": [{"alias": "mexican", "title": "Mexican"}], "rating": 4.0, "coordinates": {"latitude": 37.6898749, "longitude": -122.4622225}, "transactions": ["delivery"], "price": "$", "location": {"address1": "311 E Market St", "address2": "", "address3": null, "city": "Daly City", "zip_code": "94014", "country": "US", "state": "CA", "display_address": ["311 E Market St", "Daly City, CA 94014"]}, "phone": "+14157695966", "display_phone": "(415) 769-5966", "distance": 8169.536288058333}, {"id": "4ByppNly_uMEJ9NwNifvZA", "alias": "mi-yucatan-san-francisco", "name": "Mi Yucatan", "image_url": "https://s3-media3.fl.yelpcdn.com/bphoto/DZ2y9mD8fuwACZF0l7ziFQ/o.jpg", "is_closed": false, "url": "https://www.yelp.com/biz/mi-yucatan-san-francisco?adjust_creative=Klanz-jboxl2XzqrjP6LLw&utm_campaign=yelp_api_v3&utm_medium=api_v3_business_search&utm_source=Klanz-jboxl2XzqrjP6LLw", "review_count": 48, "categories": [{"alias": "mexican", "title": "Mexican"}, {"alias": "latin", "title": "Latin American"}], "rating": 4.0, "coordinates": {"latitude": 37.7515301, "longitude": -122.4181987}, "transactions": ["pickup", "delivery"], "price": "$$", "location": {"address1": "2845 Mission St", "address2": "", "address3": "", "city": "San Francisco", "zip_code": "94110", "country": "US", "state": "CA", "display_address": ["2845 Mission St", "San Francisco, CA 94110"]}, "phone": "+14152854455", "display_phone": "(415) 285-4455", "distance": 1912.8752758476248}, {"id": "r2jiJk3yivcLkWSSYELGcA", "alias": "tataki-san-francisco", "name": "Tataki", "image_url": "https://s3-media1.fl.yelpcdn.com/bphoto/jz1YmSB_DGqAWoRlXxqaow/o.jpg", "is_closed": false, "url": "https://www.yelp.com/biz/tataki-san-francisco?adjust_creative=Klanz-jboxl2XzqrjP6LLw&utm_campaign=yelp_api_v3&utm_medium=api_v3_business_search&utm_source=Klanz-jboxl2XzqrjP6LLw", "review_count": 1314, "categories": [{"alias": "sushi", "title": "Sushi Bars"}, {"alias": "bars", "title": "Bars"}], "rating": 4.0, "coordinates": {"latitude": 37.7878390504557, "longitude": -122.441227674274}, "transactions": ["restaurant_reservation", "delivery"], "price": "$$", "location": {"address1": "2827 California St", "address2": "", "address3": "", "city": "San Francisco", "zip_code": "94115", "country": "US", "state": "CA", "display_address": ["2827 California St", "San Francisco, CA 94115"]}, "phone": "+14159311182", "display_phone": "(415) 931-1182", "distance": 3024.874051233535}, {"id": "yteW-EVt3atGLtupG_yKgA", "alias": "street-taco-san-francisco-8", "name": "Street Taco", "image_url": "https://s3-media1.fl.yelpcdn.com/bphoto/lnv-4v0MYnPpEQLrFYxLow/o.jpg", "is_closed": false, "url": "https://www.yelp.com/biz/street-taco-san-francisco-8?adjust_creative=Klanz-jboxl2XzqrjP6LLw&utm_campaign=yelp_api_v3&utm_medium=api_v3_business_search&utm_source=Klanz-jboxl2XzqrjP6LLw", "review_count": 57, "categories": [{"alias": "mexican", "title": "Mexican"}], "rating": 3.5, "coordinates": {"latitude": 37.766633, "longitude": -122.395982}, "transactions": ["pickup", "delivery"], "location": {"address1": "980 16th St", "address2": "", "address3": null, "city": "San Francisco", "zip_code": "94107", "country": "US", "state": "CA", "display_address": ["980 16th St", "San Francisco, CA 94107"]}, "phone": "+14158729503", "display_phone": "(415) 872-9503", "distance": 3619.558935768399}, {"id": "dlDdlCew3UHfKlKNOtNHPw", "alias": "woods-cervecer\u00eda-san-francisco-2", "name": "Woods Cervecer\u00eda", "image_url": "https://s3-media4.fl.yelpcdn.com/bphoto/x0p0DuqGRBn7W1zc8bNpSg/o.jpg", "is_closed": false, "url": "https://www.yelp.com/biz/woods-cervecer%C3%ADa-san-francisco-2?adjust_creative=Klanz-jboxl2XzqrjP6LLw&utm_campaign=yelp_api_v3&utm_medium=api_v3_business_search&utm_source=Klanz-jboxl2XzqrjP6LLw", "review_count": 212, "categories": [{"alias": "breweries", "title": "Breweries"}, {"alias": "wineries", "title": "Wineries"}, {"alias": "beerbar", "title": "Beer Bar"}], "rating": 4.0, "coordinates": {"latitude": 37.7610893249512, "longitude": -122.428520202637}, "transactions": ["delivery"], "price": "$$", "location": {"address1": "3801 18th St", "address2": "", "address3": "", "city": "San Francisco", "zip_code": "94114", "country": "US", "state": "CA", "display_address": ["3801 18th St", "San Francisco, CA 94114"]}, "phone": "+14154930305", "display_phone": "(415) 493-0305", "distance": 693.0227423201447}, {"id": "M10HydVTu_qLEfAXZASvCw", "alias": "taqueria-san-francisco-san-francisco", "name": "Taqueria San Francisco", "image_url": "https://s3-media1.fl.yelpcdn.com/bphoto/6UsCbpf8RilS1Ou-6VFEdg/o.jpg", "is_closed": false, "url": "https://www.yelp.com/biz/taqueria-san-francisco-san-francisco?adjust_creative=Klanz-jboxl2XzqrjP6LLw&utm_campaign=yelp_api_v3&utm_medium=api_v3_business_search&utm_source=Klanz-jboxl2XzqrjP6LLw", "review_count": 247, "categories": [{"alias": "mexican", "title": "Mexican"}], "rating": 4.0, "coordinates": {"latitude": 37.75309, "longitude": -122.40802}, "transactions": ["delivery"], "price": "$", "location": {"address1": "2794 24th St", "address2": "", "address3": "", "city": "San Francisco", "zip_code": "94110", "country": "US", "state": "CA", "display_address": ["2794 24th St", "San Francisco, CA 94110"]}, "phone": "+14156411770", "display_phone": "(415) 641-1770", "distance": 2640.612641452318}, {"id": "HRBxlWMWbdxF30hd3R5ZPg", "alias": "chica-oakland-oakland-2", "name": "CHICA Oakland", "image_url": "https://s3-media2.fl.yelpcdn.com/bphoto/cGm2-w13ymS09VrQFvmQOQ/o.jpg", "is_closed": false, "url": "https://www.yelp.com/biz/chica-oakland-oakland-2?adjust_creative=Klanz-jboxl2XzqrjP6LLw&utm_campaign=yelp_api_v3&utm_medium=api_v3_business_search&utm_source=Klanz-jboxl2XzqrjP6LLw", "review_count": 251, "categories": [{"alias": "latin", "title": "Latin American"}, {"alias": "mexican", "title": "Mexican"}], "rating": 4.5, "coordinates": {"latitude": 37.8166547, "longitude": -122.257303}, "transactions": ["delivery"], "price": "$$", "location": {"address1": "303A Oakland Ave", "address2": "", "address3": null, "city": "Oakland", "zip_code": "94611", "country": "US", "state": "CA", "display_address": ["303A Oakland Ave", "Oakland, CA 94611"]}, "phone": "+15107359748", "display_phone": "(510) 735-9748", "distance": 16919.01194972625}, {"id": "6BMxNLbCSQIe72nYGiJBXA", "alias": "orphan-andys-san-francisco", "name": "Orphan Andy's", "image_url": "https://s3-media1.fl.yelpcdn.com/bphoto/yIH4MtrZpljyjt8-AWpZnw/o.jpg", "is_closed": false, "url": "https://www.yelp.com/biz/orphan-andys-san-francisco?adjust_creative=Klanz-jboxl2XzqrjP6LLw&utm_campaign=yelp_api_v3&utm_medium=api_v3_business_search&utm_source=Klanz-jboxl2XzqrjP6LLw", "review_count": 975, "categories": [{"alias": "diners", "title": "Diners"}, {"alias": "tradamerican", "title": "American (Traditional)"}, {"alias": "breakfast_brunch", "title": "Breakfast & Brunch"}], "rating": 3.5, "coordinates": {"latitude": 37.76238, "longitude": -122.43486}, "transactions": [], "price": "$$", "location": {"address1": "3991 17th St", "address2": "", "address3": "", "city": "San Francisco", "zip_code": "94114", "country": "US", "state": "CA", "display_address": ["3991 17th St", "San Francisco, CA 94114"]}, "phone": "+14158649795", "display_phone": "(415) 864-9795", "distance": 209.54882252045496}, {"id": "yNiYJWHLxMrryH0xi_2r2w", "alias": "latin-american-club-san-francisco", "name": "Latin American Club", "image_url": "https://s3-media2.fl.yelpcdn.com/bphoto/SzfGCEGjh3bMx4-RtsBqtg/o.jpg", "is_closed": false, "url": "https://www.yelp.com/biz/latin-american-club-san-francisco?adjust_creative=Klanz-jboxl2XzqrjP6LLw&utm_campaign=yelp_api_v3&utm_medium=api_v3_business_search&utm_source=Klanz-jboxl2XzqrjP6LLw", "review_count": 490, "categories": [{"alias": "bars", "title": "Bars"}], "rating": 3.5, "coordinates": {"latitude": 37.755471071506, "longitude": -122.42051075568}, "transactions": [], "price": "$", "location": {"address1": "3286 22nd St", "address2": "", "address3": "", "city": "San Francisco", "zip_code": "94110", "country": "US", "state": "CA", "display_address": ["3286 22nd St", "San Francisco, CA 94110"]}, "phone": "+14156472732", "display_phone": "(415) 647-2732", "distance": 1525.4778232830977}, {"id": "GyBh5QsGham__kK7eJ2feQ", "alias": "box-kitchen-san-francisco", "name": "Box Kitchen", "image_url": "https://s3-media2.fl.yelpcdn.com/bphoto/lgec94Phd30Dr7sGafXMXg/o.jpg", "is_closed": false, "url": "https://www.yelp.com/biz/box-kitchen-san-francisco?adjust_creative=Klanz-jboxl2XzqrjP6LLw&utm_campaign=yelp_api_v3&utm_medium=api_v3_business_search&utm_source=Klanz-jboxl2XzqrjP6LLw", "review_count": 812, "categories": [{"alias": "foodstands", "title": "Food Stands"}, {"alias": "burgers", "title": "Burgers"}, {"alias": "waffles", "title": "Waffles"}], "rating": 4.5, "coordinates": {"latitude": 37.7811510761365, "longitude": -122.40636505138}, "transactions": ["pickup"], "price": "$$", "location": {"address1": "431 Natoma St", "address2": null, "address3": "", "city": "San Francisco", "zip_code": "94103", "country": "US", "state": "CA", "display_address": ["431 Natoma St", "San Francisco, CA 94103"]}, "phone": "+14155807170", "display_phone": "(415) 580-7170", "distance": 3473.060452670732}, {"id": "oic-xcRpi-yXG3KZ4go0mg", "alias": "chowders-san-francisco", "name": "Chowders", "image_url": "https://s3-media1.fl.yelpcdn.com/bphoto/vDhuJq9OiyHH3KXwU4KLHw/o.jpg", "is_closed": false, "url": "https://www.yelp.com/biz/chowders-san-francisco?adjust_creative=Klanz-jboxl2XzqrjP6LLw&utm_campaign=yelp_api_v3&utm_medium=api_v3_business_search&utm_source=Klanz-jboxl2XzqrjP6LLw", "review_count": 869, "categories": [{"alias": "seafood", "title": "Seafood"}, {"alias": "fishnchips", "title": "Fish & Chips"}, {"alias": "soup", "title": "Soup"}], "rating": 3.5, "coordinates": {"latitude": 37.8091038904912, "longitude": -122.410239157078}, "transactions": ["pickup", "delivery"], "price": "$$", "location": {"address1": "The Embarcadero", "address2": "", "address3": "Bldg A, Level 1", "city": "San Francisco", "zip_code": "94133", "country": "US", "state": "CA", "display_address": ["The Embarcadero", "Bldg A, Level 1", "San Francisco, CA 94133"]}, "phone": "+14153914737", "display_phone": "(415) 391-4737", "distance": 5833.950223342049}, {"id": "BsAGJgW-Pdq_qmpVH1RSjw", "alias": "twin-peaks-tavern-san-francisco", "name": "Twin Peaks Tavern", "image_url": "https://s3-media3.fl.yelpcdn.com/bphoto/bk1cY9-ljh9oRAZylPvc9Q/o.jpg", "is_closed": false, "url": "https://www.yelp.com/biz/twin-peaks-tavern-san-francisco?adjust_creative=Klanz-jboxl2XzqrjP6LLw&utm_campaign=yelp_api_v3&utm_medium=api_v3_business_search&utm_source=Klanz-jboxl2XzqrjP6LLw", "review_count": 200, "categories": [{"alias": "gaybars", "title": "Gay Bars"}], "rating": 4.0, "coordinates": {"latitude": 37.762405, "longitude": -122.434965}, "transactions": [], "price": "$$", "location": {"address1": "401 Castro St", "address2": "", "address3": "", "city": "San Francisco", "zip_code": "94114", "country": "US", "state": "CA", "display_address": ["401 Castro St", "San Francisco, CA 94114"]}, "phone": "+14158649470", "display_phone": "(415) 864-9470", "distance": 212.1407864800021}, {"id": "PFk6k_hEGG0n6_FAJSm9EQ", "alias": "woodhouse-fish-company-san-francisco-3", "name": "Woodhouse Fish Company", "image_url": "https://s3-media1.fl.yelpcdn.com/bphoto/ylk0187IT8kgwr-fIPz7RA/o.jpg", "is_closed": false, "url": "https://www.yelp.com/biz/woodhouse-fish-company-san-francisco-3?adjust_creative=Klanz-jboxl2XzqrjP6LLw&utm_campaign=yelp_api_v3&utm_medium=api_v3_business_search&utm_source=Klanz-jboxl2XzqrjP6LLw", "review_count": 2382, "categories": [{"alias": "seafood", "title": "Seafood"}, {"alias": "newamerican", "title": "American (New)"}], "rating": 4.0, "coordinates": {"latitude": 37.78742, "longitude": -122.43327}, "transactions": ["delivery"], "price": "$$", "location": {"address1": "1914 Fillmore St", "address2": "", "address3": "", "city": "San Francisco", "zip_code": "94115", "country": "US", "state": "CA", "display_address": ["1914 Fillmore St", "San Francisco, CA 94115"]}, "phone": "+14154372722", "display_phone": "(415) 437-2722", "distance": 2966.614164301847}, {"id": "oFspnmFptfuZNYB-iaGwEw", "alias": "off-the-grid-un-plaza-san-francisco-2", "name": "Off the Grid: UN Plaza", "image_url": "https://s3-media4.fl.yelpcdn.com/bphoto/u4ArMIQc1vY9WwCYa_0cTw/o.jpg", "is_closed": false, "url": "https://www.yelp.com/biz/off-the-grid-un-plaza-san-francisco-2?adjust_creative=Klanz-jboxl2XzqrjP6LLw&utm_campaign=yelp_api_v3&utm_medium=api_v3_business_search&utm_source=Klanz-jboxl2XzqrjP6LLw", "review_count": 40, "categories": [{"alias": "foodtrucks", "title": "Food Trucks"}, {"alias": "food_court", "title": "Food Court"}], "rating": 4.0, "coordinates": {"latitude": 37.778708, "longitude": -122.414761}, "transactions": [], "price": "$$", "location": {"address1": "10 United Nations Plz", "address2": "", "address3": "Market St & Hyde St", "city": "San Francisco", "zip_code": "94102", "country": "US", "state": "CA", "display_address": ["10 United Nations Plz", "Market St & Hyde St", "San Francisco, CA 94102"]}, "phone": "+14153395888", "display_phone": "(415) 339-5888", "distance": 2748.5796122596953}, {"id": "T61CGyosLTxO-2GPos3Rfw", "alias": "the-bagel-bakery-san-francisco", "name": "The Bagel Bakery", "image_url": "https://s3-media3.fl.yelpcdn.com/bphoto/C6QMZTeHCeayxM5X1KuopQ/o.jpg", "is_closed": false, "url": "https://www.yelp.com/biz/the-bagel-bakery-san-francisco?adjust_creative=Klanz-jboxl2XzqrjP6LLw&utm_campaign=yelp_api_v3&utm_medium=api_v3_business_search&utm_source=Klanz-jboxl2XzqrjP6LLw", "review_count": 265, "categories": [{"alias": "bagels", "title": "Bagels"}, {"alias": "breakfast_brunch", "title": "Breakfast & Brunch"}, {"alias": "sandwiches", "title": "Sandwiches"}], "rating": 4.0, "coordinates": {"latitude": 37.779590110169, "longitude": -122.39156939271}, "transactions": ["pickup", "delivery"], "price": "$", "location": {"address1": "151 Townsend St", "address2": "", "address3": "", "city": "San Francisco", "zip_code": "94107", "country": "US", "state": "CA", "display_address": ["151 Townsend St", "San Francisco, CA 94107"]}, "phone": "+14155430900", "display_phone": "(415) 543-0900", "distance": 4458.612740999123}, {"id": "0lFMhtTPRk0BR8Q7H33Q2Q", "alias": "taqueria-el-buen-sabor-no-2-san-francisco", "name": "Taqueria El Buen Sabor no 2", "image_url": "https://s3-media3.fl.yelpcdn.com/bphoto/gtg_dIT7x0CJATI3lBjwmA/o.jpg", "is_closed": false, "url": "https://www.yelp.com/biz/taqueria-el-buen-sabor-no-2-san-francisco?adjust_creative=Klanz-jboxl2XzqrjP6LLw&utm_campaign=yelp_api_v3&utm_medium=api_v3_business_search&utm_source=Klanz-jboxl2XzqrjP6LLw", "review_count": 29, "categories": [{"alias": "mexican", "title": "Mexican"}], "rating": 3.5, "coordinates": {"latitude": 37.71199682450079, "longitude": -122.40551858961315}, "transactions": ["delivery"], "price": "$", "location": {"address1": "98 Leland Ave", "address2": "", "address3": "", "city": "San Francisco", "zip_code": "94134", "country": "US", "state": "CA", "display_address": ["98 Leland Ave", "San Francisco, CA 94134"]}, "phone": "+14153494134", "display_phone": "(415) 349-4134", "distance": 6079.94762601994}, {"id": "h4-Sp7rBNS5SuWbLet7R5Q", "alias": "bond-bar-san-francisco", "name": "Bond Bar", "image_url": "https://s3-media1.fl.yelpcdn.com/bphoto/CtRKgBzOzPxSq1gpVkEpOA/o.jpg", "is_closed": false, "url": "https://www.yelp.com/biz/bond-bar-san-francisco?adjust_creative=Klanz-jboxl2XzqrjP6LLw&utm_campaign=yelp_api_v3&utm_medium=api_v3_business_search&utm_source=Klanz-jboxl2XzqrjP6LLw", "review_count": 226, "categories": [{"alias": "cocktailbars", "title": "Cocktail Bars"}, {"alias": "lounges", "title": "Lounges"}], "rating": 4.0, "coordinates": {"latitude": 37.7648165222907, "longitude": -122.421419674788}, "transactions": [], "price": "$$", "location": {"address1": "3079 16th St", "address2": "", "address3": "", "city": "San Francisco", "zip_code": "94103", "country": "US", "state": "CA", "display_address": ["3079 16th St", "San Francisco, CA 94103"]}, "phone": "+14157354499", "display_phone": "(415) 735-4499", "distance": 1390.950004485992}, {"id": "Vs6ioXCHhuWdm_mMqqf4mw", "alias": "san-francisco-brewing-co-san-francisco", "name": "San Francisco Brewing Co", "image_url": "https://s3-media2.fl.yelpcdn.com/bphoto/sjOdvW0OeOpVfKt-901AIg/o.jpg", "is_closed": false, "url": "https://www.yelp.com/biz/san-francisco-brewing-co-san-francisco?adjust_creative=Klanz-jboxl2XzqrjP6LLw&utm_campaign=yelp_api_v3&utm_medium=api_v3_business_search&utm_source=Klanz-jboxl2XzqrjP6LLw", "review_count": 35, "categories": [{"alias": "breweries", "title": "Breweries"}, {"alias": "pubs", "title": "Pubs"}], "rating": 4.5, "coordinates": {"latitude": 37.8055723, "longitude": -122.4235068}, "transactions": ["pickup", "delivery"], "price": "$", "location": {"address1": "3150 Polk St", "address2": null, "address3": "", "city": "San Francisco", "zip_code": "94114", "country": "US", "state": "CA", "display_address": ["3150 Polk St", "San Francisco, CA 94114"]}, "phone": "+14154842337", "display_phone": "(415) 484-2337", "distance": 5095.906875658143}, {"id": "I198k7wIkK0Xr4r0jco0Og", "alias": "frisco-fried-san-francisco", "name": "Frisco Fried", "image_url": "https://s3-media2.fl.yelpcdn.com/bphoto/8VFj__ut-C2k8mQrZcptJw/o.jpg", "is_closed": false, "url": "https://www.yelp.com/biz/frisco-fried-san-francisco?adjust_creative=Klanz-jboxl2XzqrjP6LLw&utm_campaign=yelp_api_v3&utm_medium=api_v3_business_search&utm_source=Klanz-jboxl2XzqrjP6LLw", "review_count": 465, "categories": [{"alias": "soulfood", "title": "Soul Food"}, {"alias": "seafood", "title": "Seafood"}, {"alias": "southern", "title": "Southern"}], "rating": 4.0, "coordinates": {"latitude": 37.73116, "longitude": -122.39235}, "transactions": ["pickup", "delivery"], "price": "$$", "location": {"address1": "5176 3rd St", "address2": "", "address3": "", "city": "San Francisco", "zip_code": "94124", "country": "US", "state": "CA", "display_address": ["5176 3rd St", "San Francisco, CA 94124"]}, "phone": "+14158221517", "display_phone": "(415) 822-1517", "distance": 5106.901342938982}, {"id": "CAoKFFn2ykBo3ADk6btgfQ", "alias": "guerreros-taqueria-2-pacifica", "name": "Guerrero's Taqueria 2", "image_url": "https://s3-media1.fl.yelpcdn.com/bphoto/KPFohsCp14ieHLVfnA0n5Q/o.jpg", "is_closed": false, "url": "https://www.yelp.com/biz/guerreros-taqueria-2-pacifica?adjust_creative=Klanz-jboxl2XzqrjP6LLw&utm_campaign=yelp_api_v3&utm_medium=api_v3_business_search&utm_source=Klanz-jboxl2XzqrjP6LLw", "review_count": 226, "categories": [{"alias": "mexican", "title": "Mexican"}], "rating": 3.5, "coordinates": {"latitude": 37.6605781503253, "longitude": -122.478420936673}, "transactions": ["delivery"], "price": "$", "location": {"address1": "713 Hickey Blvd", "address2": "", "address3": "", "city": "Pacifica", "zip_code": "94044", "country": "US", "state": "CA", "display_address": ["713 Hickey Blvd", "Pacifica, CA 94044"]}, "phone": "+16507380114", "display_phone": "(650) 738-0114", "distance": 11750.391177629463}, {"id": "lbH9iQJM4wwgPQI2RL1oPg", "alias": "the-tipsy-pig-san-francisco-2", "name": "The Tipsy Pig", "image_url": "https://s3-media2.fl.yelpcdn.com/bphoto/7JsgD5t41JiNomrCcbpvPw/o.jpg", "is_closed": false, "url": "https://www.yelp.com/biz/the-tipsy-pig-san-francisco-2?adjust_creative=Klanz-jboxl2XzqrjP6LLw&utm_campaign=yelp_api_v3&utm_medium=api_v3_business_search&utm_source=Klanz-jboxl2XzqrjP6LLw", "review_count": 1599, "categories": [{"alias": "gastropubs", "title": "Gastropubs"}, {"alias": "bars", "title": "Bars"}, {"alias": "newamerican", "title": "American (New)"}], "rating": 3.5, "coordinates": {"latitude": 37.800265985505, "longitude": -122.44008192485}, "transactions": ["restaurant_reservation", "delivery"], "price": "$$", "location": {"address1": "2231 Chestnut St", "address2": "", "address3": "", "city": "San Francisco", "zip_code": "94123", "country": "US", "state": "CA", "display_address": ["2231 Chestnut St", "San Francisco, CA 94123"]}, "phone": "+14152922300", "display_phone": "(415) 292-2300", "distance": 4389.001030987915}, {"id": "HsPRkASZqt7GUgwcNbAz6A", "alias": "pasilla-mexican-grill-san-francisco", "name": "Pasilla Mexican Grill", "image_url": "https://s3-media2.fl.yelpcdn.com/bphoto/MYcRpsmsGn65QWRtS3JCmg/o.jpg", "is_closed": false, "url": "https://www.yelp.com/biz/pasilla-mexican-grill-san-francisco?adjust_creative=Klanz-jboxl2XzqrjP6LLw&utm_campaign=yelp_api_v3&utm_medium=api_v3_business_search&utm_source=Klanz-jboxl2XzqrjP6LLw", "review_count": 247, "categories": [{"alias": "mexican", "title": "Mexican"}], "rating": 3.5, "coordinates": {"latitude": 37.7915405, "longitude": -122.40437}, "transactions": ["delivery"], "price": "$", "location": {"address1": "359 Kearny St", "address2": "", "address3": "", "city": "San Francisco", "zip_code": "94108", "country": "US", "state": "CA", "display_address": ["359 Kearny St", "San Francisco, CA 94108"]}, "phone": "+14159898077", "display_phone": "(415) 989-8077", "distance": 4422.292433728203}, {"id": "aud84H-NpMx3opWPtLX-vg", "alias": "bourbon-and-branch-san-francisco", "name": "Bourbon & Branch", "image_url": "https://s3-media4.fl.yelpcdn.com/bphoto/3bNt1EquRx99QRhsjzf8Ww/o.jpg", "is_closed": false, "url": "https://www.yelp.com/biz/bourbon-and-branch-san-francisco?adjust_creative=Klanz-jboxl2XzqrjP6LLw&utm_campaign=yelp_api_v3&utm_medium=api_v3_business_search&utm_source=Klanz-jboxl2XzqrjP6LLw", "review_count": 3137, "categories": [{"alias": "speakeasies", "title": "Speakeasies"}, {"alias": "libraries", "title": "Libraries"}], "rating": 4.0, "coordinates": {"latitude": 37.78592, "longitude": -122.41336}, "transactions": ["restaurant_reservation"], "price": "$$$", "location": {"address1": "501 Jones St", "address2": "", "address3": "", "city": "San Francisco", "zip_code": "94102", "country": "US", "state": "CA", "display_address": ["501 Jones St", "San Francisco, CA 94102"]}, "phone": "+14153461735", "display_phone": "(415) 346-1735", "distance": 3452.0066376689438}, {"id": "OQgD-j8BOxUmcjogvMJMTA", "alias": "krispy-krunchy-chicken-san-francisco-2", "name": "Krispy Krunchy Chicken", "image_url": "https://s3-media1.fl.yelpcdn.com/bphoto/VefaFSa8gNYcECY9GxD7UQ/o.jpg", "is_closed": false, "url": "https://www.yelp.com/biz/krispy-krunchy-chicken-san-francisco-2?adjust_creative=Klanz-jboxl2XzqrjP6LLw&utm_campaign=yelp_api_v3&utm_medium=api_v3_business_search&utm_source=Klanz-jboxl2XzqrjP6LLw", "review_count": 84, "categories": [{"alias": "chicken_wings", "title": "Chicken Wings"}, {"alias": "hotdogs", "title": "Fast Food"}, {"alias": "seafood", "title": "Seafood"}], "rating": 4.0, "coordinates": {"latitude": 37.7367491, "longitude": -122.3896779}, "transactions": ["pickup", "delivery"], "price": "$", "location": {"address1": "4517 3rd St", "address2": null, "address3": "", "city": "San Francisco", "zip_code": "94124", "country": "US", "state": "CA", "display_address": ["4517 3rd St", "San Francisco, CA 94124"]}, "phone": "+14158749463", "display_phone": "(415) 874-9463", "distance": 4911.232669456598}, {"id": "T1hCUtLgLORC0jyANfRkNg", "alias": "tacos-el-primo-san-francisco-2", "name": "Tacos El Primo", "image_url": "https://s3-media2.fl.yelpcdn.com/bphoto/hJPlZRG5kMJMrEo6IaqfPA/o.jpg", "is_closed": false, "url": "https://www.yelp.com/biz/tacos-el-primo-san-francisco-2?adjust_creative=Klanz-jboxl2XzqrjP6LLw&utm_campaign=yelp_api_v3&utm_medium=api_v3_business_search&utm_source=Klanz-jboxl2XzqrjP6LLw", "review_count": 58, "categories": [{"alias": "mexican", "title": "Mexican"}, {"alias": "foodtrucks", "title": "Food Trucks"}], "rating": 4.5, "coordinates": {"latitude": 37.7257894088837, "longitude": -122.389801}, "transactions": ["delivery"], "price": "$", "location": {"address1": "1500 Yosemite Ave", "address2": "", "address3": "", "city": "San Francisco", "zip_code": "94124", "country": "US", "state": "CA", "display_address": ["1500 Yosemite Ave", "San Francisco, CA 94124"]}, "phone": "+14158464975", "display_phone": "(415) 846-4975", "distance": 5662.515978320941}, {"id": "f8kY-c4xNHanSwQuI3nYGg", "alias": "thai-idea-vegetarian-san-francisco-2", "name": "Thai Idea Vegetarian", "image_url": "https://s3-media2.fl.yelpcdn.com/bphoto/-bh1JsvurGPZ8kMsEDtxOw/o.jpg", "is_closed": false, "url": "https://www.yelp.com/biz/thai-idea-vegetarian-san-francisco-2?adjust_creative=Klanz-jboxl2XzqrjP6LLw&utm_campaign=yelp_api_v3&utm_medium=api_v3_business_search&utm_source=Klanz-jboxl2XzqrjP6LLw", "review_count": 764, "categories": [{"alias": "thai", "title": "Thai"}, {"alias": "noodles", "title": "Noodles"}, {"alias": "soup", "title": "Soup"}], "rating": 4.5, "coordinates": {"latitude": 37.7834938, "longitude": -122.4190575}, "transactions": ["pickup", "delivery"], "price": "$$", "location": {"address1": "710 Polk St", "address2": "", "address3": "", "city": "San Francisco", "zip_code": "94109", "country": "US", "state": "CA", "display_address": ["710 Polk St", "San Francisco, CA 94109"]}, "phone": "+14154408344", "display_phone": "(415) 440-8344", "distance": 2940.7845152703358}, {"id": "vJNt0Q9PToWxeh5AjRHisQ", "alias": "los-trinos-san-francisco", "name": "Los Trinos", "image_url": "https://s3-media3.fl.yelpcdn.com/bphoto/A98AYDxwoqa7qUAxyEEMKg/o.jpg", "is_closed": false, "url": "https://www.yelp.com/biz/los-trinos-san-francisco?adjust_creative=Klanz-jboxl2XzqrjP6LLw&utm_campaign=yelp_api_v3&utm_medium=api_v3_business_search&utm_source=Klanz-jboxl2XzqrjP6LLw", "review_count": 36, "categories": [{"alias": "salvadoran", "title": "Salvadoran"}], "rating": 4.0, "coordinates": {"latitude": 37.7104566281625, "longitude": -122.448494620621}, "transactions": ["delivery"], "price": "$", "location": {"address1": "5672 Mission St", "address2": "", "address3": "", "city": "San Francisco", "zip_code": "94112", "country": "US", "state": "CA", "display_address": ["5672 Mission St", "San Francisco, CA 94112"]}, "phone": "+14157695093", "display_phone": "(415) 769-5093", "distance": 5708.148644491601}, {"id": "BAHj-GU6zIpwJJJErUBheQ", "alias": "don-chuys-mexi-mercado-san-francisco", "name": "Don Chuys Mexi-Mercado", "image_url": "https://s3-media4.fl.yelpcdn.com/bphoto/T6Dfogi0xgr6BeCATC6iOg/o.jpg", "is_closed": false, "url": "https://www.yelp.com/biz/don-chuys-mexi-mercado-san-francisco?adjust_creative=Klanz-jboxl2XzqrjP6LLw&utm_campaign=yelp_api_v3&utm_medium=api_v3_business_search&utm_source=Klanz-jboxl2XzqrjP6LLw", "review_count": 72, "categories": [{"alias": "delis", "title": "Delis"}, {"alias": "mexican", "title": "Mexican"}, {"alias": "sandwiches", "title": "Sandwiches"}], "rating": 4.5, "coordinates": {"latitude": 37.72383, "longitude": -122.42913}, "transactions": ["pickup", "delivery"], "price": "$", "location": {"address1": "544 Excelsior Ave", "address2": "", "address3": "", "city": "San Francisco", "zip_code": "94112", "country": "US", "state": "CA", "display_address": ["544 Excelsior Ave", "San Francisco, CA 94112"]}, "phone": "+14155858092", "display_phone": "(415) 585-8092", "distance": 4168.345692241887}, {"id": "rxY7canIJeXtICb6lprUcQ", "alias": "blue-plate-san-francisco", "name": "Blue Plate", "image_url": "https://s3-media3.fl.yelpcdn.com/bphoto/Jda9fg8Ymd9ERFVGbrFCOQ/o.jpg", "is_closed": false, "url": "https://www.yelp.com/biz/blue-plate-san-francisco?adjust_creative=Klanz-jboxl2XzqrjP6LLw&utm_campaign=yelp_api_v3&utm_medium=api_v3_business_search&utm_source=Klanz-jboxl2XzqrjP6LLw", "review_count": 1499, "categories": [{"alias": "tradamerican", "title": "American (Traditional)"}, {"alias": "comfortfood", "title": "Comfort Food"}, {"alias": "wine_bars", "title": "Wine Bars"}], "rating": 4.0, "coordinates": {"latitude": 37.74516353746519, "longitude": -122.42034536448386}, "transactions": ["pickup", "restaurant_reservation", "delivery"], "price": "$$$", "location": {"address1": "3218 Mission St", "address2": "", "address3": "", "city": "San Francisco", "zip_code": "94110", "country": "US", "state": "CA", "display_address": ["3218 Mission St", "San Francisco, CA 94110"]}, "phone": "+14152826777", "display_phone": "(415) 282-6777", "distance": 2250.685772426147}, {"id": "baBm-bI_vUV2BmWe-ZdkgA", "alias": "the-detour-san-francisco", "name": "The Detour", "image_url": "https://s3-media1.fl.yelpcdn.com/bphoto/hvDfbqhL9Lr_hO7E1wcGGg/o.jpg", "is_closed": false, "url": "https://www.yelp.com/biz/the-detour-san-francisco?adjust_creative=Klanz-jboxl2XzqrjP6LLw&utm_campaign=yelp_api_v3&utm_medium=api_v3_business_search&utm_source=Klanz-jboxl2XzqrjP6LLw", "review_count": 345, "categories": [{"alias": "arcades", "title": "Arcades"}, {"alias": "cocktailbars", "title": "Cocktail Bars"}, {"alias": "panasian", "title": "Pan Asian"}], "rating": 4.0, "coordinates": {"latitude": 37.7658011, "longitude": -122.4315507}, "transactions": ["pickup", "delivery"], "price": "$$", "location": {"address1": "2200 Market St", "address2": "Ste A", "address3": "", "city": "San Francisco", "zip_code": "94114", "country": "US", "state": "CA", "display_address": ["2200 Market St", "Ste A", "San Francisco, CA 94114"]}, "phone": "+14158725310", "display_phone": "(415) 872-5310", "distance": 694.5037680611024}, {"id": "SPCsV7naOwkZFQGsuArPhg", "alias": "chipotle-mexican-grill-san-francisco-5", "name": "Chipotle Mexican Grill", "image_url": "https://s3-media3.fl.yelpcdn.com/bphoto/GM7HukHPWr-5jkksCSUURQ/o.jpg", "is_closed": false, "url": "https://www.yelp.com/biz/chipotle-mexican-grill-san-francisco-5?adjust_creative=Klanz-jboxl2XzqrjP6LLw&utm_campaign=yelp_api_v3&utm_medium=api_v3_business_search&utm_source=Klanz-jboxl2XzqrjP6LLw", "review_count": 206, "categories": [{"alias": "hotdogs", "title": "Fast Food"}, {"alias": "mexican", "title": "Mexican"}], "rating": 2.0, "coordinates": {"latitude": 37.73304, "longitude": -122.48972}, "transactions": ["pickup", "delivery"], "price": "$", "location": {"address1": "1523 Sloat Blvd", "address2": "", "address3": "", "city": "San Francisco", "zip_code": "94132", "country": "US", "state": "CA", "display_address": ["1523 Sloat Blvd", "San Francisco, CA 94132"]}, "phone": "+14155922187", "display_phone": "(415) 592-2187", "distance": 5674.243815213062}, {"id": "lX2ms5w-vj-NpvlVZF0XEA", "alias": "estrelittas-snacks-san-francisco", "name": "Estrelitta's Snacks", "image_url": "https://s3-media1.fl.yelpcdn.com/bphoto/cMmyvO7k5DaXQ6OQANasSg/o.jpg", "is_closed": false, "url": "https://www.yelp.com/biz/estrelittas-snacks-san-francisco?adjust_creative=Klanz-jboxl2XzqrjP6LLw&utm_campaign=yelp_api_v3&utm_medium=api_v3_business_search&utm_source=Klanz-jboxl2XzqrjP6LLw", "review_count": 45, "categories": [{"alias": "streetvendors", "title": "Street Vendors"}, {"alias": "catering", "title": "Caterers"}], "rating": 4.5, "coordinates": {"latitude": 37.7795374280353, "longitude": -122.41387937218}, "transactions": [], "price": "$", "location": {"address1": "100 Alemany Blvd", "address2": "", "address3": "", "city": "San Francisco", "zip_code": "94102", "country": "US", "state": "CA", "display_address": ["100 Alemany Blvd", "San Francisco, CA 94102"]}, "phone": "+14152406305", "display_phone": "(415) 240-6305", "distance": 2868.7707740005344}, {"id": "t5OypGYSwYIXKjkEQx3BNw", "alias": "hogwash-san-francisco", "name": "Hogwash", "image_url": "https://s3-media2.fl.yelpcdn.com/bphoto/urXzb_wp_G-0zSxmK4nNIQ/o.jpg", "is_closed": false, "url": "https://www.yelp.com/biz/hogwash-san-francisco?adjust_creative=Klanz-jboxl2XzqrjP6LLw&utm_campaign=yelp_api_v3&utm_medium=api_v3_business_search&utm_source=Klanz-jboxl2XzqrjP6LLw", "review_count": 1048, "categories": [{"alias": "gastropubs", "title": "Gastropubs"}, {"alias": "beerbar", "title": "Beer Bar"}], "rating": 4.5, "coordinates": {"latitude": 37.7891754, "longitude": -122.4099292}, "transactions": ["delivery"], "price": "$$", "location": {"address1": "582 Sutter St", "address2": "", "address3": "", "city": "San Francisco", "zip_code": "94102", "country": "US", "state": "CA", "display_address": ["582 Sutter St", "San Francisco, CA 94102"]}, "phone": "+14153615500", "display_phone": "(415) 361-5500", "distance": 3913.7879792935105}, {"id": "loo6obEjNPGZwOJfhKTKNQ", "alias": "tradr-sam-san-francisco-2", "name": "Trad'r Sam", "image_url": "https://s3-media1.fl.yelpcdn.com/bphoto/9Y-DfxJCEo4wmEgZgGT3LQ/o.jpg", "is_closed": false, "url": "https://www.yelp.com/biz/tradr-sam-san-francisco-2?adjust_creative=Klanz-jboxl2XzqrjP6LLw&utm_campaign=yelp_api_v3&utm_medium=api_v3_business_search&utm_source=Klanz-jboxl2XzqrjP6LLw", "review_count": 1000, "categories": [{"alias": "divebars", "title": "Dive Bars"}, {"alias": "pubs", "title": "Pubs"}, {"alias": "tikibars", "title": "Tiki Bars"}], "rating": 3.5, "coordinates": {"latitude": 37.7803573608398, "longitude": -122.485649108887}, "transactions": [], "price": "$", "location": {"address1": "6150 Geary Blvd", "address2": "", "address3": "", "city": "San Francisco", "zip_code": "94121", "country": "US", "state": "CA", "display_address": ["6150 Geary Blvd", "San Francisco, CA 94121"]}, "phone": "+14152210773", "display_phone": "(415) 221-0773", "distance": 4837.395214521871}, {"id": "2IgUNNcCoUcmhiv5ei-Vlw", "alias": "plain-jane-san-francisco", "name": "Plain Jane", "image_url": "https://s3-media2.fl.yelpcdn.com/bphoto/mtdU1RaI-GI4CukN97oSng/o.jpg", "is_closed": false, "url": "https://www.yelp.com/biz/plain-jane-san-francisco?adjust_creative=Klanz-jboxl2XzqrjP6LLw&utm_campaign=yelp_api_v3&utm_medium=api_v3_business_search&utm_source=Klanz-jboxl2XzqrjP6LLw", "review_count": 395, "categories": [{"alias": "breakfast_brunch", "title": "Breakfast & Brunch"}], "rating": 4.5, "coordinates": {"latitude": 37.75497, "longitude": -122.4235}, "transactions": ["pickup", "delivery"], "price": "$$", "location": {"address1": "1000 Guerrero St", "address2": null, "address3": "", "city": "San Francisco", "zip_code": "94110", "country": "US", "state": "CA", "display_address": ["1000 Guerrero St", "San Francisco, CA 94110"]}, "phone": "+14156545270", "display_phone": "(415) 654-5270", "distance": 1307.2455335964921}, {"id": "iEZxjF6d0Up9Baj0_UHaRw", "alias": "casa-revolucion-taqueria-alameda-2", "name": "Casa Revolucion Taqueria", "image_url": "https://s3-media2.fl.yelpcdn.com/bphoto/NSETl6cLCamrBI6GWQf3sg/o.jpg", "is_closed": false, "url": "https://www.yelp.com/biz/casa-revolucion-taqueria-alameda-2?adjust_creative=Klanz-jboxl2XzqrjP6LLw&utm_campaign=yelp_api_v3&utm_medium=api_v3_business_search&utm_source=Klanz-jboxl2XzqrjP6LLw", "review_count": 22, "categories": [{"alias": "mexican", "title": "Mexican"}, {"alias": "buffets", "title": "Buffets"}, {"alias": "seafood", "title": "Seafood"}], "rating": 5.0, "coordinates": {"latitude": 37.76382, "longitude": -122.23936}, "transactions": [], "location": {"address1": "2522 Santa Clara Ave", "address2": "", "address3": null, "city": "Alameda", "zip_code": "94501", "country": "US", "state": "CA", "display_address": ["2522 Santa Clara Ave", "Alameda, CA 94501"]}, "phone": "+15102178959", "display_phone": "(510) 217-8959", "distance": 17326.94223618615}, {"id": "PGJbyscmFcjFwQdrSDkoJg", "alias": "tacos-sinaloa-oakland-8", "name": "Tacos Sinaloa", "image_url": "https://s3-media3.fl.yelpcdn.com/bphoto/fwlUogj0kYr1vczyVjLeow/o.jpg", "is_closed": false, "url": "https://www.yelp.com/biz/tacos-sinaloa-oakland-8?adjust_creative=Klanz-jboxl2XzqrjP6LLw&utm_campaign=yelp_api_v3&utm_medium=api_v3_business_search&utm_source=Klanz-jboxl2XzqrjP6LLw", "review_count": 1106, "categories": [{"alias": "foodtrucks", "title": "Food Trucks"}, {"alias": "tacos", "title": "Tacos"}], "rating": 4.5, "coordinates": {"latitude": 37.78496, "longitude": -122.2379}, "transactions": ["delivery"], "price": "$", "location": {"address1": "2138 International Blvd", "address2": "", "address3": "", "city": "Oakland", "zip_code": "94606", "country": "US", "state": "CA", "display_address": ["2138 International Blvd", "Oakland, CA 94606"]}, "phone": "+15105351206", "display_phone": "(510) 535-1206", "distance": 17649.400248113772}, {"id": "iFZuhhzJCfq5qQBOV5LWKw", "alias": "mos-grill-san-francisco", "name": "Mo's Grill", "image_url": "https://s3-media2.fl.yelpcdn.com/bphoto/ros7i_5Tf_SEZRc4dGLWVg/o.jpg", "is_closed": false, "url": "https://www.yelp.com/biz/mos-grill-san-francisco?adjust_creative=Klanz-jboxl2XzqrjP6LLw&utm_campaign=yelp_api_v3&utm_medium=api_v3_business_search&utm_source=Klanz-jboxl2XzqrjP6LLw", "review_count": 883, "categories": [{"alias": "burgers", "title": "Burgers"}, {"alias": "breakfast_brunch", "title": "Breakfast & Brunch"}, {"alias": "sandwiches", "title": "Sandwiches"}], "rating": 4.0, "coordinates": {"latitude": 37.79909, "longitude": -122.40704}, "transactions": ["delivery"], "price": "$$", "location": {"address1": "1322 Grant Ave", "address2": "", "address3": "", "city": "San Francisco", "zip_code": "94133", "country": "US", "state": "CA", "display_address": ["1322 Grant Ave", "San Francisco, CA 94133"]}, "phone": "+14157883779", "display_phone": "(415) 788-3779", "distance": 4978.650442382673}, {"id": "Cp_rUceIEyUzIe4DkrxDSA", "alias": "zazang-korean-noodles-san-francisco", "name": "Zazang Korean Noodles", "image_url": "https://s3-media1.fl.yelpcdn.com/bphoto/KFTieLgFq4tgSx9-fpugGQ/o.jpg", "is_closed": false, "url": "https://www.yelp.com/biz/zazang-korean-noodles-san-francisco?adjust_creative=Klanz-jboxl2XzqrjP6LLw&utm_campaign=yelp_api_v3&utm_medium=api_v3_business_search&utm_source=Klanz-jboxl2XzqrjP6LLw", "review_count": 537, "categories": [{"alias": "korean", "title": "Korean"}, {"alias": "noodles", "title": "Noodles"}, {"alias": "soup", "title": "Soup"}], "rating": 3.5, "coordinates": {"latitude": 37.7831089496613, "longitude": -122.441855818033}, "transactions": ["pickup", "delivery"], "price": "$$", "location": {"address1": "2340 Geary Blvd", "address2": "", "address3": "", "city": "San Francisco", "zip_code": "94115", "country": "US", "state": "CA", "display_address": ["2340 Geary Blvd", "San Francisco, CA 94115"]}, "phone": "+14154470655", "display_phone": "(415) 447-0655", "distance": 2525.3951645053235}, {"id": "1V6Yo8yKVrBXSesA0a7txg", "alias": "publico-urban-taqueria-san-francisco-3", "name": "Publico Urban Taqueria", "image_url": "https://s3-media1.fl.yelpcdn.com/bphoto/c0CiUYeLQa5-VwT1OLaZcg/o.jpg", "is_closed": false, "url": "https://www.yelp.com/biz/publico-urban-taqueria-san-francisco-3?adjust_creative=Klanz-jboxl2XzqrjP6LLw&utm_campaign=yelp_api_v3&utm_medium=api_v3_business_search&utm_source=Klanz-jboxl2XzqrjP6LLw", "review_count": 340, "categories": [{"alias": "tacos", "title": "Tacos"}], "rating": 3.0, "coordinates": {"latitude": 37.769039, "longitude": -122.390354}, "transactions": ["pickup", "delivery"], "price": "$$", "location": {"address1": "550A Gene Friend Way", "address2": "", "address3": "", "city": "San Francisco", "zip_code": "94158", "country": "US", "state": "CA", "display_address": ["550A Gene Friend Way", "San Francisco, CA 94158"]}, "phone": "+14159348220", "display_phone": "(415) 934-8220", "distance": 4151.574760319754}, {"id": "GtKxIGU6LJu14UErdNulmQ", "alias": "original-joes-san-francisco-3", "name": "Original Joe's", "image_url": "https://s3-media2.fl.yelpcdn.com/bphoto/4quugw5FJrEENowfhzQxEg/o.jpg", "is_closed": false, "url": "https://www.yelp.com/biz/original-joes-san-francisco-3?adjust_creative=Klanz-jboxl2XzqrjP6LLw&utm_campaign=yelp_api_v3&utm_medium=api_v3_business_search&utm_source=Klanz-jboxl2XzqrjP6LLw", "review_count": 1687, "categories": [{"alias": "italian", "title": "Italian"}, {"alias": "steak", "title": "Steakhouses"}, {"alias": "breakfast_brunch", "title": "Breakfast & Brunch"}], "rating": 4.0, "coordinates": {"latitude": 37.80021, "longitude": -122.40945}, "transactions": ["pickup", "delivery"], "price": "$$", "location": {"address1": "601 Union St", "address2": "", "address3": "", "city": "San Francisco", "zip_code": "94133", "country": "US", "state": "CA", "display_address": ["601 Union St", "San Francisco, CA 94133"]}, "phone": "+14157754877", "display_phone": "(415) 775-4877", "distance": 4981.950187400634}, {"id": "TcbKvh-e1lxywJuN6in5JQ", "alias": "farm-table-san-francisco", "name": "Farm : Table", "image_url": "https://s3-media4.fl.yelpcdn.com/bphoto/NL6MH-LTNy5mWVv5CppdKg/o.jpg", "is_closed": false, "url": "https://www.yelp.com/biz/farm-table-san-francisco?adjust_creative=Klanz-jboxl2XzqrjP6LLw&utm_campaign=yelp_api_v3&utm_medium=api_v3_business_search&utm_source=Klanz-jboxl2XzqrjP6LLw", "review_count": 1808, "categories": [{"alias": "coffee", "title": "Coffee & Tea"}, {"alias": "breakfast_brunch", "title": "Breakfast & Brunch"}], "rating": 4.0, "coordinates": {"latitude": 37.78768, "longitude": -122.414339}, "transactions": ["delivery"], "price": "$$", "location": {"address1": "754 Post St", "address2": "", "address3": "", "city": "San Francisco", "zip_code": "94109", "country": "US", "state": "CA", "display_address": ["754 Post St", "San Francisco, CA 94109"]}, "phone": "+14153005652", "display_phone": "(415) 300-5652", "distance": 3564.1157922186403}, {"id": "ABSyNpMRatNSGmW7N-kWzw", "alias": "el-azteca-taqueria-san-francisco", "name": "El Azteca Taqueria", "image_url": "https://s3-media2.fl.yelpcdn.com/bphoto/tjKMCzkmr6V8t4cdRbZqDw/o.jpg", "is_closed": false, "url": "https://www.yelp.com/biz/el-azteca-taqueria-san-francisco?adjust_creative=Klanz-jboxl2XzqrjP6LLw&utm_campaign=yelp_api_v3&utm_medium=api_v3_business_search&utm_source=Klanz-jboxl2XzqrjP6LLw", "review_count": 97, "categories": [{"alias": "mexican", "title": "Mexican"}, {"alias": "catering", "title": "Caterers"}], "rating": 3.5, "coordinates": {"latitude": 37.729317, "longitude": -122.392731}, "transactions": ["pickup", "delivery"], "price": "$$", "location": {"address1": "5298 3rd St", "address2": "", "address3": "", "city": "San Francisco", "zip_code": "94124", "country": "US", "state": "CA", "display_address": ["5298 3rd St", "San Francisco, CA 94124"]}, "phone": "+14158221460", "display_phone": "(415) 822-1460", "distance": 5206.489997953039}, {"id": "edpyVEBhIUKGy_VlwTBwig", "alias": "lolas-chicken-shack-alameda-2", "name": "Lola's Chicken Shack", "image_url": "https://s3-media2.fl.yelpcdn.com/bphoto/LtgmyxVbJqZ5Zk51_f2c6w/o.jpg", "is_closed": false, "url": "https://www.yelp.com/biz/lolas-chicken-shack-alameda-2?adjust_creative=Klanz-jboxl2XzqrjP6LLw&utm_campaign=yelp_api_v3&utm_medium=api_v3_business_search&utm_source=Klanz-jboxl2XzqrjP6LLw", "review_count": 650, "categories": [{"alias": "sandwiches", "title": "Sandwiches"}, {"alias": "salad", "title": "Salad"}, {"alias": "chickenshop", "title": "Chicken Shop"}], "rating": 4.0, "coordinates": {"latitude": 37.7647976906781, "longitude": -122.242448252917}, "transactions": ["pickup", "delivery"], "price": "$", "location": {"address1": "1417 Park St", "address2": "", "address3": "", "city": "Alameda", "zip_code": "94501", "country": "US", "state": "CA", "display_address": ["1417 Park St", "Alameda, CA 94501"]}, "phone": "+15105214488", "display_phone": "(510) 521-4488", "distance": 17059.036453879075}, {"id": "OFjKTdryEBmF4s_cPwk7Rg", "alias": "las-caba\u00f1as-mexican-grill-and-taqueria-berkeley", "name": "Las Caba\u00f1as Mexican Grill & Taqueria", "image_url": "https://s3-media4.fl.yelpcdn.com/bphoto/tokaSpiPIgbMg-uvJtxWQw/o.jpg", "is_closed": false, "url": "https://www.yelp.com/biz/las-caba%C3%B1as-mexican-grill-and-taqueria-berkeley?adjust_creative=Klanz-jboxl2XzqrjP6LLw&utm_campaign=yelp_api_v3&utm_medium=api_v3_business_search&utm_source=Klanz-jboxl2XzqrjP6LLw", "review_count": 148, "categories": [{"alias": "tex-mex", "title": "Tex-Mex"}, {"alias": "mexican", "title": "Mexican"}], "rating": 4.0, "coordinates": {"latitude": 37.87272, "longitude": -122.27341}, "transactions": ["pickup", "delivery"], "price": "$$", "location": {"address1": "1916 Martin Luther King Jr Way", "address2": "Berkeley Plaza", "address3": "", "city": "Berkeley", "zip_code": "94704", "country": "US", "state": "CA", "display_address": ["1916 Martin Luther King Jr Way", "Berkeley Plaza", "Berkeley, CA 94704"]}, "phone": "+15108332507", "display_phone": "(510) 833-2507", "distance": 18975.55312447261}, {"id": "eOCVoXsOEnbr9c89RD0UEQ", "alias": "pork-store-cafe-san-francisco", "name": "Pork Store Cafe", "image_url": "https://s3-media1.fl.yelpcdn.com/bphoto/nnAWYrsb8Yh99AuKvjcrEg/o.jpg", "is_closed": false, "url": "https://www.yelp.com/biz/pork-store-cafe-san-francisco?adjust_creative=Klanz-jboxl2XzqrjP6LLw&utm_campaign=yelp_api_v3&utm_medium=api_v3_business_search&utm_source=Klanz-jboxl2XzqrjP6LLw", "review_count": 1403, "categories": [{"alias": "breakfast_brunch", "title": "Breakfast & Brunch"}, {"alias": "coffee", "title": "Coffee & Tea"}, {"alias": "newamerican", "title": "American (New)"}], "rating": 4.0, "coordinates": {"latitude": 37.77000159022243, "longitude": -122.44625344061389}, "transactions": ["pickup", "delivery"], "price": "$$", "location": {"address1": "1451 Haight St", "address2": "", "address3": "", "city": "San Francisco", "zip_code": "94117", "country": "US", "state": "CA", "display_address": ["1451 Haight St", "San Francisco, CA 94117"]}, "phone": "+14158646981", "display_phone": "(415) 864-6981", "distance": 1329.4424848904757}], "total": 1700, "region": {"center": {"longitude": -122.43644714355469, "latitude": 37.76089938976322}}}