{"businesses": [{"id": "KJ60hbQU50Q_TJm9kJezuQ", "alias": "la-torta-gorda-san-francisco", "name": "La Torta Gorda", "image_url": "https://s3-media2.fl.yelpcdn.com/bphoto/aU8dhwQFWwAbaW9XJDLEuQ/o.jpg", "is_closed": false, "url": "https://www.yelp.com/biz/la-torta-gorda-san-francisco?adjust_creative=Klanz-jboxl2XzqrjP6LLw&utm_campaign=yelp_api_v3&utm_medium=api_v3_business_search&utm_source=Klanz-jboxl2XzqrjP6LLw", "review_count": 359, "categories": [{"alias": "mexican", "title": "Mexican"}], "rating": 4.0, "coordinates": {"latitude": 37.752683, "longitude": -122.408717}, "transactions": ["delivery", "pickup"], "price": "$$", "location": {"address1": "2833 24th St", "address2": null, "address3": "", "city": "San Francisco", "zip_code": "94110", "country": "US", "state": "CA", "display_address": ["2833 24th St", "San Francisco, CA 94110"]}, "phone": "+14156429600", "display_phone": "(415) 642-9600", "distance": 2603.4012824205397}, {"id": "D_yAQ4tHlWp2CJSqFCeW_w", "alias": "mama-oakland-oakland", "name": "MAMA Oakland", "image_url": "https://s3-media4.fl.yelpcdn.com/bphoto/gEjumV4DfC3sSHl2d1pDPA/o.jpg", "is_closed": false, "url": "https://www.yelp.com/biz/mama-oakland-oakland?adjust_creative=Klanz-jboxl2XzqrjP6LLw&utm_campaign=yelp_api_v3&utm_medium=api_v3_business_search&utm_source=Klanz-jboxl2XzqrjP6LLw", "review_count": 182, "categories": [{"alias": "italian", "title": "Italian"}, {"alias": "wine_bars", "title": "Wine Bars"}], "rating": 4.5, "coordinates": {"latitude": 37.809145, "longitude": -122.254502}, "transactions": [], "price": "$$$", "location": {"address1": "388 Grand Ave", "address2": null, "address3": "", "city": "Oakland", "zip_code": "94610", "country": "US", "state": "CA", "display_address": ["388 Grand Ave", "Oakland, CA 94610"]}, "phone": "+15109746372", "display_phone": "(510) 974-6372", "distance": 16862.261218804655}, {"id": "Um5hFNZEbyzMdkE9jOt3yA", "alias": "los-cuates-taqueria-south-san-francisco", "name": "Los Cuates Taqueria", "image_url": "https://s3-media1.fl.yelpcdn.com/bphoto/qZt25vUjxqgw2iYknQHXmw/o.jpg", "is_closed": false, "url": "https://www.yelp.com/biz/los-cuates-taqueria-south-san-francisco?adjust_creative=Klanz-jboxl2XzqrjP6LLw&utm_campaign=yelp_api_v3&utm_medium=api_v3_business_search&utm_source=Klanz-jboxl2XzqrjP6LLw", "review_count": 225, "categories": [{"alias": "mexican", "title": "Mexican"}], "rating": 4.0, "coordinates": {"latitude": 37.6421199, "longitude": -122.426565}, "transactions": ["delivery"], "price": "$$", "location": {"address1": "140 Hazelwood Dr", "address2": "", "address3": "", "city": "South San Francisco", "zip_code": "94080", "country": "US", "state": "CA", "display_address": ["140 Hazelwood Dr", "South San Francisco, CA 94080"]}, "phone": "+16507458203", "display_phone": "(650) 745-8203", "distance": 13232.500469242988}, {"id": "iyo3pjuRb7mTpaDwXnAzuQ", "alias": "square-pie-guys-san-francisco", "name": "Square Pie Guys", "image_url": "https://s3-media2.fl.yelpcdn.com/bphoto/usNRsp7QJryycWl3n5GZgQ/o.jpg", "is_closed": false, "url": "https://www.yelp.com/biz/square-pie-guys-san-francisco?adjust_creative=Klanz-jboxl2XzqrjP6LLw&utm_campaign=yelp_api_v3&utm_medium=api_v3_business_search&utm_source=Klanz-jboxl2XzqrjP6LLw", "review_count": 543, "categories": [{"alias": "pizza", "title": "Pizza"}, {"alias": "chicken_wings", "title": "Chicken Wings"}, {"alias": "salad", "title": "Salad"}], "rating": 4.5, "coordinates": {"latitude": 37.779479, "longitude": -122.4103136}, "transactions": ["delivery", "pickup"], "price": "$$", "location": {"address1": "1077 Mission St", "address2": null, "address3": "", "city": "San Francisco", "zip_code": "94103", "country": "US", "state": "CA", "display_address": ["1077 Mission St", "San Francisco, CA 94103"]}, "phone": "+14158729290", "display_phone": "(415) 872-9290", "distance": 3089.435041531639}, {"id": "PqeHQAMWUWzyL8qsmHltoQ", "alias": "bartlett-hall-san-francisco", "name": "Bartlett Hall", "image_url": "https://s3-media1.fl.yelpcdn.com/bphoto/Je6sl5pFUdkbqNkgjw3dBQ/o.jpg", "is_closed": false, "url": "https://www.yelp.com/biz/bartlett-hall-san-francisco?adjust_creative=Klanz-jboxl2XzqrjP6LLw&utm_campaign=yelp_api_v3&utm_medium=api_v3_business_search&utm_source=Klanz-jboxl2XzqrjP6LLw", "review_count": 895, "categories": [{"alias": "breweries", "title": "Breweries"}, {"alias": "sportsbars", "title": "Sports Bars"}, {"alias": "gastropubs", "title": "Gastropubs"}], "rating": 3.5, "coordinates": {"latitude": 37.7863779183055, "longitude": -122.408723160625}, "transactions": ["delivery", "pickup"], "price": "$$", "location": {"address1": "242 O'Farrell St", "address2": "", "address3": "", "city": "San Francisco", "zip_code": "94102", "country": "US", "state": "CA", "display_address": ["242 O'Farrell St", "San Francisco, CA 94102"]}, "phone": "+14154334332", "display_phone": "(415) 433-4332", "distance": 3736.8426197954504}, {"id": "0bDxHlnb-411Er3w5quBYg", "alias": "sessions-at-the-presidio-san-francisco", "name": "Sessions at the Presidio", "image_url": "https://s3-media2.fl.yelpcdn.com/bphoto/r1rhMU6f7PoyAX6fOXeapg/o.jpg", "is_closed": false, "url": "https://www.yelp.com/biz/sessions-at-the-presidio-san-francisco?adjust_creative=Klanz-jboxl2XzqrjP6LLw&utm_campaign=yelp_api_v3&utm_medium=api_v3_business_search&utm_source=Klanz-jboxl2XzqrjP6LLw", "review_count": 614, "categories": [{"alias": "newamerican", "title": "American (New)"}, {"alias": "beer_and_wine", "title": "Beer, Wine & Spirits"}, {"alias": "cocktailbars", "title": "Cocktail Bars"}], "rating": 3.5, "coordinates": {"latitude": 37.799238, "longitude": -122.448184}, "transactions": ["delivery"], "price": "$$", "location": {"address1": "1 Letterman Dr", "address2": "Bldg D", "address3": "", "city": "San Francisco", "zip_code": "94129", "country": "US", "state": "CA", "display_address": ["1 Letterman Dr", "Bldg D", "San Francisco, CA 94129"]}, "phone": "+14156559413", "display_phone": "(415) 655-9413", "distance": 4386.069572043942}, {"id": "ENOSkB2B8NZNxOtNFmFAZg", "alias": "benders-bar-and-grill-san-francisco", "name": "Bender's Bar and Grill", "image_url": "https://s3-media2.fl.yelpcdn.com/bphoto/CbYJFRmvDJnzJCrO20hLIw/o.jpg", "is_closed": false, "url": "https://www.yelp.com/biz/benders-bar-and-grill-san-francisco?adjust_creative=Klanz-jboxl2XzqrjP6LLw&utm_campaign=yelp_api_v3&utm_medium=api_v3_business_search&utm_source=Klanz-jboxl2XzqrjP6LLw", "review_count": 446, "categories": [{"alias": "divebars", "title": "Dive Bars"}, {"alias": "tradamerican", "title": "American (Traditional)"}], "rating": 4.0, "coordinates": {"latitude": 37.7601948, "longitude": -122.4171804}, "transactions": ["delivery"], "price": "$", "location": {"address1": "806 S Van Ness Ave", "address2": "", "address3": "", "city": "San Francisco", "zip_code": "94110", "country": "US", "state": "CA", "display_address": ["806 S Van Ness Ave", "San Francisco, CA 94110"]}, "phone": "+14158241800", "display_phone": "(415) 824-1800", "distance": 1695.512736262542}, {"id": "Irzn8SThab39vigvKXjMzA", "alias": "restaurante-familiar-san-francisco", "name": "Restaurante Familiar", "image_url": "https://s3-media4.fl.yelpcdn.com/bphoto/yw9aofZD3b4iweP6OyRDpg/o.jpg", "is_closed": false, "url": "https://www.yelp.com/biz/restaurante-familiar-san-francisco?adjust_creative=Klanz-jboxl2XzqrjP6LLw&utm_campaign=yelp_api_v3&utm_medium=api_v3_business_search&utm_source=Klanz-jboxl2XzqrjP6LLw", "review_count": 46, "categories": [{"alias": "mexican", "title": "Mexican"}, {"alias": "salvadoran", "title": "Salvadoran"}], "rating": 4.0, "coordinates": {"latitude": 37.72624, "longitude": -122.43327}, "transactions": ["delivery"], "price": "$", "location": {"address1": "4499 Mission St", "address2": null, "address3": "", "city": "San Francisco", "zip_code": "94112", "country": "US", "state": "CA", "display_address": ["4499 Mission St", "San Francisco, CA 94112"]}, "phone": "+14153346100", "display_phone": "(415) 334-6100", "distance": 3865.716052711645}, {"id": "Tyn-UqOTpVHtZAgrB0lWyQ", "alias": "town-hall-san-francisco", "name": "Town Hall", "image_url": "https://s3-media4.fl.yelpcdn.com/bphoto/lPAdkL4OPAmpKrmKI8SOEw/o.jpg", "is_closed": false, "url": "https://www.yelp.com/biz/town-hall-san-francisco?adjust_creative=Klanz-jboxl2XzqrjP6LLw&utm_campaign=yelp_api_v3&utm_medium=api_v3_business_search&utm_source=Klanz-jboxl2XzqrjP6LLw", "review_count": 1984, "categories": [{"alias": "newamerican", "title": "American (New)"}, {"alias": "wine_bars", "title": "Wine Bars"}, {"alias": "cocktailbars", "title": "Cocktail Bars"}], "rating": 3.5, "coordinates": {"latitude": 37.7895383, "longitude": -122.3949794}, "transactions": ["delivery", "pickup"], "price": "$$$", "location": {"address1": "342 Howard St", "address2": "", "address3": "", "city": "San Francisco", "zip_code": "94105", "country": "US", "state": "CA", "display_address": ["342 Howard St", "San Francisco, CA 94105"]}, "phone": "+14159083900", "display_phone": "(415) 908-3900", "distance": 4831.567266624844}, {"id": "2HY8Z7uRLv6bQAjt-71Mkw", "alias": "caf\u00e9-de-olla-san-francisco-2", "name": "Caf\u00e9 de Olla", "image_url": "https://s3-media2.fl.yelpcdn.com/bphoto/kMxWzSP7vMh1LZsFPpe2EQ/o.jpg", "is_closed": false, "url": "https://www.yelp.com/biz/caf%C3%A9-de-olla-san-francisco-2?adjust_creative=Klanz-jboxl2XzqrjP6LLw&utm_campaign=yelp_api_v3&utm_medium=api_v3_business_search&utm_source=Klanz-jboxl2XzqrjP6LLw", "review_count": 28, "categories": [{"alias": "coffee", "title": "Coffee & Tea"}, {"alias": "mexican", "title": "Mexican"}], "rating": 5.0, "coordinates": {"latitude": 37.76008, "longitude": -122.4188}, "transactions": [], "location": {"address1": "2301 Mission St", "address2": null, "address3": "", "city": "San Francisco", "zip_code": "94110", "country": "US", "state": "CA", "display_address": ["2301 Mission St", "San Francisco, CA 94110"]}, "phone": "+14154947882", "display_phone": "(415) 494-7882", "distance": 1552.9891392136008}, {"id": "kg_q7nIW0SDch0o5TaxdQw", "alias": "la-torta-sabrosa-south-san-francisco-2", "name": "La Torta Sabrosa", "image_url": "https://s3-media1.fl.yelpcdn.com/bphoto/KWMa18eclb4_eVTJS5im2w/o.jpg", "is_closed": false, "url": "https://www.yelp.com/biz/la-torta-sabrosa-south-san-francisco-2?adjust_creative=Klanz-jboxl2XzqrjP6LLw&utm_campaign=yelp_api_v3&utm_medium=api_v3_business_search&utm_source=Klanz-jboxl2XzqrjP6LLw", "review_count": 127, "categories": [{"alias": "mexican", "title": "Mexican"}, {"alias": "sandwiches", "title": "Sandwiches"}], "rating": 4.0, "coordinates": {"latitude": 37.6559372, "longitude": -122.4140849}, "transactions": ["pickup"], "price": "$", "location": {"address1": "439 Grand Ave", "address2": "", "address3": "", "city": "South San Francisco", "zip_code": "94080", "country": "US", "state": "CA", "display_address": ["439 Grand Ave", "South San Francisco, CA 94080"]}, "phone": "+16509522790", "display_phone": "(650) 952-2790", "distance": 11835.876485288505}, {"id": "F3LKV_cPyRBG_p67ph_6vw", "alias": "blondies-bar-san-francisco-4", "name": "Blondie's Bar", "image_url": "https://s3-media3.fl.yelpcdn.com/bphoto/_cDYS5IBljy0b8Y4wus2ug/o.jpg", "is_closed": false, "url": "https://www.yelp.com/biz/blondies-bar-san-francisco-4?adjust_creative=Klanz-jboxl2XzqrjP6LLw&utm_campaign=yelp_api_v3&utm_medium=api_v3_business_search&utm_source=Klanz-jboxl2XzqrjP6LLw", "review_count": 724, "categories": [{"alias": "bars", "title": "Bars"}], "rating": 3.0, "coordinates": {"latitude": 37.76421520220485, "longitude": -122.42212226063955}, "transactions": [], "price": "$$", "location": {"address1": "540 Valencia St", "address2": "", "address3": "", "city": "San Francisco", "zip_code": "94110", "country": "US", "state": "CA", "display_address": ["540 Valencia St", "San Francisco, CA 94110"]}, "phone": "+14158642419", "display_phone": "(415) 864-2419", "distance": 1312.1056352944765}, {"id": "cxsx1IG_FKKqORs1f9tfFQ", "alias": "el-pollo-supremo-san-francisco-5", "name": "El Pollo Supremo", "image_url": "https://s3-media1.fl.yelpcdn.com/bphoto/CZpwO_jEfGwOaMZo1KsgWA/o.jpg", "is_closed": false, "url": "https://www.yelp.com/biz/el-pollo-supremo-san-francisco-5?adjust_creative=Klanz-jboxl2XzqrjP6LLw&utm_campaign=yelp_api_v3&utm_medium=api_v3_business_search&utm_source=Klanz-jboxl2XzqrjP6LLw", "review_count": 287, "categories": [{"alias": "mexican", "title": "Mexican"}, {"alias": "cuban", "title": "Cuban"}, {"alias": "sandwiches", "title": "Sandwiches"}], "rating": 4.0, "coordinates": {"latitude": 37.71561, "longitude": -122.44202}, "transactions": ["delivery", "pickup"], "price": "$", "location": {"address1": "5210 Mission St", "address2": "", "address3": "", "city": "San Francisco", "zip_code": "94112", "country": "US", "state": "CA", "display_address": ["5210 Mission St", "San Francisco, CA 94112"]}, "phone": "+14153375750", "display_phone": "(415) 337-5750", "distance": 5063.46142596096}, {"id": "5q4iWQKGIcFl6KfyWEI7-A", "alias": "los-planes-de-renderos-pupuseria-san-francisco", "name": "Los Planes De Renderos Pupuseria", "image_url": "https://s3-media2.fl.yelpcdn.com/bphoto/w2bRcNZFzGhozTOJNRdRLg/o.jpg", "is_closed": false, "url": "https://www.yelp.com/biz/los-planes-de-renderos-pupuseria-san-francisco?adjust_creative=Klanz-jboxl2XzqrjP6LLw&utm_campaign=yelp_api_v3&utm_medium=api_v3_business_search&utm_source=Klanz-jboxl2XzqrjP6LLw", "review_count": 140, "categories": [{"alias": "salvadoran", "title": "Salvadoran"}], "rating": 4.0, "coordinates": {"latitude": 37.722923, "longitude": -122.4358561}, "transactions": ["delivery"], "price": "$", "location": {"address1": "12 Persia Ave", "address2": "", "address3": "", "city": "San Francisco", "zip_code": "94112", "country": "US", "state": "CA", "display_address": ["12 Persia Ave", "San Francisco, CA 94112"]}, "phone": "+14155858645", "display_phone": "(415) 585-8645", "distance": 4230.2406563733775}, {"id": "WFgRFq_KxIs2fkYo1iD6Tg", "alias": "lers-ros-san-francisco-2", "name": "Lers Ros", "image_url": "https://s3-media2.fl.yelpcdn.com/bphoto/Ret1r2LD68ouKGpaVGpPtA/o.jpg", "is_closed": false, "url": "https://www.yelp.com/biz/lers-ros-san-francisco-2?adjust_creative=Klanz-jboxl2XzqrjP6LLw&utm_campaign=yelp_api_v3&utm_medium=api_v3_business_search&utm_source=Klanz-jboxl2XzqrjP6LLw", "review_count": 2254, "categories": [{"alias": "thai", "title": "Thai"}, {"alias": "wine_bars", "title": "Wine Bars"}], "rating": 4.0, "coordinates": {"latitude": 37.784703, "longitude": -122.417566}, "transactions": ["delivery", "restaurant_reservation", "pickup"], "price": "$$", "location": {"address1": "730 Larkin St", "address2": "", "address3": "", "city": "San Francisco", "zip_code": "94109", "country": "US", "state": "CA", "display_address": ["730 Larkin St", "San Francisco, CA 94109"]}, "phone": "+14159316917", "display_phone": "(415) 931-6917", "distance": 3121.1293030249976}, {"id": "lCwvdVeSdiUVodXCbD7ogw", "alias": "balompie-cafe-no-3-san-francisco", "name": "Balompie Cafe No 3", "image_url": "https://s3-media4.fl.yelpcdn.com/bphoto/RpcYv7P7XreGfItKFBjwSg/o.jpg", "is_closed": false, "url": "https://www.yelp.com/biz/balompie-cafe-no-3-san-francisco?adjust_creative=Klanz-jboxl2XzqrjP6LLw&utm_campaign=yelp_api_v3&utm_medium=api_v3_business_search&utm_source=Klanz-jboxl2XzqrjP6LLw", "review_count": 399, "categories": [{"alias": "seafood", "title": "Seafood"}, {"alias": "salvadoran", "title": "Salvadoran"}], "rating": 4.0, "coordinates": {"latitude": 37.7359762, "longitude": -122.4243794}, "transactions": ["pickup"], "price": "$$", "location": {"address1": "3801 Mission St", "address2": "", "address3": "", "city": "San Francisco", "zip_code": "94110", "country": "US", "state": "CA", "display_address": ["3801 Mission St", "San Francisco, CA 94110"]}, "phone": "+14156474000", "display_phone": "(415) 647-4000", "distance": 2967.4972793769593}, {"id": "QOpqNPKpClL48TVVrYobAw", "alias": "pizzetta-211-san-francisco", "name": "Pizzetta 211", "image_url": "https://s3-media2.fl.yelpcdn.com/bphoto/1uWcAal9dbi2iOvULeLI4w/o.jpg", "is_closed": false, "url": "https://www.yelp.com/biz/pizzetta-211-san-francisco?adjust_creative=Klanz-jboxl2XzqrjP6LLw&utm_campaign=yelp_api_v3&utm_medium=api_v3_business_search&utm_source=Klanz-jboxl2XzqrjP6LLw", "review_count": 1356, "categories": [{"alias": "pizza", "title": "Pizza"}, {"alias": "salad", "title": "Salad"}, {"alias": "wine_bars", "title": "Wine Bars"}], "rating": 4.5, "coordinates": {"latitude": 37.783684, "longitude": -122.482974}, "transactions": ["delivery"], "price": "$$", "location": {"address1": "211 23rd Ave", "address2": "", "address3": "", "city": "San Francisco", "zip_code": "94121", "country": "US", "state": "CA", "display_address": ["211 23rd Ave", "San Francisco, CA 94121"]}, "phone": "+14153799880", "display_phone": "(415) 379-9880", "distance": 4810.639763875178}, {"id": "4Nkmr_wTiD1FTjwC6_getA", "alias": "the-crepe-house-san-francisco", "name": "The Crepe House", "image_url": "https://s3-media2.fl.yelpcdn.com/bphoto/q8BmwnQy9CeGkhhUznSwaQ/o.jpg", "is_closed": false, "url": "https://www.yelp.com/biz/the-crepe-house-san-francisco?adjust_creative=Klanz-jboxl2XzqrjP6LLw&utm_campaign=yelp_api_v3&utm_medium=api_v3_business_search&utm_source=Klanz-jboxl2XzqrjP6LLw", "review_count": 723, "categories": [{"alias": "creperies", "title": "Creperies"}, {"alias": "breakfast_brunch", "title": "Breakfast & Brunch"}], "rating": 4.0, "coordinates": {"latitude": 37.7928486951186, "longitude": -122.421197206307}, "transactions": ["delivery", "pickup"], "price": "$$", "location": {"address1": "1755 Polk St", "address2": "", "address3": "", "city": "San Francisco", "zip_code": "94109", "country": "US", "state": "CA", "display_address": ["1755 Polk St", "San Francisco, CA 94109"]}, "phone": "+14154412421", "display_phone": "(415) 441-2421", "distance": 3815.604476627187}, {"id": "8FxJ_a68QfwM00JBp4LAIQ", "alias": "kempton-investments-belvedere-tiburon", "name": "Kempton Investments", "image_url": "", "is_closed": false, "url": "https://www.yelp.com/biz/kempton-investments-belvedere-tiburon?adjust_creative=Klanz-jboxl2XzqrjP6LLw&utm_campaign=yelp_api_v3&utm_medium=api_v3_business_search&utm_source=Klanz-jboxl2XzqrjP6LLw", "review_count": 1, "categories": [], "rating": 4.0, "coordinates": {"latitude": 37.87527, "longitude": -122.45995}, "transactions": [], "location": {"address1": "1550 Tiburon Blvd", "address2": null, "address3": null, "city": "Belvedere Tiburon", "zip_code": "94920", "country": "US", "state": "CA", "display_address": ["1550 Tiburon Blvd", "Belvedere Tiburon, CA 94920"]}, "phone": "+14154353354", "display_phone": "(415) 435-3354", "distance": 12906.32922436276}, {"id": "NxpT669MxX2Li9B05fe_Lg", "alias": "street-meet-taco-truck-san-francisco", "name": "Street Meet Taco Truck", "image_url": "https://s3-media3.fl.yelpcdn.com/bphoto/swUEMqQiCwW-3Gtm17Z9MA/o.jpg", "is_closed": false, "url": "https://www.yelp.com/biz/street-meet-taco-truck-san-francisco?adjust_creative=Klanz-jboxl2XzqrjP6LLw&utm_campaign=yelp_api_v3&utm_medium=api_v3_business_search&utm_source=Klanz-jboxl2XzqrjP6LLw", "review_count": 26, "categories": [{"alias": "foodtrucks", "title": "Food Trucks"}, {"alias": "tacos", "title": "Tacos"}], "rating": 4.5, "coordinates": {"latitude": 37.73256, "longitude": -122.40585}, "transactions": ["delivery", "pickup"], "price": "$$", "location": {"address1": "2380 San Bruno Ave", "address2": null, "address3": null, "city": "San Francisco", "zip_code": "94134", "country": "US", "state": "CA", "display_address": ["2380 San Bruno Ave", "San Francisco, CA 94134"]}, "phone": "+14157863790", "display_phone": "(415) 786-3790", "distance": 4119.536792697572}, {"id": "bLa9Jm04dPersyUN7LFrvw", "alias": "pho-2000-san-francisco", "name": "Pho 2000", "image_url": "https://s3-media4.fl.yelpcdn.com/bphoto/ikC0CqA4oGCOej0w2zxA6A/o.jpg", "is_closed": false, "url": "https://www.yelp.com/biz/pho-2000-san-francisco?adjust_creative=Klanz-jboxl2XzqrjP6LLw&utm_campaign=yelp_api_v3&utm_medium=api_v3_business_search&utm_source=Klanz-jboxl2XzqrjP6LLw", "review_count": 828, "categories": [{"alias": "vietnamese", "title": "Vietnamese"}, {"alias": "noodles", "title": "Noodles"}, {"alias": "soup", "title": "Soup"}], "rating": 4.0, "coordinates": {"latitude": 37.78388, "longitude": -122.41787}, "transactions": ["delivery"], "price": "$$", "location": {"address1": "637 Larkin St", "address2": "", "address3": "", "city": "San Francisco", "zip_code": "94109", "country": "US", "state": "CA", "display_address": ["637 Larkin St", "San Francisco, CA 94109"]}, "phone": "+14154741188", "display_phone": "(415) 474-1188", "distance": 3030.3728936307075}, {"id": "SAymqe2nMxK8u5Cxp42WKw", "alias": "bergerac-san-francisco", "name": "Bergerac", "image_url": "https://s3-media2.fl.yelpcdn.com/bphoto/lIh1gfIXxDM59VfjzIkwiA/o.jpg", "is_closed": false, "url": "https://www.yelp.com/biz/bergerac-san-francisco?adjust_creative=Klanz-jboxl2XzqrjP6LLw&utm_campaign=yelp_api_v3&utm_medium=api_v3_business_search&utm_source=Klanz-jboxl2XzqrjP6LLw", "review_count": 318, "categories": [{"alias": "comfortfood", "title": "Comfort Food"}, {"alias": "cocktailbars", "title": "Cocktail Bars"}, {"alias": "lounges", "title": "Lounges"}], "rating": 4.0, "coordinates": {"latitude": 37.771362, "longitude": -122.413795}, "transactions": ["delivery"], "price": "$$", "location": {"address1": "316 11th St", "address2": null, "address3": "", "city": "San Francisco", "zip_code": "94103", "country": "US", "state": "CA", "display_address": ["316 11th St", "San Francisco, CA 94103"]}, "phone": "+14152559440", "display_phone": "(415) 255-9440", "distance": 2303.4223289178944}, {"id": "hz6KrIX3mcRw1uV_zUWbNg", "alias": "maya-halal-taqueria-oakland", "name": "Maya Halal Taqueria", "image_url": "https://s3-media1.fl.yelpcdn.com/bphoto/iblBp1Chik6Qzeq6Q5_BQw/o.jpg", "is_closed": false, "url": "https://www.yelp.com/biz/maya-halal-taqueria-oakland?adjust_creative=Klanz-jboxl2XzqrjP6LLw&utm_campaign=yelp_api_v3&utm_medium=api_v3_business_search&utm_source=Klanz-jboxl2XzqrjP6LLw", "review_count": 362, "categories": [{"alias": "halal", "title": "Halal"}, {"alias": "mexican", "title": "Mexican"}], "rating": 4.5, "coordinates": {"latitude": 37.80353, "longitude": -122.26844}, "transactions": ["delivery"], "price": "$$", "location": {"address1": "346 14th St", "address2": null, "address3": "", "city": "Oakland", "zip_code": "94612", "country": "US", "state": "CA", "display_address": ["346 14th St", "Oakland, CA 94612"]}, "phone": "+15109229463", "display_phone": "(510) 922-9463", "distance": 15493.475754746562}, {"id": "pXV02Lj-jWt6rgHRQzJmqA", "alias": "emmys-restaurant-san-francisco", "name": "Emmy's Restaurant", "image_url": "https://s3-media1.fl.yelpcdn.com/bphoto/W3Hw5d-v70Wodlg8sWAtaQ/o.jpg", "is_closed": false, "url": "https://www.yelp.com/biz/emmys-restaurant-san-francisco?adjust_creative=Klanz-jboxl2XzqrjP6LLw&utm_campaign=yelp_api_v3&utm_medium=api_v3_business_search&utm_source=Klanz-jboxl2XzqrjP6LLw", "review_count": 705, "categories": [{"alias": "chinese", "title": "Chinese"}, {"alias": "seafood", "title": "Seafood"}], "rating": 3.0, "coordinates": {"latitude": 37.725413, "longitude": -122.462822}, "transactions": ["delivery", "pickup"], "price": "$", "location": {"address1": "1923 Ocean Ave", "address2": "", "address3": "", "city": "San Francisco", "zip_code": "94127", "country": "US", "state": "CA", "display_address": ["1923 Ocean Ave", "San Francisco, CA 94127"]}, "phone": "+14155858887", "display_phone": "(415) 585-8887", "distance": 4576.942203464529}, {"id": "FAe40I-X4ZmXTAekXfTmmQ", "alias": "el-paraiso-cafe-san-francisco", "name": "El Paraiso Cafe", "image_url": "https://s3-media4.fl.yelpcdn.com/bphoto/Q2A855dEg_PDxkk1B-xRYw/o.jpg", "is_closed": false, "url": "https://www.yelp.com/biz/el-paraiso-cafe-san-francisco?adjust_creative=Klanz-jboxl2XzqrjP6LLw&utm_campaign=yelp_api_v3&utm_medium=api_v3_business_search&utm_source=Klanz-jboxl2XzqrjP6LLw", "review_count": 56, "categories": [{"alias": "sandwiches", "title": "Sandwiches"}, {"alias": "latin", "title": "Latin American"}], "rating": 4.0, "coordinates": {"latitude": 37.75114, "longitude": -122.41306}, "transactions": ["delivery"], "price": "$", "location": {"address1": "1198 Treat Ave", "address2": "", "address3": "", "city": "San Francisco", "zip_code": "94110", "country": "US", "state": "CA", "display_address": ["1198 Treat Ave", "San Francisco, CA 94110"]}, "phone": "+14158242535", "display_phone": "(415) 824-2535", "distance": 2322.5182156601295}, {"id": "UpXkkAMbb7LAMh2g7Xwddg", "alias": "hopscotch-oakland", "name": "Hopscotch", "image_url": "https://s3-media1.fl.yelpcdn.com/bphoto/Zuse5tAw_Xv4IChAXPSMlQ/o.jpg", "is_closed": false, "url": "https://www.yelp.com/biz/hopscotch-oakland?adjust_creative=Klanz-jboxl2XzqrjP6LLw&utm_campaign=yelp_api_v3&utm_medium=api_v3_business_search&utm_source=Klanz-jboxl2XzqrjP6LLw", "review_count": 1562, "categories": [{"alias": "newamerican", "title": "American (New)"}, {"alias": "venues", "title": "Venues & Event Spaces"}, {"alias": "breakfast_brunch", "title": "Breakfast & Brunch"}], "rating": 4.0, "coordinates": {"latitude": 37.80919, "longitude": -122.27316}, "transactions": ["delivery"], "price": "$$", "location": {"address1": "1915 San Pablo Ave", "address2": "", "address3": "", "city": "Oakland", "zip_code": "94612", "country": "US", "state": "CA", "display_address": ["1915 San Pablo Ave", "Oakland, CA 94612"]}, "phone": "+15107886217", "display_phone": "(510) 788-6217", "distance": 15326.5943395036}, {"id": "TCvzZi55lnXP9bDrJdPARQ", "alias": "sens-restaurant-san-francisco", "name": "Sens Restaurant", "image_url": "https://s3-media1.fl.yelpcdn.com/bphoto/2WMT7RSxY0s3IHn0PXqPTg/o.jpg", "is_closed": false, "url": "https://www.yelp.com/biz/sens-restaurant-san-francisco?adjust_creative=Klanz-jboxl2XzqrjP6LLw&utm_campaign=yelp_api_v3&utm_medium=api_v3_business_search&utm_source=Klanz-jboxl2XzqrjP6LLw", "review_count": 959, "categories": [{"alias": "venues", "title": "Venues & Event Spaces"}, {"alias": "mediterranean", "title": "Mediterranean"}, {"alias": "bars", "title": "Bars"}], "rating": 3.5, "coordinates": {"latitude": 37.7949441792413, "longitude": -122.395903082158}, "transactions": ["pickup", "delivery"], "price": "$$", "location": {"address1": "4 Embarcadero Ctr", "address2": "Fl 3", "address3": "", "city": "San Francisco", "zip_code": "94111", "country": "US", "state": "CA", "display_address": ["4 Embarcadero Ctr", "Fl 3", "San Francisco, CA 94111"]}, "phone": "+14153620645", "display_phone": "(415) 362-0645", "distance": 5198.84442340404}, {"id": "N8UKBS_TejP5HUmtYhNslA", "alias": "fresca-san-francisco-3", "name": "Fresca", "image_url": "https://s3-media4.fl.yelpcdn.com/bphoto/jXb_-Ce7cEKNOfGb-cdNtQ/o.jpg", "is_closed": false, "url": "https://www.yelp.com/biz/fresca-san-francisco-3?adjust_creative=Klanz-jboxl2XzqrjP6LLw&utm_campaign=yelp_api_v3&utm_medium=api_v3_business_search&utm_source=Klanz-jboxl2XzqrjP6LLw", "review_count": 941, "categories": [{"alias": "peruvian", "title": "Peruvian"}], "rating": 3.5, "coordinates": {"latitude": 37.7514156, "longitude": -122.4307588}, "transactions": ["restaurant_reservation"], "price": "$$", "location": {"address1": "3945 24th St", "address2": "", "address3": "", "city": "San Francisco", "zip_code": "94114", "country": "US", "state": "CA", "display_address": ["3945 24th St", "San Francisco, CA 94114"]}, "phone": "+14156950549", "display_phone": "(415) 695-0549", "distance": 1167.1129240207713}, {"id": "O9KPxukP4ePgnD6MSQi8MQ", "alias": "paulas-cafe-san-francisco", "name": "Paula's Cafe", "image_url": "https://s3-media1.fl.yelpcdn.com/bphoto/zKMKSZH1MChAIWnTwEA3Fw/o.jpg", "is_closed": false, "url": "https://www.yelp.com/biz/paulas-cafe-san-francisco?adjust_creative=Klanz-jboxl2XzqrjP6LLw&utm_campaign=yelp_api_v3&utm_medium=api_v3_business_search&utm_source=Klanz-jboxl2XzqrjP6LLw", "review_count": 38, "categories": [{"alias": "breakfast_brunch", "title": "Breakfast & Brunch"}, {"alias": "cafes", "title": "Cafes"}, {"alias": "latin", "title": "Latin American"}], "rating": 4.5, "coordinates": {"latitude": 37.772325, "longitude": -122.430265}, "transactions": ["delivery", "pickup"], "price": "$$", "location": {"address1": "488 Haight St", "address2": null, "address3": "", "city": "San Francisco", "zip_code": "94117", "country": "US", "state": "CA", "display_address": ["488 Haight St", "San Francisco, CA 94117"]}, "phone": "+14158650522", "display_phone": "(415) 865-0522", "distance": 1381.417121534896}, {"id": "4llVHbcdMPfrZImiiF-D9w", "alias": "the-hot-shop-albany", "name": "The Hot Shop", "image_url": "https://s3-media3.fl.yelpcdn.com/bphoto/rOC6hkaeFgo2nq2rOcPfdA/o.jpg", "is_closed": false, "url": "https://www.yelp.com/biz/the-hot-shop-albany?adjust_creative=Klanz-jboxl2XzqrjP6LLw&utm_campaign=yelp_api_v3&utm_medium=api_v3_business_search&utm_source=Klanz-jboxl2XzqrjP6LLw", "review_count": 382, "categories": [{"alias": "mexican", "title": "Mexican"}, {"alias": "afghani", "title": "Afghan"}, {"alias": "halal", "title": "Halal"}], "rating": 4.5, "coordinates": {"latitude": 37.88998, "longitude": -122.29859}, "transactions": ["delivery", "pickup"], "price": "$", "location": {"address1": "909 San Pablo Ave", "address2": "", "address3": "", "city": "Albany", "zip_code": "94706", "country": "US", "state": "CA", "display_address": ["909 San Pablo Ave", "Albany, CA 94706"]}, "phone": "+15105289011", "display_phone": "(510) 528-9011", "distance": 18772.795114512424}, {"id": "eyb8vByGqPjcbh7d-qFckA", "alias": "mothership-san-francisco", "name": "Mothership", "image_url": "https://s3-media2.fl.yelpcdn.com/bphoto/MPiJkcyOyF3XwLxzCo05-g/o.jpg", "is_closed": false, "url": "https://www.yelp.com/biz/mothership-san-francisco?adjust_creative=Klanz-jboxl2XzqrjP6LLw&utm_campaign=yelp_api_v3&utm_medium=api_v3_business_search&utm_source=Klanz-jboxl2XzqrjP6LLw", "review_count": 8, "categories": [{"alias": "bars", "title": "Bars"}], "rating": 4.5, "coordinates": {"latitude": 37.74695, "longitude": -122.4194}, "transactions": [], "location": {"address1": "3152 Mission St", "address2": null, "address3": "", "city": "San Francisco", "zip_code": "94110", "country": "US", "state": "CA", "display_address": ["3152 Mission St", "San Francisco, CA 94110"]}, "phone": "", "display_phone": "", "distance": 2161.8637699830147}, {"id": "BZS5c1MSO95UCjVxZvYVUQ", "alias": "marthitas-restaurant-san-francisco", "name": "Marthita's Restaurant", "image_url": "https://s3-media1.fl.yelpcdn.com/bphoto/eZoxGanhPKeHYIF5FAJO6g/o.jpg", "is_closed": false, "url": "https://www.yelp.com/biz/marthitas-restaurant-san-francisco?adjust_creative=Klanz-jboxl2XzqrjP6LLw&utm_campaign=yelp_api_v3&utm_medium=api_v3_business_search&utm_source=Klanz-jboxl2XzqrjP6LLw", "review_count": 6, "categories": [{"alias": "mexican", "title": "Mexican"}], "rating": 3.5, "coordinates": {"latitude": 37.722917106475, "longitude": -122.392885349445}, "transactions": [], "price": "$", "location": {"address1": "1401 Egbert Ave", "address2": "", "address3": "", "city": "San Francisco", "zip_code": "94124", "country": "US", "state": "CA", "display_address": ["1401 Egbert Ave", "San Francisco, CA 94124"]}, "phone": "+14158749235", "display_phone": "(415) 874-9235", "distance": 5701.69436864732}, {"id": "2rCgGJ8uADKWWmuZFiAjtg", "alias": "lucias-mexican-snack-cart-san-francisco", "name": "Lucia's Mexican Snack Cart", "image_url": "https://s3-media1.fl.yelpcdn.com/bphoto/HLeAYvv9wVylehf-Iu2N0g/o.jpg", "is_closed": false, "url": "https://www.yelp.com/biz/lucias-mexican-snack-cart-san-francisco?adjust_creative=Klanz-jboxl2XzqrjP6LLw&utm_campaign=yelp_api_v3&utm_medium=api_v3_business_search&utm_source=Klanz-jboxl2XzqrjP6LLw", "review_count": 1, "categories": [{"alias": "mexican", "title": "Mexican"}, {"alias": "foodstands", "title": "Food Stands"}], "rating": 4.0, "coordinates": {"latitude": 37.75744, "longitude": -122.41937}, "transactions": [], "location": {"address1": null, "address2": null, "address3": "", "city": "San Francisco", "zip_code": "94110", "country": "US", "state": "CA", "display_address": ["San Francisco, CA 94110"]}, "phone": "", "display_phone": "", "distance": 2095.255154655183}, {"id": "lXHw8t6SlpJf2qKiAN7PLA", "alias": "horseshoe-tavern-san-francisco", "name": "Horseshoe Tavern", "image_url": "https://s3-media2.fl.yelpcdn.com/bphoto/yBv-2ZEB5mUeTpkeG838XA/o.jpg", "is_closed": false, "url": "https://www.yelp.com/biz/horseshoe-tavern-san-francisco?adjust_creative=Klanz-jboxl2XzqrjP6LLw&utm_campaign=yelp_api_v3&utm_medium=api_v3_business_search&utm_source=Klanz-jboxl2XzqrjP6LLw", "review_count": 278, "categories": [{"alias": "pubs", "title": "Pubs"}, {"alias": "lounges", "title": "Lounges"}], "rating": 4.0, "coordinates": {"latitude": 37.8009242, "longitude": -122.4369199}, "transactions": [], "price": "$", "location": {"address1": "2024 Chestnut St", "address2": "", "address3": "", "city": "San Francisco", "zip_code": "94123", "country": "US", "state": "CA", "display_address": ["2024 Chestnut St", "San Francisco, CA 94123"]}, "phone": "+14153461430", "display_phone": "(415) 346-1430", "distance": 4450.744829718156}, {"id": "iFZugpjWw9qqJtuCBO51pA", "alias": "taqueria-monte-cristo-berkeley", "name": "Taqueria Monte Cristo", "image_url": "https://s3-media3.fl.yelpcdn.com/bphoto/86PnCxwhsj6TPpnOIpdfPw/o.jpg", "is_closed": false, "url": "https://www.yelp.com/biz/taqueria-monte-cristo-berkeley?adjust_creative=Klanz-jboxl2XzqrjP6LLw&utm_campaign=yelp_api_v3&utm_medium=api_v3_business_search&utm_source=Klanz-jboxl2XzqrjP6LLw", "review_count": 720, "categories": [{"alias": "mexican", "title": "Mexican"}, {"alias": "breakfast_brunch", "title": "Breakfast & Brunch"}, {"alias": "sandwiches", "title": "Sandwiches"}], "rating": 4.0, "coordinates": {"latitude": 37.8700880607141, "longitude": -122.283343444809}, "transactions": ["delivery", "pickup"], "price": "$$", "location": {"address1": "1446 University Ave", "address2": "", "address3": "", "city": "Berkeley", "zip_code": "94702", "country": "US", "state": "CA", "display_address": ["1446 University Ave", "Berkeley, CA 94702"]}, "phone": "+15104860321", "display_phone": "(510) 486-0321", "distance": 18118.652986891233}, {"id": "nIMGujCOfyiOM0JFpbOg-A", "alias": "alfaro-catering-san-francisco-2", "name": "Alfaro Catering", "image_url": "https://s3-media3.fl.yelpcdn.com/bphoto/E8EeZDBV7lG98ghOCooFIg/o.jpg", "is_closed": false, "url": "https://www.yelp.com/biz/alfaro-catering-san-francisco-2?adjust_creative=Klanz-jboxl2XzqrjP6LLw&utm_campaign=yelp_api_v3&utm_medium=api_v3_business_search&utm_source=Klanz-jboxl2XzqrjP6LLw", "review_count": 26, "categories": [{"alias": "foodtrucks", "title": "Food Trucks"}, {"alias": "tacos", "title": "Tacos"}], "rating": 4.0, "coordinates": {"latitude": 37.767240216789, "longitude": -122.422148774681}, "transactions": [], "price": "$", "location": {"address1": "332 Valencia St", "address2": null, "address3": "", "city": "San Francisco", "zip_code": "94103", "country": "US", "state": "CA", "display_address": ["332 Valencia St", "San Francisco, CA 94103"]}, "phone": "+14158504247", "display_phone": "(415) 850-4247", "distance": 1448.6827204778278}, {"id": "aJ8HioMxfUd9bqDEecchFQ", "alias": "chef-rozanna-catering-san-francisco-2", "name": "Chef Rozanna Catering", "image_url": "https://s3-media2.fl.yelpcdn.com/bphoto/E-JEL1DvIfU0_RSaO030xg/o.jpg", "is_closed": false, "url": "https://www.yelp.com/biz/chef-rozanna-catering-san-francisco-2?adjust_creative=Klanz-jboxl2XzqrjP6LLw&utm_campaign=yelp_api_v3&utm_medium=api_v3_business_search&utm_source=Klanz-jboxl2XzqrjP6LLw", "review_count": 44, "categories": [{"alias": "catering", "title": "Caterers"}, {"alias": "personalchefs", "title": "Personal Chefs"}], "rating": 5.0, "coordinates": {"latitude": 37.7671546398766, "longitude": -122.432514402405}, "transactions": [], "location": {"address1": "831 14th St", "address2": "Ste 6", "address3": "", "city": "San Francisco", "zip_code": "94107", "country": "US", "state": "CA", "display_address": ["831 14th St", "Ste 6", "San Francisco, CA 94107"]}, "phone": "+14158980163", "display_phone": "(415) 898-0163", "distance": 776.7254264738025}, {"id": "1CkTVogrU7pmy4pkEFIubw", "alias": "trick-dog-san-francisco", "name": "Trick Dog", "image_url": "https://s3-media4.fl.yelpcdn.com/bphoto/FNyWC6ZaPvw5A3X1tV6v-A/o.jpg", "is_closed": false, "url": "https://www.yelp.com/biz/trick-dog-san-francisco?adjust_creative=Klanz-jboxl2XzqrjP6LLw&utm_campaign=yelp_api_v3&utm_medium=api_v3_business_search&utm_source=Klanz-jboxl2XzqrjP6LLw", "review_count": 829, "categories": [{"alias": "cocktailbars", "title": "Cocktail Bars"}, {"alias": "tradamerican", "title": "American (Traditional)"}], "rating": 4.0, "coordinates": {"latitude": 37.759237240545, "longitude": -122.41119358402618}, "transactions": ["delivery"], "price": "$$", "location": {"address1": "3010 20th St", "address2": "", "address3": "", "city": "San Francisco", "zip_code": "94110", "country": "US", "state": "CA", "display_address": ["3010 20th St", "San Francisco, CA 94110"]}, "phone": "+14154712999", "display_phone": "(415) 471-2999", "distance": 2227.6854845359435}, {"id": "S98G1Fcqo24kTZVuR643cg", "alias": "ks-kitchen-san-francisco", "name": "K's Kitchen", "image_url": "https://s3-media1.fl.yelpcdn.com/bphoto/vam7Zta9lqNPg6TU2YoPHQ/o.jpg", "is_closed": false, "url": "https://www.yelp.com/biz/ks-kitchen-san-francisco?adjust_creative=Klanz-jboxl2XzqrjP6LLw&utm_campaign=yelp_api_v3&utm_medium=api_v3_business_search&utm_source=Klanz-jboxl2XzqrjP6LLw", "review_count": 409, "categories": [{"alias": "japanese", "title": "Japanese"}, {"alias": "sushi", "title": "Sushi Bars"}, {"alias": "tapasmallplates", "title": "Tapas/Small Plates"}], "rating": 4.0, "coordinates": {"latitude": 37.731489, "longitude": -122.452381}, "transactions": ["delivery"], "price": "$$", "location": {"address1": "757 Monterey Blvd", "address2": "", "address3": "", "city": "San Francisco", "zip_code": "94127", "country": "US", "state": "CA", "display_address": ["757 Monterey Blvd", "San Francisco, CA 94127"]}, "phone": "+14153338500", "display_phone": "(415) 333-8500", "distance": 3557.739280795195}, {"id": "l_QTl96yNmYbyjvNpRUO9w", "alias": "mr-pollo-daly-city-4", "name": "Mr. Pollo", "image_url": "https://s3-media3.fl.yelpcdn.com/bphoto/hIzolH8-YfviLNjeUg4Ndw/o.jpg", "is_closed": false, "url": "https://www.yelp.com/biz/mr-pollo-daly-city-4?adjust_creative=Klanz-jboxl2XzqrjP6LLw&utm_campaign=yelp_api_v3&utm_medium=api_v3_business_search&utm_source=Klanz-jboxl2XzqrjP6LLw", "review_count": 95, "categories": [{"alias": "colombian", "title": "Colombian"}, {"alias": "mexican", "title": "Mexican"}, {"alias": "juicebars", "title": "Juice Bars & Smoothies"}], "rating": 3.5, "coordinates": {"latitude": 37.70702, "longitude": -122.45713}, "transactions": ["pickup"], "price": "$$", "location": {"address1": "6123 Mission St", "address2": "", "address3": "", "city": "Daly City", "zip_code": "94014", "country": "US", "state": "CA", "display_address": ["6123 Mission St", "Daly City, CA 94014"]}, "phone": "+14154945076", "display_phone": "(415) 494-5076", "distance": 6262.961289687209}, {"id": "KA-P3d2NcbJy5SQN-vCzPA", "alias": "aria-korean-street-food-san-francisco", "name": "Aria Korean Street Food", "image_url": "https://s3-media1.fl.yelpcdn.com/bphoto/GLvMxRbJGeeEs5PR6h7ucQ/o.jpg", "is_closed": false, "url": "https://www.yelp.com/biz/aria-korean-street-food-san-francisco?adjust_creative=Klanz-jboxl2XzqrjP6LLw&utm_campaign=yelp_api_v3&utm_medium=api_v3_business_search&utm_source=Klanz-jboxl2XzqrjP6LLw", "review_count": 1060, "categories": [{"alias": "korean", "title": "Korean"}, {"alias": "chickenshop", "title": "Chicken Shop"}, {"alias": "tacos", "title": "Tacos"}], "rating": 4.0, "coordinates": {"latitude": 37.78655, "longitude": -122.41795}, "transactions": ["delivery", "pickup"], "price": "$$", "location": {"address1": "932 Larkin St", "address2": "", "address3": "", "city": "San Francisco", "zip_code": "94109", "country": "US", "state": "CA", "display_address": ["932 Larkin St", "San Francisco, CA 94109"]}, "phone": "+14152926914", "display_phone": "(415) 292-6914", "distance": 3283.920698230426}, {"id": "Pvr9hnB4RP54crj4gdTUag", "alias": "kasa-indian-eatery-san-francisco", "name": "Kasa Indian Eatery", "image_url": "https://s3-media3.fl.yelpcdn.com/bphoto/vztpNV5uoUD8-gI7aTTGpg/o.jpg", "is_closed": false, "url": "https://www.yelp.com/biz/kasa-indian-eatery-san-francisco?adjust_creative=Klanz-jboxl2XzqrjP6LLw&utm_campaign=yelp_api_v3&utm_medium=api_v3_business_search&utm_source=Klanz-jboxl2XzqrjP6LLw", "review_count": 1109, "categories": [{"alias": "indpak", "title": "Indian"}, {"alias": "vegan", "title": "Vegan"}, {"alias": "salad", "title": "Salad"}], "rating": 3.5, "coordinates": {"latitude": 37.7608184814453, "longitude": -122.432960510254}, "transactions": ["delivery", "pickup"], "price": "$", "location": {"address1": "4001 18th St", "address2": "", "address3": "", "city": "San Francisco", "zip_code": "94114", "country": "US", "state": "CA", "display_address": ["4001 18th St", "San Francisco, CA 94114"]}, "phone": "", "display_phone": "", "distance": 304.0681226546392}, {"id": "ADoA8yTyUe2leG4G0EK50Q", "alias": "brioche-bakery-and-cafe-san-francisco-3", "name": "Brioche Bakery & Cafe", "image_url": "https://s3-media2.fl.yelpcdn.com/bphoto/cYwhjAHfVU2X9jE8cF6ZTg/o.jpg", "is_closed": false, "url": "https://www.yelp.com/biz/brioche-bakery-and-cafe-san-francisco-3?adjust_creative=Klanz-jboxl2XzqrjP6LLw&utm_campaign=yelp_api_v3&utm_medium=api_v3_business_search&utm_source=Klanz-jboxl2XzqrjP6LLw", "review_count": 45, "categories": [{"alias": "breakfast_brunch", "title": "Breakfast & Brunch"}, {"alias": "diners", "title": "Diners"}, {"alias": "sandwiches", "title": "Sandwiches"}], "rating": 4.0, "coordinates": {"latitude": 37.76998, "longitude": -122.44933}, "transactions": ["delivery", "pickup"], "price": "$$", "location": {"address1": "1640 Haight St", "address2": null, "address3": "", "city": "San Francisco", "zip_code": "94117", "country": "US", "state": "CA", "display_address": ["1640 Haight St", "San Francisco, CA 94117"]}, "phone": "+14159137940", "display_phone": "(415) 913-7940", "distance": 1512.6726583255675}, {"id": "fBLN2ozZz1KkYgA5hAtd9A", "alias": "lighthouse-cafe-sausalito", "name": "Lighthouse Cafe", "image_url": "https://s3-media2.fl.yelpcdn.com/bphoto/rHAPZgPiEGge3ihPhYfiqQ/o.jpg", "is_closed": false, "url": "https://www.yelp.com/biz/lighthouse-cafe-sausalito?adjust_creative=Klanz-jboxl2XzqrjP6LLw&utm_campaign=yelp_api_v3&utm_medium=api_v3_business_search&utm_source=Klanz-jboxl2XzqrjP6LLw", "review_count": 705, "categories": [{"alias": "breakfast_brunch", "title": "Breakfast & Brunch"}, {"alias": "seafood", "title": "Seafood"}, {"alias": "tradamerican", "title": "American (Traditional)"}], "rating": 4.0, "coordinates": {"latitude": 37.85966, "longitude": -122.48642}, "transactions": ["delivery", "pickup"], "price": "$$", "location": {"address1": "1311 Bridgeway", "address2": "", "address3": "", "city": "Sausalito", "zip_code": "94965", "country": "US", "state": "CA", "display_address": ["1311 Bridgeway", "Sausalito, CA 94965"]}, "phone": "+14153313034", "display_phone": "(415) 331-3034", "distance": 11827.183926677786}, {"id": "KRpCCCBwaJBGrkBCVUhW7g", "alias": "cafe-bastille-san-francisco-2", "name": "Cafe Bastille", "image_url": "https://s3-media2.fl.yelpcdn.com/bphoto/HMwpXGSWQdUp8eFD1hnZ8A/o.jpg", "is_closed": false, "url": "https://www.yelp.com/biz/cafe-bastille-san-francisco-2?adjust_creative=Klanz-jboxl2XzqrjP6LLw&utm_campaign=yelp_api_v3&utm_medium=api_v3_business_search&utm_source=Klanz-jboxl2XzqrjP6LLw", "review_count": 744, "categories": [{"alias": "french", "title": "French"}, {"alias": "wine_bars", "title": "Wine Bars"}, {"alias": "cocktailbars", "title": "Cocktail Bars"}], "rating": 3.5, "coordinates": {"latitude": 37.79131, "longitude": -122.40363}, "transactions": ["delivery", "pickup"], "price": "$$", "location": {"address1": "44 Belden Pl", "address2": "", "address3": "", "city": "San Francisco", "zip_code": "94104", "country": "US", "state": "CA", "display_address": ["44 Belden Pl", "San Francisco, CA 94104"]}, "phone": "+14159865673", "display_phone": "(415) 986-5673", "distance": 4444.592095691621}, {"id": "FwmFECymlIKjyAGiNilD9w", "alias": "lemonade-san-francisco-3", "name": "Lemonade", "image_url": "https://s3-media1.fl.yelpcdn.com/bphoto/waBbqTmRXsnR-Z5wp2FkOg/o.jpg", "is_closed": false, "url": "https://www.yelp.com/biz/lemonade-san-francisco-3?adjust_creative=Klanz-jboxl2XzqrjP6LLw&utm_campaign=yelp_api_v3&utm_medium=api_v3_business_search&utm_source=Klanz-jboxl2XzqrjP6LLw", "review_count": 620, "categories": [{"alias": "newamerican", "title": "American (New)"}, {"alias": "sandwiches", "title": "Sandwiches"}, {"alias": "breakfast_brunch", "title": "Breakfast & Brunch"}], "rating": 3.5, "coordinates": {"latitude": 37.784868, "longitude": -122.403471}, "transactions": ["delivery", "pickup"], "price": "$$", "location": {"address1": "781 Mission St", "address2": "", "address3": "", "city": "San Francisco", "zip_code": "94013", "country": "US", "state": "CA", "display_address": ["781 Mission St", "San Francisco, CA 94013"]}, "phone": "+14155220191", "display_phone": "(415) 522-0191", "distance": 3937.882168597488}, {"id": "WCk_ecR-PQuGIqd5I2hAZw", "alias": "7-mile-house-brisbane", "name": "7 Mile House", "image_url": "https://s3-media2.fl.yelpcdn.com/bphoto/4ToXLP656FKS2iDZRA9vIA/o.jpg", "is_closed": false, "url": "https://www.yelp.com/biz/7-mile-house-brisbane?adjust_creative=Klanz-jboxl2XzqrjP6LLw&utm_campaign=yelp_api_v3&utm_medium=api_v3_business_search&utm_source=Klanz-jboxl2XzqrjP6LLw", "review_count": 1430, "categories": [{"alias": "sportsbars", "title": "Sports Bars"}, {"alias": "tradamerican", "title": "American (Traditional)"}, {"alias": "filipino", "title": "Filipino"}], "rating": 4.0, "coordinates": {"latitude": 37.704305, "longitude": -122.407456}, "transactions": ["delivery", "restaurant_reservation", "pickup"], "price": "$$", "location": {"address1": "2800 Bayshore Blvd", "address2": "", "address3": "", "city": "Brisbane", "zip_code": "94005", "country": "US", "state": "CA", "display_address": ["2800 Bayshore Blvd", "Brisbane, CA 94005"]}, "phone": "+14154672343", "display_phone": "(415) 467-2343", "distance": 6787.929877497306}, {"id": "K7cgOR7huve3OkOFkRAhig", "alias": "salitos-crab-house-and-prime-rib-sausalito", "name": "Salito's Crab House & Prime Rib", "image_url": "https://s3-media4.fl.yelpcdn.com/bphoto/TO4ZGKi2Le_NLMbkzYE6HA/o.jpg", "is_closed": false, "url": "https://www.yelp.com/biz/salitos-crab-house-and-prime-rib-sausalito?adjust_creative=Klanz-jboxl2XzqrjP6LLw&utm_campaign=yelp_api_v3&utm_medium=api_v3_business_search&utm_source=Klanz-jboxl2XzqrjP6LLw", "review_count": 1218, "categories": [{"alias": "seafood", "title": "Seafood"}, {"alias": "cocktailbars", "title": "Cocktail Bars"}], "rating": 3.5, "coordinates": {"latitude": 37.859727, "longitude": -122.485075}, "transactions": ["delivery"], "price": "$$$", "location": {"address1": "1200 Bridgeway", "address2": "", "address3": "", "city": "Sausalito", "zip_code": "94965", "country": "US", "state": "CA", "display_address": ["1200 Bridgeway", "Sausalito, CA 94965"]}, "phone": "+14153313226", "display_phone": "(415) 331-3226", "distance": 11790.242489482287}, {"id": "Wk1KnwKKLmhGSY--s5758w", "alias": "juans-place-berkeley", "name": "Juan's Place", "image_url": "https://s3-media2.fl.yelpcdn.com/bphoto/mRHwxWlEAP0CXH1zWKVQJQ/o.jpg", "is_closed": false, "url": "https://www.yelp.com/biz/juans-place-berkeley?adjust_creative=Klanz-jboxl2XzqrjP6LLw&utm_campaign=yelp_api_v3&utm_medium=api_v3_business_search&utm_source=Klanz-jboxl2XzqrjP6LLw", "review_count": 760, "categories": [{"alias": "mexican", "title": "Mexican"}, {"alias": "bars", "title": "Bars"}], "rating": 3.5, "coordinates": {"latitude": 37.85766, "longitude": -122.29112}, "transactions": ["delivery"], "price": "$$", "location": {"address1": "941 Carleton St", "address2": "", "address3": "", "city": "Berkeley", "zip_code": "94710", "country": "US", "state": "CA", "display_address": ["941 Carleton St", "Berkeley, CA 94710"]}, "phone": "+15108456904", "display_phone": "(510) 845-6904", "distance": 16695.48587819983}, {"id": "rSLMK2uCRM21gNj2cvvUWw", "alias": "heist-san-francisco-3", "name": "Heist", "image_url": "https://s3-media4.fl.yelpcdn.com/bphoto/0p_qXCiDNDzjBan_hMSc8A/o.jpg", "is_closed": false, "url": "https://www.yelp.com/biz/heist-san-francisco-3?adjust_creative=Klanz-jboxl2XzqrjP6LLw&utm_campaign=yelp_api_v3&utm_medium=api_v3_business_search&utm_source=Klanz-jboxl2XzqrjP6LLw", "review_count": 114, "categories": [{"alias": "coffee", "title": "Coffee & Tea"}, {"alias": "breakfast_brunch", "title": "Breakfast & Brunch"}, {"alias": "tradamerican", "title": "American (Traditional)"}], "rating": 4.5, "coordinates": {"latitude": 37.78788, "longitude": -122.41306}, "transactions": ["delivery", "pickup"], "price": "$$", "location": {"address1": "678 Post St", "address2": "", "address3": null, "city": "San Francisco", "zip_code": "94109", "country": "US", "state": "CA", "display_address": ["678 Post St", "San Francisco, CA 94109"]}, "phone": "+14155253078", "display_phone": "(415) 525-3078", "distance": 3647.8716214488722}], "total": 1700, "region": {"center": {"longitude": -122.43644714355469, "latitude": 37.76089938976322}}}