{"businesses": [{"id": "V-OBRVrit2nwMD4Bgktt1w", "alias": "sushi-hakko-san-francisco", "name": "Sushi Hakko", "image_url": "https://s3-media4.fl.yelpcdn.com/bphoto/bJxQZZWwsGa6gVLLZ-M56g/o.jpg", "is_closed": false, "url": "https://www.yelp.com/biz/sushi-hakko-san-francisco?adjust_creative=Klanz-jboxl2XzqrjP6LLw&utm_campaign=yelp_api_v3&utm_medium=api_v3_business_search&utm_source=Klanz-jboxl2XzqrjP6LLw", "review_count": 62, "categories": [{"alias": "sushi", "title": "Sushi Bars"}, {"alias": "japanese", "title": "Japanese"}], "rating": 4.5, "coordinates": {"latitude": 37.79734, "longitude": -122.43515}, "transactions": [], "price": "$$$$", "location": {"address1": "2184 Union St", "address2": null, "address3": "", "city": "San Francisco", "zip_code": "94123", "country": "US", "state": "CA", "display_address": ["2184 Union St", "San Francisco, CA 94123"]}, "phone": "+14158142886", "display_phone": "(415) 814-2886", "distance": 4054.694950226938}, {"id": "6Q5aKP44ykyCde2_cOlnzA", "alias": "old-mandarin-islamic-restaurant-san-francisco", "name": "Old Mandarin Islamic Restaurant", "image_url": "https://s3-media2.fl.yelpcdn.com/bphoto/nl2_StW_Un2Dcsag7CdQCQ/o.jpg", "is_closed": false, "url": "https://www.yelp.com/biz/old-mandarin-islamic-restaurant-san-francisco?adjust_creative=Klanz-jboxl2XzqrjP6LLw&utm_campaign=yelp_api_v3&utm_medium=api_v3_business_search&utm_source=Klanz-jboxl2XzqrjP6LLw", "review_count": 894, "categories": [{"alias": "chinese", "title": "Chinese"}, {"alias": "halal", "title": "Halal"}, {"alias": "hotpot", "title": "Hot Pot"}], "rating": 3.5, "coordinates": {"latitude": 37.738452911377, "longitude": -122.500793457031}, "transactions": ["delivery", "pickup"], "price": "$$", "location": {"address1": "3132 Vicente St", "address2": "", "address3": "", "city": "San Francisco", "zip_code": "94116", "country": "US", "state": "CA", "display_address": ["3132 Vicente St", "San Francisco, CA 94116"]}, "phone": "+14155643481", "display_phone": "(415) 564-3481", "distance": 6187.251705094837}, {"id": "kcMcsRZfP3vtBcAFZR11LA", "alias": "sqwers-izakaya-and-sushi-bar-san-francisco-2", "name": "SQwers Izakaya & Sushi Bar", "image_url": "https://s3-media2.fl.yelpcdn.com/bphoto/y5Wc4Br2CHisx4f80e50WQ/o.jpg", "is_closed": false, "url": "https://www.yelp.com/biz/sqwers-izakaya-and-sushi-bar-san-francisco-2?adjust_creative=Klanz-jboxl2XzqrjP6LLw&utm_campaign=yelp_api_v3&utm_medium=api_v3_business_search&utm_source=Klanz-jboxl2XzqrjP6LLw", "review_count": 291, "categories": [{"alias": "japanese", "title": "Japanese"}, {"alias": "sushi", "title": "Sushi Bars"}], "rating": 4.0, "coordinates": {"latitude": 37.7819297, "longitude": -122.4512143}, "transactions": ["delivery", "pickup"], "price": "$$", "location": {"address1": "3015 Geary Blvd", "address2": "", "address3": "", "city": "San Francisco", "zip_code": "94118", "country": "US", "state": "CA", "display_address": ["3015 Geary Blvd", "San Francisco, CA 94118"]}, "phone": "+14157029979", "display_phone": "(415) 702-9979", "distance": 2674.5286650701682}, {"id": "a8efan3ue4m1S22ulbqI4g", "alias": "izakaya-hon-san-francisco-2", "name": "Izakaya Hon", "image_url": "https://s3-media4.fl.yelpcdn.com/bphoto/Gfrp7jA1xIHpl75n3JbE0A/o.jpg", "is_closed": false, "url": "https://www.yelp.com/biz/izakaya-hon-san-francisco-2?adjust_creative=Klanz-jboxl2XzqrjP6LLw&utm_campaign=yelp_api_v3&utm_medium=api_v3_business_search&utm_source=Klanz-jboxl2XzqrjP6LLw", "review_count": 88, "categories": [{"alias": "bars", "title": "Bars"}, {"alias": "izakaya", "title": "Izakaya"}], "rating": 5.0, "coordinates": {"latitude": 37.779742, "longitude": -122.403612}, "transactions": [], "location": {"address1": "917 Folsom St", "address2": null, "address3": "", "city": "San Francisco", "zip_code": "94107", "country": "US", "state": "CA", "display_address": ["917 Folsom St", "San Francisco, CA 94107"]}, "phone": "+14157877842", "display_phone": "(415) 787-7842", "distance": 3569.3102643217394}, {"id": "toTxD6B3bZcUGeBtoXJgBA", "alias": "yojimbo-alameda", "name": "Yojimbo", "image_url": "https://s3-media4.fl.yelpcdn.com/bphoto/7TMurxZZ92qG7Z52tkiYZQ/o.jpg", "is_closed": false, "url": "https://www.yelp.com/biz/yojimbo-alameda?adjust_creative=Klanz-jboxl2XzqrjP6LLw&utm_campaign=yelp_api_v3&utm_medium=api_v3_business_search&utm_source=Klanz-jboxl2XzqrjP6LLw", "review_count": 1546, "categories": [{"alias": "sushi", "title": "Sushi Bars"}, {"alias": "japanese", "title": "Japanese"}], "rating": 4.0, "coordinates": {"latitude": 37.761635, "longitude": -122.245466}, "transactions": ["delivery", "pickup"], "price": "$$", "location": {"address1": "1221 Park St", "address2": "", "address3": "", "city": "Alameda", "zip_code": "94501", "country": "US", "state": "CA", "display_address": ["1221 Park St", "Alameda, CA 94501"]}, "phone": "+15105234120", "display_phone": "(510) 523-4120", "distance": 16788.810668086713}, {"id": "e3gcKXKhSFYs5fn9FoeG2A", "alias": "koja-kitchen-san-francisco-7", "name": "KoJa Kitchen", "image_url": "https://s3-media2.fl.yelpcdn.com/bphoto/JGt_d4fr2IeUOBURXPKuzQ/o.jpg", "is_closed": false, "url": "https://www.yelp.com/biz/koja-kitchen-san-francisco-7?adjust_creative=Klanz-jboxl2XzqrjP6LLw&utm_campaign=yelp_api_v3&utm_medium=api_v3_business_search&utm_source=Klanz-jboxl2XzqrjP6LLw", "review_count": 667, "categories": [{"alias": "japanese", "title": "Japanese"}, {"alias": "korean", "title": "Korean"}, {"alias": "asianfusion", "title": "Asian Fusion"}], "rating": 4.0, "coordinates": {"latitude": 37.7828700207607, "longitude": -122.463096337593}, "transactions": ["delivery", "pickup"], "price": "$$", "location": {"address1": "343 Clement St", "address2": null, "address3": "", "city": "San Francisco", "zip_code": "94118", "country": "US", "state": "CA", "display_address": ["343 Clement St", "San Francisco, CA 94118"]}, "phone": "+14154635085", "display_phone": "(415) 463-5085", "distance": 3384.4949419624313}, {"id": "ayhsCE7JrE0dBGuRjGlGrQ", "alias": "katsuya-san-francisco", "name": "Katsuya", "image_url": "https://s3-media4.fl.yelpcdn.com/bphoto/-qU6CwCDWYRKUGWFsHzdkw/o.jpg", "is_closed": false, "url": "https://www.yelp.com/biz/katsuya-san-francisco?adjust_creative=Klanz-jboxl2XzqrjP6LLw&utm_campaign=yelp_api_v3&utm_medium=api_v3_business_search&utm_source=Klanz-jboxl2XzqrjP6LLw", "review_count": 131, "categories": [{"alias": "japanese", "title": "Japanese"}], "rating": 4.5, "coordinates": {"latitude": 37.79098, "longitude": -122.40384}, "transactions": ["delivery", "pickup"], "price": "$$", "location": {"address1": "380 Bush St", "address2": null, "address3": "", "city": "San Francisco", "zip_code": "94104", "country": "US", "state": "CA", "display_address": ["380 Bush St", "San Francisco, CA 94104"]}, "phone": "+14157570404", "display_phone": "(415) 757-0404", "distance": 4399.044792482979}, {"id": "FjH84fORpMlG0kQWEBKgaw", "alias": "mokuku-san-francisco", "name": "Mokuku", "image_url": "https://s3-media2.fl.yelpcdn.com/bphoto/b-Ll1mHD_U0juFwHS23jng/o.jpg", "is_closed": false, "url": "https://www.yelp.com/biz/mokuku-san-francisco?adjust_creative=Klanz-jboxl2XzqrjP6LLw&utm_campaign=yelp_api_v3&utm_medium=api_v3_business_search&utm_source=Klanz-jboxl2XzqrjP6LLw", "review_count": 274, "categories": [{"alias": "hotpot", "title": "Hot Pot"}, {"alias": "bars", "title": "Bars"}, {"alias": "japanese", "title": "Japanese"}], "rating": 4.0, "coordinates": {"latitude": 37.78321589999999, "longitude": -122.46292}, "transactions": ["delivery", "pickup"], "price": "$$$", "location": {"address1": "332 Clement St", "address2": "", "address3": null, "city": "San Francisco", "zip_code": "94103", "country": "US", "state": "CA", "display_address": ["332 Clement St", "San Francisco, CA 94103"]}, "phone": "+14157026128", "display_phone": "(415) 702-6128", "distance": 3401.7362172478424}, {"id": "4cXj-H3qt-fE4Ly8giRP-A", "alias": "izumi-revolving-sushi-daly-city-2", "name": "Izumi Revolving Sushi", "image_url": "https://s3-media2.fl.yelpcdn.com/bphoto/caj-QeUK26GhltFH8kk_BQ/o.jpg", "is_closed": false, "url": "https://www.yelp.com/biz/izumi-revolving-sushi-daly-city-2?adjust_creative=Klanz-jboxl2XzqrjP6LLw&utm_campaign=yelp_api_v3&utm_medium=api_v3_business_search&utm_source=Klanz-jboxl2XzqrjP6LLw", "review_count": 174, "categories": [{"alias": "sushi", "title": "Sushi Bars"}, {"alias": "conveyorsushi", "title": "Conveyor Belt Sushi"}], "rating": 3.5, "coordinates": {"latitude": 37.671829010252814, "longitude": -122.47163706661541}, "transactions": ["delivery", "pickup"], "price": "$$", "location": {"address1": "94 Serramonte Ctr", "address2": null, "address3": null, "city": "Daly City", "zip_code": "94015", "country": "US", "state": "CA", "display_address": ["94 Serramonte Ctr", "Daly City, CA 94015"]}, "phone": "+16509855555", "display_phone": "(650) 985-5555", "distance": 10376.583066478617}, {"id": "qVc7u4fu0HHWCUeYGxhRyg", "alias": "chili-cha-cha-2-san-francisco", "name": "Chili Cha Cha 2", "image_url": "https://s3-media3.fl.yelpcdn.com/bphoto/4QF82i3gIrme5WSkwZloYw/o.jpg", "is_closed": false, "url": "https://www.yelp.com/biz/chili-cha-cha-2-san-francisco?adjust_creative=Klanz-jboxl2XzqrjP6LLw&utm_campaign=yelp_api_v3&utm_medium=api_v3_business_search&utm_source=Klanz-jboxl2XzqrjP6LLw", "review_count": 401, "categories": [{"alias": "thai", "title": "Thai"}], "rating": 4.0, "coordinates": {"latitude": 37.75261, "longitude": -122.41565}, "transactions": ["delivery", "pickup"], "price": "$$", "location": {"address1": "3166 24th St", "address2": "", "address3": "", "city": "San Francisco", "zip_code": "94110", "country": "US", "state": "CA", "display_address": ["3166 24th St", "San Francisco, CA 94110"]}, "phone": "+14158292960", "display_phone": "(415) 829-2960", "distance": 2046.0346751750692}, {"id": "6LfqlrbkpjZt83bEMZWq7A", "alias": "asiasf-san-francisco", "name": "AsiaSF", "image_url": "https://s3-media3.fl.yelpcdn.com/bphoto/j0EMMcvTEdawrdqI4iihJA/o.jpg", "is_closed": false, "url": "https://www.yelp.com/biz/asiasf-san-francisco?adjust_creative=Klanz-jboxl2XzqrjP6LLw&utm_campaign=yelp_api_v3&utm_medium=api_v3_business_search&utm_source=Klanz-jboxl2XzqrjP6LLw", "review_count": 1848, "categories": [{"alias": "asianfusion", "title": "Asian Fusion"}, {"alias": "danceclubs", "title": "Dance Clubs"}], "rating": 4.0, "coordinates": {"latitude": 37.77503, "longitude": -122.41281}, "transactions": [], "price": "$$$", "location": {"address1": "201 9th St", "address2": "", "address3": "", "city": "San Francisco", "zip_code": "94103", "country": "US", "state": "CA", "display_address": ["201 9th St", "San Francisco, CA 94103"]}, "phone": "+14152552742", "display_phone": "(415) 255-2742", "distance": 2602.0372193877624}, {"id": "-mUqJ1wTUEC-_8qVR2NWHQ", "alias": "ploy-ii-san-francisco", "name": "Ploy II", "image_url": "https://s3-media2.fl.yelpcdn.com/bphoto/QsaXuufxdtGqQ19u3ikynw/o.jpg", "is_closed": false, "url": "https://www.yelp.com/biz/ploy-ii-san-francisco?adjust_creative=Klanz-jboxl2XzqrjP6LLw&utm_campaign=yelp_api_v3&utm_medium=api_v3_business_search&utm_source=Klanz-jboxl2XzqrjP6LLw", "review_count": 758, "categories": [{"alias": "thai", "title": "Thai"}, {"alias": "noodles", "title": "Noodles"}], "rating": 4.0, "coordinates": {"latitude": 37.76972, "longitude": -122.45138}, "transactions": ["delivery", "pickup"], "price": "$$", "location": {"address1": "1770 Haight St", "address2": "", "address3": "", "city": "San Francisco", "zip_code": "94117", "country": "US", "state": "CA", "display_address": ["1770 Haight St", "San Francisco, CA 94117"]}, "phone": "+14153879224", "display_phone": "(415) 387-9224", "distance": 1634.4342463738744}, {"id": "PGOXqUQDznDNGNHbQMWQcg", "alias": "takara-sushi-san-francisco", "name": "Takara Sushi", "image_url": "https://s3-media2.fl.yelpcdn.com/bphoto/BaRpjTPiF2Em7lL4fAuq8Q/o.jpg", "is_closed": false, "url": "https://www.yelp.com/biz/takara-sushi-san-francisco?adjust_creative=Klanz-jboxl2XzqrjP6LLw&utm_campaign=yelp_api_v3&utm_medium=api_v3_business_search&utm_source=Klanz-jboxl2XzqrjP6LLw", "review_count": 324, "categories": [{"alias": "sushi", "title": "Sushi Bars"}, {"alias": "japanese", "title": "Japanese"}], "rating": 3.5, "coordinates": {"latitude": 37.76058, "longitude": -122.43684}, "transactions": ["delivery", "pickup"], "price": "$$", "location": {"address1": "4243 18th St", "address2": "", "address3": "", "city": "San Francisco", "zip_code": "94114", "country": "US", "state": "CA", "display_address": ["4243 18th St", "San Francisco, CA 94114"]}, "phone": "+14156267864", "display_phone": "(415) 626-7864", "distance": 42.382355296878444}, {"id": "-Wei8JiA-RBzuSnO_9X0FQ", "alias": "rooster-and-rice-san-francisco-4", "name": "Rooster & Rice", "image_url": "https://s3-media2.fl.yelpcdn.com/bphoto/zpBunisFjuyLrLU9XUaFVg/o.jpg", "is_closed": false, "url": "https://www.yelp.com/biz/rooster-and-rice-san-francisco-4?adjust_creative=Klanz-jboxl2XzqrjP6LLw&utm_campaign=yelp_api_v3&utm_medium=api_v3_business_search&utm_source=Klanz-jboxl2XzqrjP6LLw", "review_count": 481, "categories": [{"alias": "chickenshop", "title": "Chicken Shop"}, {"alias": "thai", "title": "Thai"}], "rating": 4.5, "coordinates": {"latitude": 37.7979011997338, "longitude": -122.436055409297}, "transactions": ["delivery", "pickup"], "price": "$$", "location": {"address1": "2211 Filbert St", "address2": null, "address3": "", "city": "San Francisco", "zip_code": "94123", "country": "US", "state": "CA", "display_address": ["2211 Filbert St", "San Francisco, CA 94123"]}, "phone": "+14157763647", "display_phone": "(415) 776-3647", "distance": 4114.553018985324}, {"id": "i09UMzccKgyLwGYKDVP28w", "alias": "surisan-san-francisco", "name": "Surisan", "image_url": "https://s3-media4.fl.yelpcdn.com/bphoto/SB2ztrLjf7mrf7xe3l8ikg/o.jpg", "is_closed": false, "url": "https://www.yelp.com/biz/surisan-san-francisco?adjust_creative=Klanz-jboxl2XzqrjP6LLw&utm_campaign=yelp_api_v3&utm_medium=api_v3_business_search&utm_source=Klanz-jboxl2XzqrjP6LLw", "review_count": 2479, "categories": [{"alias": "korean", "title": "Korean"}, {"alias": "newamerican", "title": "American (New)"}, {"alias": "breakfast_brunch", "title": "Breakfast & Brunch"}], "rating": 4.5, "coordinates": {"latitude": 37.80678, "longitude": -122.41756}, "transactions": ["delivery", "restaurant_reservation", "pickup"], "price": "$$", "location": {"address1": "505 Beach St", "address2": "", "address3": null, "city": "San Francisco", "zip_code": "94133", "country": "US", "state": "CA", "display_address": ["505 Beach St", "San Francisco, CA 94133"]}, "phone": "+14157718449", "display_phone": "(415) 771-8449", "distance": 5366.476620396218}, {"id": "8oAsGZNNLvIW3CvLcFUPMw", "alias": "muguboka-restaurant-san-francisco", "name": "Muguboka Restaurant", "image_url": "https://s3-media1.fl.yelpcdn.com/bphoto/FYZkFq8a6jpNL4Ip6LV05w/o.jpg", "is_closed": false, "url": "https://www.yelp.com/biz/muguboka-restaurant-san-francisco?adjust_creative=Klanz-jboxl2XzqrjP6LLw&utm_campaign=yelp_api_v3&utm_medium=api_v3_business_search&utm_source=Klanz-jboxl2XzqrjP6LLw", "review_count": 793, "categories": [{"alias": "korean", "title": "Korean"}, {"alias": "salad", "title": "Salad"}, {"alias": "seafood", "title": "Seafood"}], "rating": 4.0, "coordinates": {"latitude": 37.77713, "longitude": -122.46317}, "transactions": ["delivery"], "price": "$$", "location": {"address1": "401 Balboa St", "address2": "", "address3": "", "city": "San Francisco", "zip_code": "94118", "country": "US", "state": "CA", "display_address": ["401 Balboa St", "San Francisco, CA 94118"]}, "phone": "+14156686007", "display_phone": "(415) 668-6007", "distance": 2958.2773662434656}, {"id": "eaT4IyeATkUqfMz8KI7uVA", "alias": "tonton-restaurant-san-francisco", "name": "Tonton Restaurant", "image_url": "https://s3-media3.fl.yelpcdn.com/bphoto/rFaAeDoceb4BFTErEEE0qg/o.jpg", "is_closed": false, "url": "https://www.yelp.com/biz/tonton-restaurant-san-francisco?adjust_creative=Klanz-jboxl2XzqrjP6LLw&utm_campaign=yelp_api_v3&utm_medium=api_v3_business_search&utm_source=Klanz-jboxl2XzqrjP6LLw", "review_count": 73, "categories": [{"alias": "ramen", "title": "Ramen"}, {"alias": "japacurry", "title": "Japanese Curry"}], "rating": 4.0, "coordinates": {"latitude": 37.7871590426735, "longitude": -122.410354949534}, "transactions": ["delivery"], "location": {"address1": "422 Geary St", "address2": "", "address3": null, "city": "San Francisco", "zip_code": "94102", "country": "US", "state": "CA", "display_address": ["422 Geary St", "San Francisco, CA 94102"]}, "phone": "+14158749664", "display_phone": "(415) 874-9664", "distance": 3712.8473702580554}, {"id": "A8ggMjZ1so15MHE4dbOezw", "alias": "donfeva-san-francisco", "name": "DonFeva", "image_url": "https://s3-media3.fl.yelpcdn.com/bphoto/5Rsts7uH9VBFxGgpOipK-A/o.jpg", "is_closed": false, "url": "https://www.yelp.com/biz/donfeva-san-francisco?adjust_creative=Klanz-jboxl2XzqrjP6LLw&utm_campaign=yelp_api_v3&utm_medium=api_v3_business_search&utm_source=Klanz-jboxl2XzqrjP6LLw", "review_count": 44, "categories": [{"alias": "japanese", "title": "Japanese"}, {"alias": "asianfusion", "title": "Asian Fusion"}], "rating": 4.5, "coordinates": {"latitude": 37.736742, "longitude": -122.405312}, "transactions": ["delivery", "pickup"], "price": "$$", "location": {"address1": "90 Charter Oak Ave", "address2": "", "address3": null, "city": "San Francisco", "zip_code": "94124", "country": "US", "state": "CA", "display_address": ["90 Charter Oak Ave", "San Francisco, CA 94124"]}, "phone": "+14155680375", "display_phone": "(415) 568-0375", "distance": 3824.7484008209344}, {"id": "ZektwaE58QDyjz8uBlGurg", "alias": "k-elements-bbq-san-francisco-3", "name": "K-Elements BBQ", "image_url": "https://s3-media3.fl.yelpcdn.com/bphoto/BXXrWqgawTmR9YKi3LG4bA/o.jpg", "is_closed": false, "url": "https://www.yelp.com/biz/k-elements-bbq-san-francisco-3?adjust_creative=Klanz-jboxl2XzqrjP6LLw&utm_campaign=yelp_api_v3&utm_medium=api_v3_business_search&utm_source=Klanz-jboxl2XzqrjP6LLw", "review_count": 701, "categories": [{"alias": "korean", "title": "Korean"}, {"alias": "bbq", "title": "Barbeque"}, {"alias": "asianfusion", "title": "Asian Fusion"}], "rating": 4.0, "coordinates": {"latitude": 37.78227, "longitude": -122.48244}, "transactions": ["delivery", "pickup"], "price": "$$", "location": {"address1": "2140 Clement St", "address2": "", "address3": null, "city": "San Francisco", "zip_code": "94121", "country": "US", "state": "CA", "display_address": ["2140 Clement St", "San Francisco, CA 94121"]}, "phone": "+14157801629", "display_phone": "(415) 780-1629", "distance": 4699.030548477603}, {"id": "Y8QT8TKQMRUiU76-PKi8Wg", "alias": "sake-bomb-san-francisco", "name": "Sake Bomb", "image_url": "https://s3-media3.fl.yelpcdn.com/bphoto/gzfRdkn6Gorse_OT6Jljew/o.jpg", "is_closed": false, "url": "https://www.yelp.com/biz/sake-bomb-san-francisco?adjust_creative=Klanz-jboxl2XzqrjP6LLw&utm_campaign=yelp_api_v3&utm_medium=api_v3_business_search&utm_source=Klanz-jboxl2XzqrjP6LLw", "review_count": 128, "categories": [{"alias": "japanese", "title": "Japanese"}, {"alias": "sushi", "title": "Sushi Bars"}], "rating": 4.5, "coordinates": {"latitude": 37.75288, "longitude": -122.40984}, "transactions": ["delivery", "restaurant_reservation", "pickup"], "price": "$$", "location": {"address1": "2878 24th St", "address2": null, "address3": "", "city": "San Francisco", "zip_code": "94110", "country": "US", "state": "CA", "display_address": ["2878 24th St", "San Francisco, CA 94110"]}, "phone": "+14158242878", "display_phone": "(415) 824-2878", "distance": 2496.8723694594883}, {"id": "NMTWmJKWxJD1flwkn7JIPA", "alias": "ace-wasabi-rock-n-roll-sushi-san-francisco", "name": "Ace Wasabi  Rock-N-Roll Sushi", "image_url": "https://s3-media2.fl.yelpcdn.com/bphoto/0a15BpV0emDFaEMmoAtwnw/o.jpg", "is_closed": false, "url": "https://www.yelp.com/biz/ace-wasabi-rock-n-roll-sushi-san-francisco?adjust_creative=Klanz-jboxl2XzqrjP6LLw&utm_campaign=yelp_api_v3&utm_medium=api_v3_business_search&utm_source=Klanz-jboxl2XzqrjP6LLw", "review_count": 995, "categories": [{"alias": "sushi", "title": "Sushi Bars"}, {"alias": "japanese", "title": "Japanese"}], "rating": 4.0, "coordinates": {"latitude": 37.80016, "longitude": -122.43813}, "transactions": ["delivery", "pickup"], "price": "$$", "location": {"address1": "3339 Steiner St", "address2": "", "address3": "", "city": "San Francisco", "zip_code": "94123", "country": "US", "state": "CA", "display_address": ["3339 Steiner St", "San Francisco, CA 94123"]}, "phone": "+14155674903", "display_phone": "(415) 567-4903", "distance": 4371.288520776773}, {"id": "ugfxjGQZ8sHeIQBZjjaw2w", "alias": "iyasare-berkeley", "name": "Iyasare", "image_url": "https://s3-media3.fl.yelpcdn.com/bphoto/xemWtBind80yat9Zif0AGw/o.jpg", "is_closed": false, "url": "https://www.yelp.com/biz/iyasare-berkeley?adjust_creative=Klanz-jboxl2XzqrjP6LLw&utm_campaign=yelp_api_v3&utm_medium=api_v3_business_search&utm_source=Klanz-jboxl2XzqrjP6LLw", "review_count": 681, "categories": [{"alias": "japanese", "title": "Japanese"}, {"alias": "bars", "title": "Bars"}], "rating": 4.0, "coordinates": {"latitude": 37.86932, "longitude": -122.30061}, "transactions": ["delivery"], "price": "$$$", "location": {"address1": "1830 Fourth St", "address2": "", "address3": "", "city": "Berkeley", "zip_code": "94710", "country": "US", "state": "CA", "display_address": ["1830 Fourth St", "Berkeley, CA 94710"]}, "phone": "+15108458100", "display_phone": "(510) 845-8100", "distance": 16953.0405623478}, {"id": "bm7sU0_SNY0k2ZX65YqTsA", "alias": "wasabi-bistro-san-francisco", "name": "Wasabi Bistro", "image_url": "https://s3-media1.fl.yelpcdn.com/bphoto/17MhOZyRJeGbSLP8tSdseA/o.jpg", "is_closed": false, "url": "https://www.yelp.com/biz/wasabi-bistro-san-francisco?adjust_creative=Klanz-jboxl2XzqrjP6LLw&utm_campaign=yelp_api_v3&utm_medium=api_v3_business_search&utm_source=Klanz-jboxl2XzqrjP6LLw", "review_count": 497, "categories": [{"alias": "sushi", "title": "Sushi Bars"}, {"alias": "japanese", "title": "Japanese"}], "rating": 4.0, "coordinates": {"latitude": 37.7604103, "longitude": -122.4351501}, "transactions": ["delivery", "pickup"], "price": "$$", "location": {"address1": "524 Castro St", "address2": "", "address3": "", "city": "San Francisco", "zip_code": "94114", "country": "US", "state": "CA", "display_address": ["524 Castro St", "San Francisco, CA 94114"]}, "phone": "+14157010082", "display_phone": "(415) 701-0082", "distance": 122.83689463327856}, {"id": "asH-knnEKgzAFP1q32Ilrg", "alias": "tokyo-sushi-and-bar-south-san-francisco", "name": "Tokyo Sushi & Bar", "image_url": "https://s3-media2.fl.yelpcdn.com/bphoto/xXjYBbXRFbgoUa5pQepzuw/o.jpg", "is_closed": false, "url": "https://www.yelp.com/biz/tokyo-sushi-and-bar-south-san-francisco?adjust_creative=Klanz-jboxl2XzqrjP6LLw&utm_campaign=yelp_api_v3&utm_medium=api_v3_business_search&utm_source=Klanz-jboxl2XzqrjP6LLw", "review_count": 647, "categories": [{"alias": "japanese", "title": "Japanese"}, {"alias": "bars", "title": "Bars"}, {"alias": "sushi", "title": "Sushi Bars"}], "rating": 3.5, "coordinates": {"latitude": 37.644888, "longitude": -122.452908}, "transactions": ["delivery", "pickup"], "price": "$$", "location": {"address1": "2278 Westborough Blvd", "address2": "Ste 201", "address3": "", "city": "South San Francisco", "zip_code": "94080", "country": "US", "state": "CA", "display_address": ["2278 Westborough Blvd", "Ste 201", "South San Francisco, CA 94080"]}, "phone": "+16508089898", "display_phone": "(650) 808-9898", "distance": 12980.896473544419}, {"id": "nCu5bwtvVr04_KvuVGJxBw", "alias": "sushi-on-north-beach-katsu-san-francisco", "name": "Sushi On North Beach - Katsu", "image_url": "https://s3-media1.fl.yelpcdn.com/bphoto/8hSVRXeEjbZMpf1DYeinug/o.jpg", "is_closed": false, "url": "https://www.yelp.com/biz/sushi-on-north-beach-katsu-san-francisco?adjust_creative=Klanz-jboxl2XzqrjP6LLw&utm_campaign=yelp_api_v3&utm_medium=api_v3_business_search&utm_source=Klanz-jboxl2XzqrjP6LLw", "review_count": 588, "categories": [{"alias": "sushi", "title": "Sushi Bars"}, {"alias": "japanese", "title": "Japanese"}, {"alias": "desserts", "title": "Desserts"}], "rating": 4.0, "coordinates": {"latitude": 37.80152, "longitude": -122.41227}, "transactions": ["delivery", "pickup"], "price": "$$", "location": {"address1": "745 Columbus Ave", "address2": "", "address3": "", "city": "San Francisco", "zip_code": "94133", "country": "US", "state": "CA", "display_address": ["745 Columbus Ave", "San Francisco, CA 94133"]}, "phone": "+14157888050", "display_phone": "(415) 788-8050", "distance": 4991.236550268444}, {"id": "M0JTO3oyu6gxh1mfFjU-dA", "alias": "san-tung-san-francisco-2", "name": "San Tung", "image_url": "https://s3-media2.fl.yelpcdn.com/bphoto/w7Ps0DWg-n8DWHSq22Rtww/o.jpg", "is_closed": false, "url": "https://www.yelp.com/biz/san-tung-san-francisco-2?adjust_creative=Klanz-jboxl2XzqrjP6LLw&utm_campaign=yelp_api_v3&utm_medium=api_v3_business_search&utm_source=Klanz-jboxl2XzqrjP6LLw", "review_count": 7361, "categories": [{"alias": "chinese", "title": "Chinese"}, {"alias": "chicken_wings", "title": "Chicken Wings"}, {"alias": "noodles", "title": "Noodles"}], "rating": 4.0, "coordinates": {"latitude": 37.76378306790313, "longitude": -122.46900735179602}, "transactions": ["delivery"], "price": "$$", "location": {"address1": "1031 Irving St", "address2": "", "address3": "", "city": "San Francisco", "zip_code": "94122", "country": "US", "state": "CA", "display_address": ["1031 Irving St", "San Francisco, CA 94122"]}, "phone": "+14152420828", "display_phone": "(415) 242-0828", "distance": 2880.1394717686867}, {"id": "9Z9EETl8fZIP4s9KOHr5kg", "alias": "um-ma-san-francisco-3", "name": "Um Ma", "image_url": "https://s3-media2.fl.yelpcdn.com/bphoto/V_VPMhkg8-fKGi3C2AQdzA/o.jpg", "is_closed": false, "url": "https://www.yelp.com/biz/um-ma-san-francisco-3?adjust_creative=Klanz-jboxl2XzqrjP6LLw&utm_campaign=yelp_api_v3&utm_medium=api_v3_business_search&utm_source=Klanz-jboxl2XzqrjP6LLw", "review_count": 487, "categories": [{"alias": "korean", "title": "Korean"}, {"alias": "bbq", "title": "Barbeque"}], "rating": 4.0, "coordinates": {"latitude": 37.765498241972274, "longitude": -122.4661957}, "transactions": ["delivery", "pickup"], "price": "$$", "location": {"address1": "1220 9th Ave", "address2": "/ 60 Morris st. (Delivery only)", "address3": "", "city": "San Francisco", "zip_code": "94122", "country": "US", "state": "CA", "display_address": ["1220 9th Ave", "/ 60 Morris st. (Delivery only)", "San Francisco, CA 94122"]}, "phone": "+14155665777", "display_phone": "(415) 566-5777", "distance": 2664.5731650785783}, {"id": "bUr4iq2mKKiBOu2HKynylg", "alias": "hrd-san-francisco-4", "name": "HRD", "image_url": "https://s3-media1.fl.yelpcdn.com/bphoto/G05B7mvYPHBpGu1wP1NK_Q/o.jpg", "is_closed": false, "url": "https://www.yelp.com/biz/hrd-san-francisco-4?adjust_creative=Klanz-jboxl2XzqrjP6LLw&utm_campaign=yelp_api_v3&utm_medium=api_v3_business_search&utm_source=Klanz-jboxl2XzqrjP6LLw", "review_count": 2518, "categories": [{"alias": "korean", "title": "Korean"}, {"alias": "asianfusion", "title": "Asian Fusion"}, {"alias": "mexican", "title": "Mexican"}], "rating": 4.0, "coordinates": {"latitude": 37.7811065758548, "longitude": -122.395329724426}, "transactions": ["delivery", "pickup"], "price": "$$", "location": {"address1": "521A 3rd St", "address2": null, "address3": "", "city": "San Francisco", "zip_code": "94107", "country": "US", "state": "CA", "display_address": ["521A 3rd St", "San Francisco, CA 94107"]}, "phone": "+14155432355", "display_phone": "(415) 543-2355", "distance": 4255.584833618084}, {"id": "D1GB7el1CaX-22CkX94zfw", "alias": "kittea-san-francisco-6", "name": "KitTea", "image_url": "https://s3-media1.fl.yelpcdn.com/bphoto/-dXXZMMgHf33LDVEiKmtTw/o.jpg", "is_closed": false, "url": "https://www.yelp.com/biz/kittea-san-francisco-6?adjust_creative=Klanz-jboxl2XzqrjP6LLw&utm_campaign=yelp_api_v3&utm_medium=api_v3_business_search&utm_source=Klanz-jboxl2XzqrjP6LLw", "review_count": 862, "categories": [{"alias": "petadoption", "title": "Pet Adoption"}, {"alias": "themedcafes", "title": "Themed Cafes"}], "rating": 4.5, "coordinates": {"latitude": 37.75264, "longitude": -122.4209327}, "transactions": ["delivery", "pickup"], "price": "$$", "location": {"address1": "1266 Valencia St", "address2": "", "address3": "", "city": "San Francisco", "zip_code": "94110", "country": "US", "state": "CA", "display_address": ["1266 Valencia St", "San Francisco, CA 94110"]}, "phone": "+14153255510", "display_phone": "(415) 325-5510", "distance": 1644.2998652721626}, {"id": "cWpnb38gytXaY5Bxr_Kd5g", "alias": "nakama-sushi-san-francisco", "name": "NAKAMA Sushi", "image_url": "https://s3-media2.fl.yelpcdn.com/bphoto/28__jEANgM7BXPxT-6Tw3w/o.jpg", "is_closed": false, "url": "https://www.yelp.com/biz/nakama-sushi-san-francisco?adjust_creative=Klanz-jboxl2XzqrjP6LLw&utm_campaign=yelp_api_v3&utm_medium=api_v3_business_search&utm_source=Klanz-jboxl2XzqrjP6LLw", "review_count": 136, "categories": [{"alias": "japanese", "title": "Japanese"}, {"alias": "sushi", "title": "Sushi Bars"}], "rating": 4.5, "coordinates": {"latitude": 37.77482717258473, "longitude": -122.42101687725595}, "transactions": ["delivery"], "location": {"address1": "41 Franklin St", "address2": "", "address3": null, "city": "San Francisco", "zip_code": "94102", "country": "US", "state": "CA", "display_address": ["41 Franklin St", "San Francisco, CA 94102"]}, "phone": "+16288676697", "display_phone": "(628) 867-6697", "distance": 2058.6500796660757}, {"id": "x9qz9nRR_OGXhuCDglkkfg", "alias": "super-pan-san-francisco-2", "name": "Super Pan", "image_url": "https://s3-media2.fl.yelpcdn.com/bphoto/ruKLzUzYRLvWfIZimi79lA/o.jpg", "is_closed": false, "url": "https://www.yelp.com/biz/super-pan-san-francisco-2?adjust_creative=Klanz-jboxl2XzqrjP6LLw&utm_campaign=yelp_api_v3&utm_medium=api_v3_business_search&utm_source=Klanz-jboxl2XzqrjP6LLw", "review_count": 392, "categories": [{"alias": "teppanyaki", "title": "Teppanyaki"}, {"alias": "ramen", "title": "Ramen"}, {"alias": "hotpot", "title": "Hot Pot"}], "rating": 4.0, "coordinates": {"latitude": 37.7806449, "longitude": -122.4769401}, "transactions": ["delivery", "pickup"], "price": "$$", "location": {"address1": "5344 Geary Blvd", "address2": null, "address3": "", "city": "San Francisco", "zip_code": "94121", "country": "US", "state": "CA", "display_address": ["5344 Geary Blvd", "San Francisco, CA 94121"]}, "phone": "+14156685344", "display_phone": "(415) 668-5344", "distance": 4181.901587153006}, {"id": "mpLeT6vG8CkxbdFLwFlpsw", "alias": "amami-sushi-san-bruno-3", "name": "Amami Sushi", "image_url": "https://s3-media4.fl.yelpcdn.com/bphoto/KeIokfEKUpD2_4encjsE2Q/o.jpg", "is_closed": false, "url": "https://www.yelp.com/biz/amami-sushi-san-bruno-3?adjust_creative=Klanz-jboxl2XzqrjP6LLw&utm_campaign=yelp_api_v3&utm_medium=api_v3_business_search&utm_source=Klanz-jboxl2XzqrjP6LLw", "review_count": 1334, "categories": [{"alias": "japanese", "title": "Japanese"}, {"alias": "sushi", "title": "Sushi Bars"}], "rating": 3.5, "coordinates": {"latitude": 37.61486, "longitude": -122.40642}, "transactions": ["delivery", "pickup"], "price": "$$", "location": {"address1": "1789 El Camino Real", "address2": "", "address3": "", "city": "San Bruno", "zip_code": "94066", "country": "US", "state": "CA", "display_address": ["1789 El Camino Real", "San Bruno, CA 94066"]}, "phone": "+16508722218", "display_phone": "(650) 872-2218", "distance": 16444.285461703133}, {"id": "0J97f38Wtf3sOT71nh_Iaw", "alias": "xiao-loong-restaurant-san-francisco", "name": "Xiao Loong Restaurant", "image_url": "https://s3-media4.fl.yelpcdn.com/bphoto/Mem8FiGXc0EMhP-PWSO69w/o.jpg", "is_closed": false, "url": "https://www.yelp.com/biz/xiao-loong-restaurant-san-francisco?adjust_creative=Klanz-jboxl2XzqrjP6LLw&utm_campaign=yelp_api_v3&utm_medium=api_v3_business_search&utm_source=Klanz-jboxl2XzqrjP6LLw", "review_count": 306, "categories": [{"alias": "chinese", "title": "Chinese"}], "rating": 4.0, "coordinates": {"latitude": 37.7385499, "longitude": -122.46884}, "transactions": ["delivery", "pickup"], "price": "$$", "location": {"address1": "250 W Portal Ave", "address2": "", "address3": "", "city": "San Francisco", "zip_code": "94127", "country": "US", "state": "CA", "display_address": ["250 W Portal Ave", "San Francisco, CA 94127"]}, "phone": "+14157535678", "display_phone": "(415) 753-5678", "distance": 3779.2957160324904}, {"id": "yMnXs2PuF5mtHBLwQZb23A", "alias": "amami-sushi-bistro-san-bruno-4", "name": "Amami Sushi Bistro", "image_url": "https://s3-media2.fl.yelpcdn.com/bphoto/aihsc9cBYCUDVrQYtagGnQ/o.jpg", "is_closed": false, "url": "https://www.yelp.com/biz/amami-sushi-bistro-san-bruno-4?adjust_creative=Klanz-jboxl2XzqrjP6LLw&utm_campaign=yelp_api_v3&utm_medium=api_v3_business_search&utm_source=Klanz-jboxl2XzqrjP6LLw", "review_count": 403, "categories": [{"alias": "sushi", "title": "Sushi Bars"}, {"alias": "japanese", "title": "Japanese"}, {"alias": "seafood", "title": "Seafood"}], "rating": 4.0, "coordinates": {"latitude": 37.62017, "longitude": -122.41025}, "transactions": ["delivery", "pickup"], "location": {"address1": "312 El Camino Real", "address2": "", "address3": null, "city": "San Bruno", "zip_code": "94066", "country": "US", "state": "CA", "display_address": ["312 El Camino Real", "San Bruno, CA 94066"]}, "phone": "+16508696088", "display_phone": "(650) 869-6088", "distance": 15817.2455310653}, {"id": "bvdEOVmFuWUV0sAALc_-zw", "alias": "harborview-restaurant-and-bar-san-francisco-2", "name": "Harborview Restaurant & Bar", "image_url": "https://s3-media2.fl.yelpcdn.com/bphoto/TUdjnuxExu7OEwnOa1FQGA/o.jpg", "is_closed": false, "url": "https://www.yelp.com/biz/harborview-restaurant-and-bar-san-francisco-2?adjust_creative=Klanz-jboxl2XzqrjP6LLw&utm_campaign=yelp_api_v3&utm_medium=api_v3_business_search&utm_source=Klanz-jboxl2XzqrjP6LLw", "review_count": 792, "categories": [{"alias": "chinese", "title": "Chinese"}, {"alias": "lounges", "title": "Lounges"}, {"alias": "seafood", "title": "Seafood"}], "rating": 4.0, "coordinates": {"latitude": 37.794959, "longitude": -122.395663}, "transactions": ["restaurant_reservation", "pickup"], "price": "$$", "location": {"address1": "4 Embarcadero Ctr", "address2": "Street Level", "address3": null, "city": "San Francisco", "zip_code": "94111", "country": "US", "state": "CA", "display_address": ["4 Embarcadero Ctr", "Street Level", "San Francisco, CA 94111"]}, "phone": "+14153991200", "display_phone": "(415) 399-1200", "distance": 5214.5257780303045}, {"id": "2FOv-XAZ2sMIlrE5xJc1Hw", "alias": "eight-tables-by-george-chen-san-francisco", "name": "Eight Tables by George Chen", "image_url": "https://s3-media3.fl.yelpcdn.com/bphoto/4ZymlTS6U6qdmNva10-Mkg/o.jpg", "is_closed": false, "url": "https://www.yelp.com/biz/eight-tables-by-george-chen-san-francisco?adjust_creative=Klanz-jboxl2XzqrjP6LLw&utm_campaign=yelp_api_v3&utm_medium=api_v3_business_search&utm_source=Klanz-jboxl2XzqrjP6LLw", "review_count": 156, "categories": [{"alias": "chinese", "title": "Chinese"}], "rating": 4.5, "coordinates": {"latitude": 37.7984516089432, "longitude": -122.407781330184}, "transactions": [], "price": "$$$$", "location": {"address1": "8 Kenneth Rexroth Pl", "address2": "", "address3": null, "city": "San Francisco", "zip_code": "94133", "country": "US", "state": "CA", "display_address": ["8 Kenneth Rexroth Pl", "San Francisco, CA 94133"]}, "phone": "+14157888788", "display_phone": "(415) 788-8788", "distance": 4862.361115667435}, {"id": "n-ZuXqDouMCbvYsP1kDhqA", "alias": "wok-station-san-francisco-2", "name": "Wok Station", "image_url": "https://s3-media1.fl.yelpcdn.com/bphoto/32Mg3Wizx6fVhyV__qlJSQ/o.jpg", "is_closed": false, "url": "https://www.yelp.com/biz/wok-station-san-francisco-2?adjust_creative=Klanz-jboxl2XzqrjP6LLw&utm_campaign=yelp_api_v3&utm_medium=api_v3_business_search&utm_source=Klanz-jboxl2XzqrjP6LLw", "review_count": 304, "categories": [{"alias": "chinese", "title": "Chinese"}], "rating": 4.0, "coordinates": {"latitude": 37.7635202819256, "longitude": -122.481261156499}, "transactions": ["delivery", "pickup"], "price": "$$", "location": {"address1": "2154 Irving St", "address2": "", "address3": "", "city": "San Francisco", "zip_code": "94122", "country": "US", "state": "CA", "display_address": ["2154 Irving St", "San Francisco, CA 94122"]}, "phone": "+14156389998", "display_phone": "(415) 638-9998", "distance": 3950.188332061807}, {"id": "_TVBDjUzNKi4HEmUT4yPGA", "alias": "kaiy\u014d-cow-hollow-san-francisco", "name": "KAIY\u014c Cow Hollow", "image_url": "https://s3-media1.fl.yelpcdn.com/bphoto/Lkyv0Z48ip8WpBz2DdcXqA/o.jpg", "is_closed": false, "url": "https://www.yelp.com/biz/kaiy%C5%8D-cow-hollow-san-francisco?adjust_creative=Klanz-jboxl2XzqrjP6LLw&utm_campaign=yelp_api_v3&utm_medium=api_v3_business_search&utm_source=Klanz-jboxl2XzqrjP6LLw", "review_count": 479, "categories": [{"alias": "japanese", "title": "Japanese"}, {"alias": "peruvian", "title": "Peruvian"}, {"alias": "cocktailbars", "title": "Cocktail Bars"}], "rating": 4.0, "coordinates": {"latitude": 37.79801, "longitude": -122.42967}, "transactions": ["delivery", "restaurant_reservation"], "location": {"address1": "1838 Union St", "address2": "", "address3": null, "city": "San Francisco", "zip_code": "94123", "country": "US", "state": "CA", "display_address": ["1838 Union St", "San Francisco, CA 94123"]}, "phone": "+14155254804", "display_phone": "(415) 525-4804", "distance": 4165.528826903431}, {"id": "l-udkAuhZ-LEU_3PUabDKg", "alias": "sushi-genki-san-francisco-5", "name": "Sushi Genki ", "image_url": "https://s3-media4.fl.yelpcdn.com/bphoto/0DBWmSjy6bTEdymmb9byGw/o.jpg", "is_closed": false, "url": "https://www.yelp.com/biz/sushi-genki-san-francisco-5?adjust_creative=Klanz-jboxl2XzqrjP6LLw&utm_campaign=yelp_api_v3&utm_medium=api_v3_business_search&utm_source=Klanz-jboxl2XzqrjP6LLw", "review_count": 15, "categories": [{"alias": "bars", "title": "Bars"}, {"alias": "foodstands", "title": "Food Stands"}, {"alias": "japanese", "title": "Japanese"}], "rating": 4.5, "coordinates": {"latitude": 37.75347625609643, "longitude": -122.4910582}, "transactions": ["delivery", "pickup"], "price": "$$", "location": {"address1": "2543 Noriega St", "address2": null, "address3": "", "city": "San Francisco", "zip_code": "94122", "country": "US", "state": "CA", "display_address": ["2543 Noriega St", "San Francisco, CA 94122"]}, "phone": "+14157539383", "display_phone": "(415) 753-9383", "distance": 4871.407342643124}, {"id": "OXXevTdHrgXzz5Fo3ugytg", "alias": "shirasoni-japanese-restaurant-alameda", "name": "Shirasoni Japanese Restaurant", "image_url": "https://s3-media1.fl.yelpcdn.com/bphoto/-hFxsLi6b0k7AO2LVW_82Q/o.jpg", "is_closed": false, "url": "https://www.yelp.com/biz/shirasoni-japanese-restaurant-alameda?adjust_creative=Klanz-jboxl2XzqrjP6LLw&utm_campaign=yelp_api_v3&utm_medium=api_v3_business_search&utm_source=Klanz-jboxl2XzqrjP6LLw", "review_count": 562, "categories": [{"alias": "teppanyaki", "title": "Teppanyaki"}, {"alias": "asianfusion", "title": "Asian Fusion"}, {"alias": "sushi", "title": "Sushi Bars"}], "rating": 3.0, "coordinates": {"latitude": 37.7872522, "longitude": -122.2792542}, "transactions": ["delivery", "pickup"], "price": "$$$", "location": {"address1": "2660 5th St", "address2": "Ste A", "address3": "", "city": "Alameda", "zip_code": "94501", "country": "US", "state": "CA", "display_address": ["2660 5th St", "Ste A", "Alameda, CA 94501"]}, "phone": "+15102394285", "display_phone": "(510) 239-4285", "distance": 14123.325172991908}, {"id": "UdRV_X0aah6c2_LLbB8dGg", "alias": "yama-chan-san-francisco", "name": "Yama-chan", "image_url": "https://s3-media1.fl.yelpcdn.com/bphoto/uvgmmk4LDybM7DF7O5sU8A/o.jpg", "is_closed": false, "url": "https://www.yelp.com/biz/yama-chan-san-francisco?adjust_creative=Klanz-jboxl2XzqrjP6LLw&utm_campaign=yelp_api_v3&utm_medium=api_v3_business_search&utm_source=Klanz-jboxl2XzqrjP6LLw", "review_count": 149, "categories": [{"alias": "japanese", "title": "Japanese"}], "rating": 4.0, "coordinates": {"latitude": 37.7852806356548, "longitude": -122.4291242057716}, "transactions": ["delivery"], "price": "$", "location": {"address1": "1737 Post St", "address2": "Ste 395", "address3": null, "city": "San Francisco", "zip_code": "94115", "country": "US", "state": "CA", "display_address": ["1737 Post St", "Ste 395", "San Francisco, CA 94115"]}, "phone": "", "display_phone": "", "distance": 2786.4235191168755}, {"id": "JdHEVcbbZjr4GR2m-69-yA", "alias": "sakana-bune-japanese-restaurant-san-francisco", "name": "Sakana Bune Japanese Restaurant", "image_url": "https://s3-media4.fl.yelpcdn.com/bphoto/2H5VOgzn0V_cnsUIAdeb6g/o.jpg", "is_closed": false, "url": "https://www.yelp.com/biz/sakana-bune-japanese-restaurant-san-francisco?adjust_creative=Klanz-jboxl2XzqrjP6LLw&utm_campaign=yelp_api_v3&utm_medium=api_v3_business_search&utm_source=Klanz-jboxl2XzqrjP6LLw", "review_count": 659, "categories": [{"alias": "sushi", "title": "Sushi Bars"}, {"alias": "conveyorsushi", "title": "Conveyor Belt Sushi"}], "rating": 3.5, "coordinates": {"latitude": 37.780108, "longitude": -122.480577}, "transactions": ["delivery"], "price": "$$", "location": {"address1": "5701 Geary Blvd", "address2": "", "address3": "", "city": "San Francisco", "zip_code": "94121", "country": "US", "state": "CA", "display_address": ["5701 Geary Blvd", "San Francisco, CA 94121"]}, "phone": "+14153878561", "display_phone": "(415) 387-8561", "distance": 4428.0369580790975}, {"id": "2E9O-p-lp587aOMnpLepkQ", "alias": "jijime-san-francisco-8", "name": "JIJIME", "image_url": "https://s3-media2.fl.yelpcdn.com/bphoto/KjLJyW5REgYcnF88nH21IQ/o.jpg", "is_closed": false, "url": "https://www.yelp.com/biz/jijime-san-francisco-8?adjust_creative=Klanz-jboxl2XzqrjP6LLw&utm_campaign=yelp_api_v3&utm_medium=api_v3_business_search&utm_source=Klanz-jboxl2XzqrjP6LLw", "review_count": 416, "categories": [{"alias": "korean", "title": "Korean"}, {"alias": "asianfusion", "title": "Asian Fusion"}, {"alias": "ramen", "title": "Ramen"}], "rating": 4.5, "coordinates": {"latitude": 37.7806549278456, "longitude": -122.478949574806}, "transactions": ["delivery", "pickup"], "price": "$$", "location": {"address1": "5524 Geary Blvd", "address2": "", "address3": null, "city": "San Francisco", "zip_code": "94121", "country": "US", "state": "CA", "display_address": ["5524 Geary Blvd", "San Francisco, CA 94121"]}, "phone": "+14152215353", "display_phone": "(415) 221-5353", "distance": 4333.781775165417}, {"id": "aP8bXfX6FzBnhZhQMmC08g", "alias": "ippudo-san-francisco-san-francisco-3", "name": "Ippudo San Francisco", "image_url": "https://s3-media2.fl.yelpcdn.com/bphoto/SE7nWXAFunjmSGNHVNyDFQ/o.jpg", "is_closed": false, "url": "https://www.yelp.com/biz/ippudo-san-francisco-san-francisco-3?adjust_creative=Klanz-jboxl2XzqrjP6LLw&utm_campaign=yelp_api_v3&utm_medium=api_v3_business_search&utm_source=Klanz-jboxl2XzqrjP6LLw", "review_count": 1080, "categories": [{"alias": "ramen", "title": "Ramen"}, {"alias": "noodles", "title": "Noodles"}, {"alias": "soup", "title": "Soup"}], "rating": 3.5, "coordinates": {"latitude": 37.785942, "longitude": -122.404501}, "transactions": ["delivery", "pickup"], "price": "$$", "location": {"address1": "18 Yerba Buena Ln", "address2": "", "address3": null, "city": "San Francisco", "zip_code": "94103", "country": "US", "state": "CA", "display_address": ["18 Yerba Buena Ln", "San Francisco, CA 94103"]}, "phone": "+14153481202", "display_phone": "(415) 348-1202", "distance": 3954.48779638075}, {"id": "CvCvwr6f3zBwXuZhmYQZ3g", "alias": "okkon-japanese-street-food-san-francisco", "name": "Okkon Japanese Street Food", "image_url": "https://s3-media2.fl.yelpcdn.com/bphoto/U5ehE1JJTbfhMzLqfAZrNA/o.jpg", "is_closed": false, "url": "https://www.yelp.com/biz/okkon-japanese-street-food-san-francisco?adjust_creative=Klanz-jboxl2XzqrjP6LLw&utm_campaign=yelp_api_v3&utm_medium=api_v3_business_search&utm_source=Klanz-jboxl2XzqrjP6LLw", "review_count": 18, "categories": [{"alias": "japanese", "title": "Japanese"}], "rating": 4.5, "coordinates": {"latitude": 37.76881, "longitude": -122.41511}, "transactions": [], "price": "$$", "location": {"address1": "82 14th St", "address2": "", "address3": null, "city": "San Francisco", "zip_code": "94103", "country": "US", "state": "CA", "display_address": ["82 14th St", "San Francisco, CA 94103"]}, "phone": "+15105900482", "display_phone": "(510) 590-0482", "distance": 2071.3606512265674}, {"id": "rYUtKreo_ze9XZ5motwqWw", "alias": "uoyakutei-japanese-restaurant-pacifica", "name": "Uoyakutei Japanese Restaurant", "image_url": "https://s3-media1.fl.yelpcdn.com/bphoto/ZHTqU6yluYXZxc0Q5B626w/o.jpg", "is_closed": false, "url": "https://www.yelp.com/biz/uoyakutei-japanese-restaurant-pacifica?adjust_creative=Klanz-jboxl2XzqrjP6LLw&utm_campaign=yelp_api_v3&utm_medium=api_v3_business_search&utm_source=Klanz-jboxl2XzqrjP6LLw", "review_count": 219, "categories": [{"alias": "sushi", "title": "Sushi Bars"}, {"alias": "japanese", "title": "Japanese"}, {"alias": "desserts", "title": "Desserts"}], "rating": 4.0, "coordinates": {"latitude": 37.609687, "longitude": -122.494247}, "transactions": ["delivery", "pickup"], "price": "$$", "location": {"address1": "4408 Pacific Coast Hwy", "address2": "", "address3": "", "city": "Pacifica", "zip_code": "94044", "country": "US", "state": "CA", "display_address": ["4408 Pacific Coast Hwy", "Pacifica, CA 94044"]}, "phone": "+16508988183", "display_phone": "(650) 898-8183", "distance": 17559.601418784754}, {"id": "pLZFRsn8HjVzcITHqa8Yfw", "alias": "on-the-bridge-san-francisco", "name": "On the Bridge", "image_url": "https://s3-media2.fl.yelpcdn.com/bphoto/AfaykoHuh-Ko9e9xTUKepQ/o.jpg", "is_closed": false, "url": "https://www.yelp.com/biz/on-the-bridge-san-francisco?adjust_creative=Klanz-jboxl2XzqrjP6LLw&utm_campaign=yelp_api_v3&utm_medium=api_v3_business_search&utm_source=Klanz-jboxl2XzqrjP6LLw", "review_count": 1132, "categories": [{"alias": "japacurry", "title": "Japanese Curry"}, {"alias": "noodles", "title": "Noodles"}, {"alias": "asianfusion", "title": "Asian Fusion"}], "rating": 3.5, "coordinates": {"latitude": 37.7851855192462, "longitude": -122.431340884675}, "transactions": ["delivery", "pickup"], "price": "$$", "location": {"address1": "1581 Webster St", "address2": "Ste 205", "address3": "", "city": "San Francisco", "zip_code": "94115", "country": "US", "state": "CA", "display_address": ["1581 Webster St", "Ste 205", "San Francisco, CA 94115"]}, "phone": "+14159227765", "display_phone": "(415) 922-7765", "distance": 2737.5317353540245}, {"id": "jBdCBZc7-ab7c2tpoIEWJw", "alias": "cocobang-san-francisco", "name": "Cocobang", "image_url": "https://s3-media4.fl.yelpcdn.com/bphoto/SyVefsuVXf8gztNBjHsAIA/o.jpg", "is_closed": false, "url": "https://www.yelp.com/biz/cocobang-san-francisco?adjust_creative=Klanz-jboxl2XzqrjP6LLw&utm_campaign=yelp_api_v3&utm_medium=api_v3_business_search&utm_source=Klanz-jboxl2XzqrjP6LLw", "review_count": 1015, "categories": [{"alias": "korean", "title": "Korean"}], "rating": 3.5, "coordinates": {"latitude": 37.78771, "longitude": -122.41139}, "transactions": ["delivery", "pickup"], "price": "$$", "location": {"address1": "550 Taylor St", "address2": null, "address3": "", "city": "San Francisco", "zip_code": "94102", "country": "US", "state": "CA", "display_address": ["550 Taylor St", "San Francisco, CA 94102"]}, "phone": "+14152925144", "display_phone": "(415) 292-5144", "distance": 3693.359551457288}, {"id": "VGb0wBUFj7sBwJdru345qg", "alias": "tenroku-sushi-san-francisco", "name": "Tenroku Sushi", "image_url": "https://s3-media4.fl.yelpcdn.com/bphoto/Iyx3wRR2AIrXNjXpmKmmQQ/o.jpg", "is_closed": false, "url": "https://www.yelp.com/biz/tenroku-sushi-san-francisco?adjust_creative=Klanz-jboxl2XzqrjP6LLw&utm_campaign=yelp_api_v3&utm_medium=api_v3_business_search&utm_source=Klanz-jboxl2XzqrjP6LLw", "review_count": 478, "categories": [{"alias": "conveyorsushi", "title": "Conveyor Belt Sushi"}], "rating": 3.5, "coordinates": {"latitude": 37.78495206994753, "longitude": -122.43205872541012}, "transactions": ["delivery", "pickup"], "price": "$$", "location": {"address1": "1825 Post St", "address2": "Ste 215", "address3": "", "city": "San Francisco", "zip_code": "94115", "country": "US", "state": "CA", "display_address": ["1825 Post St", "Ste 215", "San Francisco, CA 94115"]}, "phone": "+14156731328", "display_phone": "(415) 673-1328", "distance": 2702.2030361406887}, {"id": "PFk6k_hEGG0n6_FAJSm9EQ", "alias": "woodhouse-fish-company-san-francisco-3", "name": "Woodhouse Fish Company", "image_url": "https://s3-media1.fl.yelpcdn.com/bphoto/ylk0187IT8kgwr-fIPz7RA/o.jpg", "is_closed": false, "url": "https://www.yelp.com/biz/woodhouse-fish-company-san-francisco-3?adjust_creative=Klanz-jboxl2XzqrjP6LLw&utm_campaign=yelp_api_v3&utm_medium=api_v3_business_search&utm_source=Klanz-jboxl2XzqrjP6LLw", "review_count": 2382, "categories": [{"alias": "seafood", "title": "Seafood"}, {"alias": "newamerican", "title": "American (New)"}], "rating": 4.0, "coordinates": {"latitude": 37.78742, "longitude": -122.43327}, "transactions": ["delivery"], "price": "$$", "location": {"address1": "1914 Fillmore St", "address2": "", "address3": "", "city": "San Francisco", "zip_code": "94115", "country": "US", "state": "CA", "display_address": ["1914 Fillmore St", "San Francisco, CA 94115"]}, "phone": "+14154372722", "display_phone": "(415) 437-2722", "distance": 2966.614164301847}], "total": 1600, "region": {"center": {"longitude": -122.43644714355469, "latitude": 37.76089938976322}}}