{"businesses": [{"id": "EFiGE7p62R1vOOKuA62Udw", "alias": "aburaya-go-oakland-2", "name": "Aburaya Go", "image_url": "https://s3-media3.fl.yelpcdn.com/bphoto/7utlh868Gmb0Yjjokjejxw/o.jpg", "is_closed": false, "url": "https://www.yelp.com/biz/aburaya-go-oakland-2?adjust_creative=Klanz-jboxl2XzqrjP6LLw&utm_campaign=yelp_api_v3&utm_medium=api_v3_business_search&utm_source=Klanz-jboxl2XzqrjP6LLw", "review_count": 16, "categories": [{"alias": "japanese", "title": "Japanese"}], "rating": 4.5, "coordinates": {"latitude": 37.8047995, "longitude": -122.2689456}, "transactions": ["delivery"], "location": {"address1": "380 15th St", "address2": "", "address3": null, "city": "Oakland", "zip_code": "94612", "country": "US", "state": "CA", "display_address": ["380 15th St", "Oakland, CA 94612"]}, "phone": "+15106031040", "display_phone": "(510) 603-1040", "distance": 15508.56493068772}, {"id": "dNyfcHW9qlAo9V4Raa5EwA", "alias": "red-a-bakery-san-francisco-3", "name": "Red A Bakery", "image_url": "https://s3-media4.fl.yelpcdn.com/bphoto/-ssIIorfY7VVSITudP_hlw/o.jpg", "is_closed": false, "url": "https://www.yelp.com/biz/red-a-bakery-san-francisco-3?adjust_creative=Klanz-jboxl2XzqrjP6LLw&utm_campaign=yelp_api_v3&utm_medium=api_v3_business_search&utm_source=Klanz-jboxl2XzqrjP6LLw", "review_count": 204, "categories": [{"alias": "hawaiian", "title": "Hawaiian"}, {"alias": "bakeries", "title": "Bakeries"}, {"alias": "chinese", "title": "Chinese"}], "rating": 4.0, "coordinates": {"latitude": 37.7831382751465, "longitude": -122.466133117676}, "transactions": ["delivery"], "price": "$", "location": {"address1": "634 Clement St", "address2": null, "address3": "", "city": "San Francisco", "zip_code": "94118", "country": "US", "state": "CA", "display_address": ["634 Clement St", "San Francisco, CA 94118"]}, "phone": "+14156688881", "display_phone": "(415) 668-8881", "distance": 3592.0688741919207}, {"id": "K24TuqugeeJVkaFkS166BA", "alias": "yuanbao-jiaozi-san-francisco-2", "name": "Yuanbao Jiaozi", "image_url": "https://s3-media3.fl.yelpcdn.com/bphoto/sebyeRQVJ-z5o_Z_tEfxcg/o.jpg", "is_closed": false, "url": "https://www.yelp.com/biz/yuanbao-jiaozi-san-francisco-2?adjust_creative=Klanz-jboxl2XzqrjP6LLw&utm_campaign=yelp_api_v3&utm_medium=api_v3_business_search&utm_source=Klanz-jboxl2XzqrjP6LLw", "review_count": 418, "categories": [{"alias": "chinese", "title": "Chinese"}, {"alias": "noodles", "title": "Noodles"}], "rating": 4.5, "coordinates": {"latitude": 37.76356, "longitude": -122.48067}, "transactions": ["delivery"], "price": "$$", "location": {"address1": "2110 Irving St", "address2": "", "address3": null, "city": "San Francisco", "zip_code": "94122", "country": "US", "state": "CA", "display_address": ["2110 Irving St", "San Francisco, CA 94122"]}, "phone": "+14157026506", "display_phone": "(415) 702-6506", "distance": 3905.0909265492787}, {"id": "UKxBXgFYhRXlwJjFpFoidQ", "alias": "bowld-bbq-oakland-5", "name": "Bowl'd BBQ", "image_url": "https://s3-media2.fl.yelpcdn.com/bphoto/FLhhoFGpMcYW6_lMa9_VTA/o.jpg", "is_closed": false, "url": "https://www.yelp.com/biz/bowld-bbq-oakland-5?adjust_creative=Klanz-jboxl2XzqrjP6LLw&utm_campaign=yelp_api_v3&utm_medium=api_v3_business_search&utm_source=Klanz-jboxl2XzqrjP6LLw", "review_count": 651, "categories": [{"alias": "korean", "title": "Korean"}, {"alias": "bbq", "title": "Barbeque"}], "rating": 4.0, "coordinates": {"latitude": 37.835344, "longitude": -122.263}, "transactions": ["delivery"], "price": "$$", "location": {"address1": "4869 Telegraph Ave", "address2": "", "address3": "", "city": "Oakland", "zip_code": "94609", "country": "US", "state": "CA", "display_address": ["4869 Telegraph Ave", "Oakland, CA 94609"]}, "phone": "+15106542000", "display_phone": "(510) 654-2000", "distance": 17342.71113297213}, {"id": "MIN0JVOanRNNg0A-rtUh0A", "alias": "campus-san-francisco", "name": "Campus", "image_url": "https://s3-media3.fl.yelpcdn.com/bphoto/O4tf_rkiKm3BGQnJ7-RtGQ/o.jpg", "is_closed": false, "url": "https://www.yelp.com/biz/campus-san-francisco?adjust_creative=Klanz-jboxl2XzqrjP6LLw&utm_campaign=yelp_api_v3&utm_medium=api_v3_business_search&utm_source=Klanz-jboxl2XzqrjP6LLw", "review_count": 121, "categories": [{"alias": "lounges", "title": "Lounges"}, {"alias": "sportsbars", "title": "Sports Bars"}, {"alias": "cocktailbars", "title": "Cocktail Bars"}], "rating": 4.0, "coordinates": {"latitude": 37.8002109177763, "longitude": -122.440251521766}, "transactions": [], "price": "$$", "location": {"address1": "2241 Chestnut St", "address2": "", "address3": "", "city": "San Francisco", "zip_code": "94123", "country": "US", "state": "CA", "display_address": ["2241 Chestnut St", "San Francisco, CA 94123"]}, "phone": "+14158964110", "display_phone": "(415) 896-4110", "distance": 4384.005578210194}, {"id": "5Mqsd52IEJtV9dUJAhcTlQ", "alias": "lucky-creation-vegetarian-restaurant-san-francisco", "name": "Lucky Creation Vegetarian Restaurant", "image_url": "https://s3-media1.fl.yelpcdn.com/bphoto/UZY3QdYltj9mhM7o3byfTQ/o.jpg", "is_closed": false, "url": "https://www.yelp.com/biz/lucky-creation-vegetarian-restaurant-san-francisco?adjust_creative=Klanz-jboxl2XzqrjP6LLw&utm_campaign=yelp_api_v3&utm_medium=api_v3_business_search&utm_source=Klanz-jboxl2XzqrjP6LLw", "review_count": 563, "categories": [{"alias": "vegetarian", "title": "Vegetarian"}, {"alias": "chinese", "title": "Chinese"}, {"alias": "vegan", "title": "Vegan"}], "rating": 4.0, "coordinates": {"latitude": 37.7951059659376, "longitude": -122.407378596858}, "transactions": ["delivery"], "price": "$", "location": {"address1": "854 Washington St", "address2": "", "address3": "", "city": "San Francisco", "zip_code": "94108", "country": "US", "state": "CA", "display_address": ["854 Washington St", "San Francisco, CA 94108"]}, "phone": "+14159890818", "display_phone": "(415) 989-0818", "distance": 4581.9319248844195}, {"id": "hEXhf40Y9PdnYJzT_LEJlg", "alias": "mission-bowling-club-san-francisco", "name": "Mission Bowling Club", "image_url": "https://s3-media1.fl.yelpcdn.com/bphoto/50zZyUfdN5ArY-G8XloS9A/o.jpg", "is_closed": false, "url": "https://www.yelp.com/biz/mission-bowling-club-san-francisco?adjust_creative=Klanz-jboxl2XzqrjP6LLw&utm_campaign=yelp_api_v3&utm_medium=api_v3_business_search&utm_source=Klanz-jboxl2XzqrjP6LLw", "review_count": 620, "categories": [{"alias": "bowling", "title": "Bowling"}, {"alias": "breakfast_brunch", "title": "Breakfast & Brunch"}, {"alias": "cocktailbars", "title": "Cocktail Bars"}], "rating": 4.0, "coordinates": {"latitude": 37.76393, "longitude": -122.41672}, "transactions": ["pickup", "restaurant_reservation", "delivery"], "price": "$$", "location": {"address1": "3176 17th St", "address2": "", "address3": "", "city": "San Francisco", "zip_code": "94110", "country": "US", "state": "CA", "display_address": ["3176 17th St", "San Francisco, CA 94110"]}, "phone": "+14158632695", "display_phone": "(415) 863-2695", "distance": 1768.836646865921}, {"id": "kK3mQIO-Jn0IgygUu-IYPA", "alias": "tastee-steam-kitchen-oakland", "name": "Tastee Steam Kitchen", "image_url": "https://s3-media2.fl.yelpcdn.com/bphoto/qnD7SPInGdmV8JZcXPHzOQ/o.jpg", "is_closed": false, "url": "https://www.yelp.com/biz/tastee-steam-kitchen-oakland?adjust_creative=Klanz-jboxl2XzqrjP6LLw&utm_campaign=yelp_api_v3&utm_medium=api_v3_business_search&utm_source=Klanz-jboxl2XzqrjP6LLw", "review_count": 245, "categories": [{"alias": "seafood", "title": "Seafood"}, {"alias": "hotpot", "title": "Hot Pot"}], "rating": 4.0, "coordinates": {"latitude": 37.8010318982971, "longitude": -122.269695885479}, "transactions": ["pickup", "delivery"], "price": "$$$", "location": {"address1": "329 11th St", "address2": "", "address3": null, "city": "Oakland", "zip_code": "94607", "country": "US", "state": "CA", "display_address": ["329 11th St", "Oakland, CA 94607"]}, "phone": "+15106280888", "display_phone": "(510) 628-0888", "distance": 15319.110135892162}, {"id": "jRHLPjW8NbaPrAEFwYpw7Q", "alias": "new-golden-daisy-san-francisco", "name": "New Golden Daisy", "image_url": "https://s3-media1.fl.yelpcdn.com/bphoto/xdAl2GTrpArH3A8kEVipww/o.jpg", "is_closed": false, "url": "https://www.yelp.com/biz/new-golden-daisy-san-francisco?adjust_creative=Klanz-jboxl2XzqrjP6LLw&utm_campaign=yelp_api_v3&utm_medium=api_v3_business_search&utm_source=Klanz-jboxl2XzqrjP6LLw", "review_count": 242, "categories": [{"alias": "delis", "title": "Delis"}, {"alias": "chinese", "title": "Chinese"}, {"alias": "chicken_wings", "title": "Chicken Wings"}], "rating": 4.0, "coordinates": {"latitude": 37.79554, "longitude": -122.40848}, "transactions": [], "price": "$", "location": {"address1": "1041 Stockton St", "address2": "", "address3": "", "city": "San Francisco", "zip_code": "94108", "country": "US", "state": "CA", "display_address": ["1041 Stockton St", "San Francisco, CA 94108"]}, "phone": "+14153920111", "display_phone": "(415) 392-0111", "distance": 4571.6294218317935}, {"id": "8rc-DM2AqXx46X2hZq7W1A", "alias": "barnzu-korean-restaurant-san-francisco-2", "name": "Barnzu Korean Restaurant", "image_url": "https://s3-media3.fl.yelpcdn.com/bphoto/Hfw9Dh5HRe_n6uepniNkuw/o.jpg", "is_closed": false, "url": "https://www.yelp.com/biz/barnzu-korean-restaurant-san-francisco-2?adjust_creative=Klanz-jboxl2XzqrjP6LLw&utm_campaign=yelp_api_v3&utm_medium=api_v3_business_search&utm_source=Klanz-jboxl2XzqrjP6LLw", "review_count": 281, "categories": [{"alias": "korean", "title": "Korean"}, {"alias": "asianfusion", "title": "Asian Fusion"}, {"alias": "tapas", "title": "Tapas Bars"}], "rating": 4.5, "coordinates": {"latitude": 37.7863649, "longitude": -122.4150261}, "transactions": ["pickup", "restaurant_reservation", "delivery"], "price": "$$", "location": {"address1": "711 Geary St", "address2": null, "address3": "", "city": "San Francisco", "zip_code": "94109", "country": "US", "state": "CA", "display_address": ["711 Geary St", "San Francisco, CA 94109"]}, "phone": "+14155254985", "display_phone": "(415) 525-4985", "distance": 3396.2921000413985}, {"id": "navhLJGog28RbtX8Omkf0Q", "alias": "sunflower-vietnamese-restaurant-san-francisco-2", "name": "Sunflower Vietnamese Restaurant", "image_url": "https://s3-media3.fl.yelpcdn.com/bphoto/WwJlL04oQnrCimgoaYlXrA/o.jpg", "is_closed": false, "url": "https://www.yelp.com/biz/sunflower-vietnamese-restaurant-san-francisco-2?adjust_creative=Klanz-jboxl2XzqrjP6LLw&utm_campaign=yelp_api_v3&utm_medium=api_v3_business_search&utm_source=Klanz-jboxl2XzqrjP6LLw", "review_count": 811, "categories": [{"alias": "vietnamese", "title": "Vietnamese"}], "rating": 3.5, "coordinates": {"latitude": 37.76262, "longitude": -122.39777}, "transactions": ["delivery"], "price": "$$", "location": {"address1": "288 Connecticut St", "address2": "", "address3": "", "city": "San Francisco", "zip_code": "94107", "country": "US", "state": "CA", "display_address": ["288 Connecticut St", "San Francisco, CA 94107"]}, "phone": "+14158612336", "display_phone": "(415) 861-2336", "distance": 3409.726789876362}, {"id": "rycqgJttdqwEjbOCMAOQ3w", "alias": "bowl-d-bbq-alameda-alameda", "name": "Bowl\u2019d BBQ Alameda", "image_url": "https://s3-media2.fl.yelpcdn.com/bphoto/BZv3OF7kPF_Qt-BXtbE5yQ/o.jpg", "is_closed": false, "url": "https://www.yelp.com/biz/bowl-d-bbq-alameda-alameda?adjust_creative=Klanz-jboxl2XzqrjP6LLw&utm_campaign=yelp_api_v3&utm_medium=api_v3_business_search&utm_source=Klanz-jboxl2XzqrjP6LLw", "review_count": 593, "categories": [{"alias": "korean", "title": "Korean"}, {"alias": "bbq", "title": "Barbeque"}], "rating": 3.5, "coordinates": {"latitude": 37.7575664691313, "longitude": -122.25219078362}, "transactions": ["delivery"], "price": "$$", "location": {"address1": "2201D S Shore Center Dr", "address2": "", "address3": "", "city": "Alameda", "zip_code": "94501", "country": "US", "state": "CA", "display_address": ["2201D S Shore Center Dr", "Alameda, CA 94501"]}, "phone": "+15102638717", "display_phone": "(510) 263-8717", "distance": 16202.13946295066}, {"id": "SG2-29u7Uw1VR9e1xCAT5w", "alias": "maison-danel-san-francisco-2", "name": "Maison Danel", "image_url": "https://s3-media3.fl.yelpcdn.com/bphoto/u0zuMnLglwiYK1u06NHmYg/o.jpg", "is_closed": false, "url": "https://www.yelp.com/biz/maison-danel-san-francisco-2?adjust_creative=Klanz-jboxl2XzqrjP6LLw&utm_campaign=yelp_api_v3&utm_medium=api_v3_business_search&utm_source=Klanz-jboxl2XzqrjP6LLw", "review_count": 204, "categories": [{"alias": "french", "title": "French"}, {"alias": "bakeries", "title": "Bakeries"}, {"alias": "coffee", "title": "Coffee & Tea"}], "rating": 4.0, "coordinates": {"latitude": 37.786602, "longitude": -122.41964}, "transactions": [], "price": "$$$", "location": {"address1": "1030 Polk St", "address2": null, "address3": null, "city": "San Francisco", "zip_code": "94109", "country": "US", "state": "CA", "display_address": ["1030 Polk St", "San Francisco, CA 94109"]}, "phone": "+14156855900", "display_phone": "(415) 685-5900", "distance": 3205.126295114681}, {"id": "Sw5UNs6xUvqLgahoFNKpWA", "alias": "lara-s-fine-dining-richmond", "name": "Lara\u2019s Fine Dining", "image_url": "https://s3-media1.fl.yelpcdn.com/bphoto/hT7IZsZ2WzWrwYs20NA-uw/o.jpg", "is_closed": false, "url": "https://www.yelp.com/biz/lara-s-fine-dining-richmond?adjust_creative=Klanz-jboxl2XzqrjP6LLw&utm_campaign=yelp_api_v3&utm_medium=api_v3_business_search&utm_source=Klanz-jboxl2XzqrjP6LLw", "review_count": 150, "categories": [{"alias": "bars", "title": "Bars"}, {"alias": "italian", "title": "Italian"}, {"alias": "seafood", "title": "Seafood"}], "rating": 4.0, "coordinates": {"latitude": 37.91497, "longitude": -122.351592}, "transactions": ["restaurant_reservation"], "price": "$$", "location": {"address1": "1900 Esplanade Dr", "address2": "", "address3": null, "city": "Richmond", "zip_code": "94804", "country": "US", "state": "CA", "display_address": ["1900 Esplanade Dr", "Richmond, CA 94804"]}, "phone": "+15102341860", "display_phone": "(510) 234-1860", "distance": 18682.268130244138}, {"id": "HBoimLjD4YBuY2pmwpQkWA", "alias": "hawaiian-drive-inn-san-francisco-2", "name": "Hawaiian Drive Inn", "image_url": "https://s3-media1.fl.yelpcdn.com/bphoto/EUBCzMNZQBZckuHOpgfFgA/o.jpg", "is_closed": false, "url": "https://www.yelp.com/biz/hawaiian-drive-inn-san-francisco-2?adjust_creative=Klanz-jboxl2XzqrjP6LLw&utm_campaign=yelp_api_v3&utm_medium=api_v3_business_search&utm_source=Klanz-jboxl2XzqrjP6LLw", "review_count": 136, "categories": [{"alias": "hawaiian", "title": "Hawaiian"}], "rating": 3.0, "coordinates": {"latitude": 37.7286415100098, "longitude": -122.404357910156}, "transactions": ["delivery"], "price": "$", "location": {"address1": "2600 San Bruno Ave", "address2": null, "address3": "", "city": "San Francisco", "zip_code": "94134", "country": "US", "state": "CA", "display_address": ["2600 San Bruno Ave", "San Francisco, CA 94134"]}, "phone": "+14156560998", "display_phone": "(415) 656-0998", "distance": 4563.597753138177}, {"id": "pBrHCp0X_SxMslzt-Kk5uQ", "alias": "the-old-siam-thai-restaurant-san-francisco", "name": "The Old Siam Thai Restaurant", "image_url": "https://s3-media1.fl.yelpcdn.com/bphoto/aEixSxfUufVdAX3lOpe2ag/o.jpg", "is_closed": false, "url": "https://www.yelp.com/biz/the-old-siam-thai-restaurant-san-francisco?adjust_creative=Klanz-jboxl2XzqrjP6LLw&utm_campaign=yelp_api_v3&utm_medium=api_v3_business_search&utm_source=Klanz-jboxl2XzqrjP6LLw", "review_count": 639, "categories": [{"alias": "thai", "title": "Thai"}, {"alias": "noodles", "title": "Noodles"}], "rating": 3.5, "coordinates": {"latitude": 37.7851623, "longitude": -122.4096288}, "transactions": ["delivery"], "price": "$$", "location": {"address1": "201 Ellis St", "address2": "", "address3": "", "city": "San Francisco", "zip_code": "94102", "country": "US", "state": "CA", "display_address": ["201 Ellis St", "San Francisco, CA 94102"]}, "phone": "+14158855144", "display_phone": "(415) 885-5144", "distance": 3579.6142494483233}, {"id": "MjeuqfVgxCL_XVJJoCLTFg", "alias": "fiore-caff\u00e8-san-francisco-2", "name": "Fiore Caff\u00e8", "image_url": "https://s3-media3.fl.yelpcdn.com/bphoto/cyM5vl3S7atVSCs2CEPNbw/o.jpg", "is_closed": false, "url": "https://www.yelp.com/biz/fiore-caff%C3%A8-san-francisco-2?adjust_creative=Klanz-jboxl2XzqrjP6LLw&utm_campaign=yelp_api_v3&utm_medium=api_v3_business_search&utm_source=Klanz-jboxl2XzqrjP6LLw", "review_count": 360, "categories": [{"alias": "italian", "title": "Italian"}, {"alias": "wine_bars", "title": "Wine Bars"}], "rating": 4.0, "coordinates": {"latitude": 37.7518653, "longitude": -122.4226806}, "transactions": ["pickup", "delivery"], "price": "$$", "location": {"address1": "3599 24th St", "address2": "", "address3": "", "city": "San Francisco", "zip_code": "94110", "country": "US", "state": "CA", "display_address": ["3599 24th St", "San Francisco, CA 94110"]}, "phone": "+14156424822", "display_phone": "(415) 642-4822", "distance": 1572.5651572306394}, {"id": "Kw7JHvbA13NNVp6y6qHkqA", "alias": "da-lian-berkeley", "name": "Da Lian", "image_url": "https://s3-media3.fl.yelpcdn.com/bphoto/kcKdip3DFf5WXv5LSdY3KQ/o.jpg", "is_closed": false, "url": "https://www.yelp.com/biz/da-lian-berkeley?adjust_creative=Klanz-jboxl2XzqrjP6LLw&utm_campaign=yelp_api_v3&utm_medium=api_v3_business_search&utm_source=Klanz-jboxl2XzqrjP6LLw", "review_count": 425, "categories": [{"alias": "chinese", "title": "Chinese"}], "rating": 4.0, "coordinates": {"latitude": 37.877052, "longitude": -122.269053}, "transactions": ["delivery"], "price": "$$", "location": {"address1": "1674 Shattuck Ave", "address2": null, "address3": "", "city": "Berkeley", "zip_code": "94709", "country": "US", "state": "CA", "display_address": ["1674 Shattuck Ave", "Berkeley, CA 94709"]}, "phone": "+15108831883", "display_phone": "(510) 883-1883", "distance": 19570.620974360583}, {"id": "1nYJIXhpe2oLQwexFGdxWQ", "alias": "sunday-bird-san-francisco", "name": "Sunday Bird", "image_url": "https://s3-media3.fl.yelpcdn.com/bphoto/YcOfm8TRSm_bXZRk7WCCzQ/o.jpg", "is_closed": false, "url": "https://www.yelp.com/biz/sunday-bird-san-francisco?adjust_creative=Klanz-jboxl2XzqrjP6LLw&utm_campaign=yelp_api_v3&utm_medium=api_v3_business_search&utm_source=Klanz-jboxl2XzqrjP6LLw", "review_count": 66, "categories": [{"alias": "korean", "title": "Korean"}, {"alias": "asianfusion", "title": "Asian Fusion"}, {"alias": "chicken_wings", "title": "Chicken Wings"}], "rating": 3.5, "coordinates": {"latitude": 37.783667501105, "longitude": -122.432573027909}, "transactions": ["delivery"], "price": "$", "location": {"address1": "1522 Fillmore St", "address2": "", "address3": null, "city": "San Francisco", "zip_code": "94115", "country": "US", "state": "CA", "display_address": ["1522 Fillmore St", "San Francisco, CA 94115"]}, "phone": "+14159672622", "display_phone": "(415) 967-2622", "distance": 2554.492367273246}, {"id": "JFDsi1rdN443paRcoCx6gg", "alias": "thai-house-express-san-francisco-2", "name": "Thai House Express", "image_url": "https://s3-media3.fl.yelpcdn.com/bphoto/DitXMSoM0xeumwTyVwD4VQ/o.jpg", "is_closed": false, "url": "https://www.yelp.com/biz/thai-house-express-san-francisco-2?adjust_creative=Klanz-jboxl2XzqrjP6LLw&utm_campaign=yelp_api_v3&utm_medium=api_v3_business_search&utm_source=Klanz-jboxl2XzqrjP6LLw", "review_count": 630, "categories": [{"alias": "thai", "title": "Thai"}, {"alias": "noodles", "title": "Noodles"}], "rating": 3.5, "coordinates": {"latitude": 37.759405, "longitude": -122.434702}, "transactions": ["pickup", "delivery"], "price": "$$", "location": {"address1": "599 Castro St", "address2": "", "address3": "", "city": "San Francisco", "zip_code": "94114", "country": "US", "state": "CA", "display_address": ["599 Castro St", "San Francisco, CA 94114"]}, "phone": "+14158645000", "display_phone": "(415) 864-5000", "distance": 226.15805824579837}, {"id": "fQdVnPck_6cOOxO36hweeA", "alias": "the-social-study-san-francisco", "name": "The Social Study", "image_url": "https://s3-media1.fl.yelpcdn.com/bphoto/sCYjOMxVbUFEO9zqpgFpPQ/o.jpg", "is_closed": false, "url": "https://www.yelp.com/biz/the-social-study-san-francisco?adjust_creative=Klanz-jboxl2XzqrjP6LLw&utm_campaign=yelp_api_v3&utm_medium=api_v3_business_search&utm_source=Klanz-jboxl2XzqrjP6LLw", "review_count": 470, "categories": [{"alias": "wine_bars", "title": "Wine Bars"}, {"alias": "cafes", "title": "Cafes"}], "rating": 4.0, "coordinates": {"latitude": 37.784150280184875, "longitude": -122.43246464110409}, "transactions": ["delivery"], "price": "$$", "location": {"address1": "1795 Geary Blvd", "address2": null, "address3": "", "city": "San Francisco", "zip_code": "94115", "country": "US", "state": "CA", "display_address": ["1795 Geary Blvd", "San Francisco, CA 94115"]}, "phone": "+14152927417", "display_phone": "(415) 292-7417", "distance": 2608.966551423481}, {"id": "ylfiU0JlhIidGhSTRTuggA", "alias": "mijouri-sushi-bune-san-bruno", "name": "Mijouri Sushi Bune", "image_url": "https://s3-media2.fl.yelpcdn.com/bphoto/rxj85NSPrlpTBHIu8-VKkg/o.jpg", "is_closed": false, "url": "https://www.yelp.com/biz/mijouri-sushi-bune-san-bruno?adjust_creative=Klanz-jboxl2XzqrjP6LLw&utm_campaign=yelp_api_v3&utm_medium=api_v3_business_search&utm_source=Klanz-jboxl2XzqrjP6LLw", "review_count": 243, "categories": [{"alias": "sushi", "title": "Sushi Bars"}, {"alias": "japanese", "title": "Japanese"}], "rating": 3.0, "coordinates": {"latitude": 37.639375, "longitude": -122.42099}, "transactions": ["pickup", "delivery"], "price": "$$", "location": {"address1": "1230 El Camino Real", "address2": "Ste  B", "address3": "", "city": "San Bruno", "zip_code": "94066", "country": "US", "state": "CA", "display_address": ["1230 El Camino Real", "Ste  B", "San Bruno, CA 94066"]}, "phone": "+16505830294", "display_phone": "(650) 583-0294", "distance": 13578.723133362937}, {"id": "b1aZxd5Auo1f5rG9zgr0Ig", "alias": "the-citrus-club-san-francisco", "name": "The Citrus Club", "image_url": "https://s3-media1.fl.yelpcdn.com/bphoto/pLtF2RAt4ed10f-E3rahuw/o.jpg", "is_closed": false, "url": "https://www.yelp.com/biz/the-citrus-club-san-francisco?adjust_creative=Klanz-jboxl2XzqrjP6LLw&utm_campaign=yelp_api_v3&utm_medium=api_v3_business_search&utm_source=Klanz-jboxl2XzqrjP6LLw", "review_count": 1297, "categories": [{"alias": "asianfusion", "title": "Asian Fusion"}, {"alias": "noodles", "title": "Noodles"}], "rating": 3.5, "coordinates": {"latitude": 37.76964, "longitude": -122.45162}, "transactions": ["pickup", "delivery"], "price": "$$", "location": {"address1": "1790 Haight St", "address2": "", "address3": "", "city": "San Francisco", "zip_code": "94117", "country": "US", "state": "CA", "display_address": ["1790 Haight St", "San Francisco, CA 94117"]}, "phone": "+14153876366", "display_phone": "(415) 387-6366", "distance": 1647.8666052668143}, {"id": "hU2Jh_jpYKaGyLNJYJL3hg", "alias": "yo-kai-express-san-francisco-10", "name": "Yo-Kai Express", "image_url": "https://s3-media3.fl.yelpcdn.com/bphoto/s9ekbVfbfzep6qcZfVzczg/o.jpg", "is_closed": false, "url": "https://www.yelp.com/biz/yo-kai-express-san-francisco-10?adjust_creative=Klanz-jboxl2XzqrjP6LLw&utm_campaign=yelp_api_v3&utm_medium=api_v3_business_search&utm_source=Klanz-jboxl2XzqrjP6LLw", "review_count": 66, "categories": [{"alias": "ramen", "title": "Ramen"}, {"alias": "noodles", "title": "Noodles"}, {"alias": "vietnamese", "title": "Vietnamese"}], "rating": 3.5, "coordinates": {"latitude": 37.78434859064036, "longitude": -122.40471013729126}, "transactions": ["pickup", "delivery"], "price": "$$", "location": {"address1": "135 Fourth St", "address2": null, "address3": null, "city": "San Francisco", "zip_code": "94103", "country": "US", "state": "CA", "display_address": ["135 Fourth St", "San Francisco, CA 94103"]}, "phone": "+18559652439", "display_phone": "(855) 965-2439", "distance": 3818.3634170351615}, {"id": "RM1ioN-76NzXDbfv63GhTQ", "alias": "gamine-san-francisco", "name": "Gamine", "image_url": "https://s3-media2.fl.yelpcdn.com/bphoto/SCLR5PYzkwceJZMI-djNZg/o.jpg", "is_closed": false, "url": "https://www.yelp.com/biz/gamine-san-francisco?adjust_creative=Klanz-jboxl2XzqrjP6LLw&utm_campaign=yelp_api_v3&utm_medium=api_v3_business_search&utm_source=Klanz-jboxl2XzqrjP6LLw", "review_count": 888, "categories": [{"alias": "french", "title": "French"}, {"alias": "burgers", "title": "Burgers"}, {"alias": "bars", "title": "Bars"}], "rating": 4.5, "coordinates": {"latitude": 37.796931376309715, "longitude": -122.43596033192517}, "transactions": ["delivery"], "price": "$$", "location": {"address1": "2223 Union St", "address2": null, "address3": "", "city": "San Francisco", "zip_code": "94123", "country": "US", "state": "CA", "display_address": ["2223 Union St", "San Francisco, CA 94123"]}, "phone": "", "display_phone": "", "distance": 4006.798084603366}, {"id": "J5Hkb21HQMT8YfsbrpFxPw", "alias": "henrys-hunan-restaurant-san-francisco-6", "name": "Henry's Hunan Restaurant", "image_url": "https://s3-media3.fl.yelpcdn.com/bphoto/VUpE7gPa9nH7ZOORX-0n2w/o.jpg", "is_closed": false, "url": "https://www.yelp.com/biz/henrys-hunan-restaurant-san-francisco-6?adjust_creative=Klanz-jboxl2XzqrjP6LLw&utm_campaign=yelp_api_v3&utm_medium=api_v3_business_search&utm_source=Klanz-jboxl2XzqrjP6LLw", "review_count": 261, "categories": [{"alias": "chinese", "title": "Chinese"}, {"alias": "seafood", "title": "Seafood"}, {"alias": "asianfusion", "title": "Asian Fusion"}], "rating": 4.0, "coordinates": {"latitude": 37.72211, "longitude": -122.4364}, "transactions": ["pickup", "delivery"], "price": "$$", "location": {"address1": "4753 Mission St", "address2": "", "address3": "", "city": "San Francisco", "zip_code": "94112", "country": "US", "state": "CA", "display_address": ["4753 Mission St", "San Francisco, CA 94112"]}, "phone": "+14155858838", "display_phone": "(415) 585-8838", "distance": 4311.254895476729}, {"id": "F8RMjYx3rWpCVXmjgZd6vw", "alias": "golden-horse-restaurant-san-francisco", "name": "Golden Horse Restaurant", "image_url": "https://s3-media2.fl.yelpcdn.com/bphoto/bp5Qv9JtlfzVv7cLGvp6vg/o.jpg", "is_closed": false, "url": "https://www.yelp.com/biz/golden-horse-restaurant-san-francisco?adjust_creative=Klanz-jboxl2XzqrjP6LLw&utm_campaign=yelp_api_v3&utm_medium=api_v3_business_search&utm_source=Klanz-jboxl2XzqrjP6LLw", "review_count": 191, "categories": [{"alias": "chinese", "title": "Chinese"}, {"alias": "seafood", "title": "Seafood"}], "rating": 3.5, "coordinates": {"latitude": 37.790828704834, "longitude": -122.417098999023}, "transactions": ["pickup", "delivery"], "price": "$", "location": {"address1": "1060 Hyde St", "address2": "", "address3": "", "city": "San Francisco", "zip_code": "94109", "country": "US", "state": "CA", "display_address": ["1060 Hyde St", "San Francisco, CA 94109"]}, "phone": "+14154418889", "display_phone": "(415) 441-8889", "distance": 3739.235354937091}, {"id": "7g3j2jXCAHHUoo15wjH2rA", "alias": "bimi-poke-san-francisco-6", "name": "Bimi Poke", "image_url": "https://s3-media3.fl.yelpcdn.com/bphoto/Hn-6ERH57iZ6w1k_gnorig/o.jpg", "is_closed": false, "url": "https://www.yelp.com/biz/bimi-poke-san-francisco-6?adjust_creative=Klanz-jboxl2XzqrjP6LLw&utm_campaign=yelp_api_v3&utm_medium=api_v3_business_search&utm_source=Klanz-jboxl2XzqrjP6LLw", "review_count": 88, "categories": [{"alias": "japanese", "title": "Japanese"}, {"alias": "poke", "title": "Poke"}, {"alias": "sushi", "title": "Sushi Bars"}], "rating": 4.5, "coordinates": {"latitude": 37.784328253890536, "longitude": -122.40336687533681}, "transactions": ["pickup", "delivery"], "price": "$$", "location": {"address1": "135 4th St In Metreon", "address2": "Ste 4536", "address3": "", "city": "San Francisco", "zip_code": "94103", "country": "US", "state": "CA", "display_address": ["135 4th St In Metreon", "Ste 4536", "San Francisco, CA 94103"]}, "phone": "+14153738117", "display_phone": "(415) 373-8117", "distance": 3903.937682688401}, {"id": "GAm5jocnW-NAe-vR_JAWew", "alias": "choux-san-francisco", "name": "Choux", "image_url": "https://s3-media1.fl.yelpcdn.com/bphoto/XArnqATg4J-UGkiGVPk76Q/o.jpg", "is_closed": false, "url": "https://www.yelp.com/biz/choux-san-francisco?adjust_creative=Klanz-jboxl2XzqrjP6LLw&utm_campaign=yelp_api_v3&utm_medium=api_v3_business_search&utm_source=Klanz-jboxl2XzqrjP6LLw", "review_count": 301, "categories": [{"alias": "bakeries", "title": "Bakeries"}, {"alias": "desserts", "title": "Desserts"}, {"alias": "french", "title": "French"}], "rating": 4.0, "coordinates": {"latitude": 37.7718525471645, "longitude": -122.4302821462}, "transactions": ["pickup", "delivery"], "price": "$$", "location": {"address1": "248 Fillmore St", "address2": "", "address3": "", "city": "San Francisco", "zip_code": "94117", "country": "US", "state": "CA", "display_address": ["248 Fillmore St", "San Francisco, CA 94117"]}, "phone": "+14157570722", "display_phone": "(415) 757-0722", "distance": 1333.0529797455652}, {"id": "xRPTMIidNVxgkLc5BRyWcg", "alias": "flybird-san-francisco", "name": "Flybird", "image_url": "https://s3-media4.fl.yelpcdn.com/bphoto/WT6_L9SJWuonQruKlQ12WA/o.jpg", "is_closed": false, "url": "https://www.yelp.com/biz/flybird-san-francisco?adjust_creative=Klanz-jboxl2XzqrjP6LLw&utm_campaign=yelp_api_v3&utm_medium=api_v3_business_search&utm_source=Klanz-jboxl2XzqrjP6LLw", "review_count": 99, "categories": [{"alias": "salad", "title": "Salad"}, {"alias": "chickenshop", "title": "Chicken Shop"}, {"alias": "sandwiches", "title": "Sandwiches"}], "rating": 4.0, "coordinates": {"latitude": 37.7883651587911, "longitude": -122.403728887439}, "transactions": ["pickup", "delivery"], "price": "$$", "location": {"address1": "35 Kearny St", "address2": "", "address3": null, "city": "San Francisco", "zip_code": "94108", "country": "US", "state": "CA", "display_address": ["35 Kearny St", "San Francisco, CA 94108"]}, "phone": "+14158729292", "display_phone": "(415) 872-9292", "distance": 4194.828766713768}, {"id": "zCtAnqsPU5CizLkFvXhPCQ", "alias": "dimples-san-francisco-2", "name": "Dimples", "image_url": "https://s3-media3.fl.yelpcdn.com/bphoto/A1XQOQhKQjyasEkUsnRwtw/o.jpg", "is_closed": false, "url": "https://www.yelp.com/biz/dimples-san-francisco-2?adjust_creative=Klanz-jboxl2XzqrjP6LLw&utm_campaign=yelp_api_v3&utm_medium=api_v3_business_search&utm_source=Klanz-jboxl2XzqrjP6LLw", "review_count": 125, "categories": [{"alias": "divebars", "title": "Dive Bars"}, {"alias": "cocktailbars", "title": "Cocktail Bars"}, {"alias": "karaoke", "title": "Karaoke"}], "rating": 3.0, "coordinates": {"latitude": 37.78569, "longitude": -122.43018}, "transactions": [], "price": "$$", "location": {"address1": "1700 Post St", "address2": "", "address3": "", "city": "San Francisco", "zip_code": "94115", "country": "US", "state": "CA", "display_address": ["1700 Post St", "San Francisco, CA 94115"]}, "phone": "+14157756688", "display_phone": "(415) 775-6688", "distance": 2811.0840992364097}, {"id": "4dmcs-hq0KwuVz-h63ZL_A", "alias": "sunny-sushi-san-bruno", "name": "Sunny Sushi", "image_url": "https://s3-media2.fl.yelpcdn.com/bphoto/S9b60ByfokEqOTdNB-Ss1w/o.jpg", "is_closed": false, "url": "https://www.yelp.com/biz/sunny-sushi-san-bruno?adjust_creative=Klanz-jboxl2XzqrjP6LLw&utm_campaign=yelp_api_v3&utm_medium=api_v3_business_search&utm_source=Klanz-jboxl2XzqrjP6LLw", "review_count": 437, "categories": [{"alias": "sushi", "title": "Sushi Bars"}, {"alias": "japanese", "title": "Japanese"}], "rating": 3.5, "coordinates": {"latitude": 37.6256884863467, "longitude": -122.426407456483}, "transactions": ["delivery"], "price": "$$", "location": {"address1": "851 Cherry Ave", "address2": "Ste 34", "address3": "", "city": "San Bruno", "zip_code": "94066", "country": "US", "state": "CA", "display_address": ["851 Cherry Ave", "Ste 34", "San Bruno, CA 94066"]}, "phone": "+16508738518", "display_phone": "(650) 873-8518", "distance": 15060.67877767864}, {"id": "Tyn-UqOTpVHtZAgrB0lWyQ", "alias": "town-hall-san-francisco", "name": "Town Hall", "image_url": "https://s3-media4.fl.yelpcdn.com/bphoto/lPAdkL4OPAmpKrmKI8SOEw/o.jpg", "is_closed": false, "url": "https://www.yelp.com/biz/town-hall-san-francisco?adjust_creative=Klanz-jboxl2XzqrjP6LLw&utm_campaign=yelp_api_v3&utm_medium=api_v3_business_search&utm_source=Klanz-jboxl2XzqrjP6LLw", "review_count": 1984, "categories": [{"alias": "newamerican", "title": "American (New)"}, {"alias": "wine_bars", "title": "Wine Bars"}, {"alias": "cocktailbars", "title": "Cocktail Bars"}], "rating": 3.5, "coordinates": {"latitude": 37.7895383, "longitude": -122.3949794}, "transactions": ["pickup", "delivery"], "price": "$$$", "location": {"address1": "342 Howard St", "address2": "", "address3": "", "city": "San Francisco", "zip_code": "94105", "country": "US", "state": "CA", "display_address": ["342 Howard St", "San Francisco, CA 94105"]}, "phone": "+14159083900", "display_phone": "(415) 908-3900", "distance": 4831.567266624844}, {"id": "hcGIDuoE0Hn3-XKuICP0mg", "alias": "tacolicious-san-francisco", "name": "Tacolicious", "image_url": "https://s3-media3.fl.yelpcdn.com/bphoto/BQFIhd6QMpQ61yNaZA5Z9A/o.jpg", "is_closed": false, "url": "https://www.yelp.com/biz/tacolicious-san-francisco?adjust_creative=Klanz-jboxl2XzqrjP6LLw&utm_campaign=yelp_api_v3&utm_medium=api_v3_business_search&utm_source=Klanz-jboxl2XzqrjP6LLw", "review_count": 1675, "categories": [{"alias": "cocktailbars", "title": "Cocktail Bars"}, {"alias": "tacos", "title": "Tacos"}], "rating": 3.5, "coordinates": {"latitude": 37.8004125, "longitude": -122.4404725}, "transactions": ["pickup", "delivery"], "price": "$$", "location": {"address1": "2250 Chestnut St", "address2": "", "address3": "", "city": "San Francisco", "zip_code": "94123", "country": "US", "state": "CA", "display_address": ["2250 Chestnut St", "San Francisco, CA 94123"]}, "phone": "", "display_phone": "", "distance": 4407.871608688839}, {"id": "cQ00bfG7i-IKUlrJMVy86w", "alias": "kitchen-story-oakland", "name": "Kitchen Story", "image_url": "https://s3-media3.fl.yelpcdn.com/bphoto/gTU8gcNpoEK8Ho8aH03ooQ/o.jpg", "is_closed": false, "url": "https://www.yelp.com/biz/kitchen-story-oakland?adjust_creative=Klanz-jboxl2XzqrjP6LLw&utm_campaign=yelp_api_v3&utm_medium=api_v3_business_search&utm_source=Klanz-jboxl2XzqrjP6LLw", "review_count": 597, "categories": [{"alias": "breakfast_brunch", "title": "Breakfast & Brunch"}, {"alias": "asianfusion", "title": "Asian Fusion"}, {"alias": "newamerican", "title": "American (New)"}], "rating": 4.0, "coordinates": {"latitude": 37.84073, "longitude": -122.25119}, "transactions": ["pickup", "restaurant_reservation", "delivery"], "price": "$$", "location": {"address1": "5422 College Ave", "address2": null, "address3": "", "city": "Oakland", "zip_code": "94618", "country": "US", "state": "CA", "display_address": ["5422 College Ave", "Oakland, CA 94618"]}, "phone": "+15109229443", "display_phone": "(510) 922-9443", "distance": 18541.198312805136}, {"id": "Jb7ryDNlHca536vKXRtC6g", "alias": "poke-origin-san-francisco-2", "name": "Poke Origin", "image_url": "https://s3-media2.fl.yelpcdn.com/bphoto/a5oF9ZuBwRLRjXGh_IJY_g/o.jpg", "is_closed": false, "url": "https://www.yelp.com/biz/poke-origin-san-francisco-2?adjust_creative=Klanz-jboxl2XzqrjP6LLw&utm_campaign=yelp_api_v3&utm_medium=api_v3_business_search&utm_source=Klanz-jboxl2XzqrjP6LLw", "review_count": 244, "categories": [{"alias": "poke", "title": "Poke"}], "rating": 3.5, "coordinates": {"latitude": 37.7642575, "longitude": -122.4656367}, "transactions": ["pickup", "delivery"], "price": "$$", "location": {"address1": "716 Irving St", "address2": null, "address3": "", "city": "San Francisco", "zip_code": "94122", "country": "US", "state": "CA", "display_address": ["716 Irving St", "San Francisco, CA 94122"]}, "phone": "+14157026328", "display_phone": "(415) 702-6328", "distance": 2592.9535296311224}, {"id": "SD8HVy8Ny3NNQxA92n3Qiw", "alias": "chuan-yu-oakland", "name": "Chuan Yu", "image_url": "https://s3-media1.fl.yelpcdn.com/bphoto/0HILt79u5ISRWPXW9Iff_Q/o.jpg", "is_closed": false, "url": "https://www.yelp.com/biz/chuan-yu-oakland?adjust_creative=Klanz-jboxl2XzqrjP6LLw&utm_campaign=yelp_api_v3&utm_medium=api_v3_business_search&utm_source=Klanz-jboxl2XzqrjP6LLw", "review_count": 40, "categories": [{"alias": "szechuan", "title": "Szechuan"}], "rating": 4.5, "coordinates": {"latitude": 37.8004548, "longitude": -122.2717025}, "transactions": ["pickup", "delivery"], "location": {"address1": "388 9th St", "address2": "Ste 268", "address3": "Located in Sakura Bistro", "city": "Oakland", "zip_code": "94607", "country": "US", "state": "CA", "display_address": ["388 9th St", "Ste 268", "Located in Sakura Bistro", "Oakland, CA 94607"]}, "phone": "+15108911781", "display_phone": "(510) 891-1781", "distance": 15131.773860314172}, {"id": "lL-Zq1hlHreP7qAA2sVqNg", "alias": "basil-thai-restaurant-and-bar-san-francisco", "name": "Basil Thai Restaurant & Bar", "image_url": "https://s3-media4.fl.yelpcdn.com/bphoto/q_BUI3RSKQyQCkvsFYWN1g/o.jpg", "is_closed": false, "url": "https://www.yelp.com/biz/basil-thai-restaurant-and-bar-san-francisco?adjust_creative=Klanz-jboxl2XzqrjP6LLw&utm_campaign=yelp_api_v3&utm_medium=api_v3_business_search&utm_source=Klanz-jboxl2XzqrjP6LLw", "review_count": 1530, "categories": [{"alias": "thai", "title": "Thai"}, {"alias": "bars", "title": "Bars"}], "rating": 4.0, "coordinates": {"latitude": 37.775333404541, "longitude": -122.4091796875}, "transactions": ["pickup", "delivery"], "price": "$$", "location": {"address1": "1175 Folsom St", "address2": "", "address3": "", "city": "San Francisco", "zip_code": "94103", "country": "US", "state": "CA", "display_address": ["1175 Folsom St", "San Francisco, CA 94103"]}, "phone": "+14155528999", "display_phone": "(415) 552-8999", "distance": 2884.5550301301396}, {"id": "2NQR-4KA_b7jyu41qPY2nQ", "alias": "j-m-t-just-my-toast-san-bruno-3", "name": "J M T Just My Toast", "image_url": "https://s3-media1.fl.yelpcdn.com/bphoto/xJeuNonbpXUtVtHfYevaAg/o.jpg", "is_closed": false, "url": "https://www.yelp.com/biz/j-m-t-just-my-toast-san-bruno-3?adjust_creative=Klanz-jboxl2XzqrjP6LLw&utm_campaign=yelp_api_v3&utm_medium=api_v3_business_search&utm_source=Klanz-jboxl2XzqrjP6LLw", "review_count": 39, "categories": [{"alias": "korean", "title": "Korean"}, {"alias": "asianfusion", "title": "Asian Fusion"}, {"alias": "sandwiches", "title": "Sandwiches"}], "rating": 4.5, "coordinates": {"latitude": 37.63879749270881, "longitude": -122.4209411827728}, "transactions": [], "location": {"address1": "1212 El Camino Real", "address2": "Ste F", "address3": "", "city": "San Bruno", "zip_code": "94066", "country": "US", "state": "CA", "display_address": ["1212 El Camino Real", "Ste F", "San Bruno, CA 94066"]}, "phone": "+16506364030", "display_phone": "(650) 636-4030", "distance": 13645.46194658652}, {"id": "3iEHqnB-kwsZqRNea3US_w", "alias": "hunan-cafe-2-san-francisco-2", "name": "Hunan Cafe 2", "image_url": "https://s3-media1.fl.yelpcdn.com/bphoto/lkH99XVNLkzR2sl7oq08Yg/o.jpg", "is_closed": false, "url": "https://www.yelp.com/biz/hunan-cafe-2-san-francisco-2?adjust_creative=Klanz-jboxl2XzqrjP6LLw&utm_campaign=yelp_api_v3&utm_medium=api_v3_business_search&utm_source=Klanz-jboxl2XzqrjP6LLw", "review_count": 418, "categories": [{"alias": "chinese", "title": "Chinese"}, {"alias": "noodles", "title": "Noodles"}, {"alias": "soup", "title": "Soup"}], "rating": 4.0, "coordinates": {"latitude": 37.773535, "longitude": -122.506693}, "transactions": ["delivery"], "price": "$", "location": {"address1": "4450 Cabrillo St", "address2": "", "address3": "", "city": "San Francisco", "zip_code": "94121", "country": "US", "state": "CA", "display_address": ["4450 Cabrillo St", "San Francisco, CA 94121"]}, "phone": "+14157511283", "display_phone": "(415) 751-1283", "distance": 6332.454300340918}, {"id": "GXUEdea6q-bULIdDEZz0yw", "alias": "saison-smokehouse-san-francisco", "name": "Saison Smokehouse", "image_url": "https://s3-media1.fl.yelpcdn.com/bphoto/3BKY4lUswQIW5imU0NkTow/o.jpg", "is_closed": false, "url": "https://www.yelp.com/biz/saison-smokehouse-san-francisco?adjust_creative=Klanz-jboxl2XzqrjP6LLw&utm_campaign=yelp_api_v3&utm_medium=api_v3_business_search&utm_source=Klanz-jboxl2XzqrjP6LLw", "review_count": 61, "categories": [{"alias": "newamerican", "title": "American (New)"}, {"alias": "bbq", "title": "Barbeque"}], "rating": 4.5, "coordinates": {"latitude": 37.792973, "longitude": -122.392337}, "transactions": [], "location": {"address1": "132 The Embarcadero", "address2": "", "address3": null, "city": "San Francisco", "zip_code": "94105", "country": "US", "state": "CA", "display_address": ["132 The Embarcadero", "San Francisco, CA 94105"]}, "phone": "+14158729456", "display_phone": "(415) 872-9456", "distance": 5266.5358080537935}, {"id": "VYd8UzwlwmX8Db5umNHNig", "alias": "hong-kong-lounge-san-francisco", "name": "Hong Kong Lounge", "image_url": "https://s3-media1.fl.yelpcdn.com/bphoto/yEhj3x-tSt3FabfDezzkgA/o.jpg", "is_closed": false, "url": "https://www.yelp.com/biz/hong-kong-lounge-san-francisco?adjust_creative=Klanz-jboxl2XzqrjP6LLw&utm_campaign=yelp_api_v3&utm_medium=api_v3_business_search&utm_source=Klanz-jboxl2XzqrjP6LLw", "review_count": 1696, "categories": [{"alias": "dimsum", "title": "Dim Sum"}, {"alias": "seafood", "title": "Seafood"}, {"alias": "cantonese", "title": "Cantonese"}], "rating": 3.5, "coordinates": {"latitude": 37.780671, "longitude": -122.476619}, "transactions": ["delivery", "pickup"], "price": "$$", "location": {"address1": "5322 Geary Blvd", "address2": "", "address3": "", "city": "San Francisco", "zip_code": "94121", "country": "US", "state": "CA", "display_address": ["5322 Geary Blvd", "San Francisco, CA 94121"]}, "phone": "+14156688836", "display_phone": "(415) 668-8836", "distance": 4159.440145608878}, {"id": "SjbyWubz2uEEop7iEhehxQ", "alias": "charmaines-san-francisco", "name": "Charmaine's", "image_url": "https://s3-media2.fl.yelpcdn.com/bphoto/tgCIfNMbnyFh_LxG8-899w/o.jpg", "is_closed": false, "url": "https://www.yelp.com/biz/charmaines-san-francisco?adjust_creative=Klanz-jboxl2XzqrjP6LLw&utm_campaign=yelp_api_v3&utm_medium=api_v3_business_search&utm_source=Klanz-jboxl2XzqrjP6LLw", "review_count": 747, "categories": [{"alias": "lounges", "title": "Lounges"}, {"alias": "cocktailbars", "title": "Cocktail Bars"}], "rating": 3.5, "coordinates": {"latitude": 37.7808103, "longitude": -122.4125195}, "transactions": [], "price": "$$$", "location": {"address1": "1100 Market St", "address2": "", "address3": "", "city": "San Francisco", "zip_code": "94102", "country": "US", "state": "CA", "display_address": ["1100 Market St", "San Francisco, CA 94102"]}, "phone": "+16288952039", "display_phone": "(628) 895-2039", "distance": 3053.6771931967937}, {"id": "FroRRBJvJHosq8wM7BnmCQ", "alias": "sunflower-authentic-vietnamese-restaurant-san-francisco-4", "name": "Sunflower Authentic Vietnamese Restaurant", "image_url": "https://s3-media2.fl.yelpcdn.com/bphoto/38AQCEp6b9rP8Iued0VBUA/o.jpg", "is_closed": false, "url": "https://www.yelp.com/biz/sunflower-authentic-vietnamese-restaurant-san-francisco-4?adjust_creative=Klanz-jboxl2XzqrjP6LLw&utm_campaign=yelp_api_v3&utm_medium=api_v3_business_search&utm_source=Klanz-jboxl2XzqrjP6LLw", "review_count": 1146, "categories": [{"alias": "vietnamese", "title": "Vietnamese"}], "rating": 3.5, "coordinates": {"latitude": 37.76466, "longitude": -122.42215}, "transactions": ["delivery"], "price": "$$", "location": {"address1": "3111 16th St", "address2": null, "address3": null, "city": "San Francisco", "zip_code": "94103", "country": "US", "state": "CA", "display_address": ["3111 16th St", "San Francisco, CA 94103"]}, "phone": "+14156265022", "display_phone": "(415) 626-5022", "distance": 1311.679216485181}, {"id": "kWrVV4mS-SLy-Ph_DeJSAg", "alias": "crab-house-at-pier-39-san-francisco-3", "name": "Crab House at Pier 39", "image_url": "https://s3-media1.fl.yelpcdn.com/bphoto/fYHHyi1oiH_Vo6wZ3czMkw/o.jpg", "is_closed": false, "url": "https://www.yelp.com/biz/crab-house-at-pier-39-san-francisco-3?adjust_creative=Klanz-jboxl2XzqrjP6LLw&utm_campaign=yelp_api_v3&utm_medium=api_v3_business_search&utm_source=Klanz-jboxl2XzqrjP6LLw", "review_count": 2460, "categories": [{"alias": "seafood", "title": "Seafood"}], "rating": 4.0, "coordinates": {"latitude": 37.809437, "longitude": -122.410365343094}, "transactions": ["restaurant_reservation", "delivery"], "price": "$$$", "location": {"address1": "203 C Pier 39", "address2": "", "address3": "", "city": "San Francisco", "zip_code": "94133", "country": "US", "state": "CA", "display_address": ["203 C Pier 39", "San Francisco, CA 94133"]}, "phone": "+14156512574", "display_phone": "(415) 651-2574", "distance": 5863.654418560364}, {"id": "2kCvHh1pSbaJqs2pWGvSUQ", "alias": "millennium-oakland", "name": "Millennium", "image_url": "https://s3-media4.fl.yelpcdn.com/bphoto/-2a5cglONUzqzHHnQYNUiA/o.jpg", "is_closed": false, "url": "https://www.yelp.com/biz/millennium-oakland?adjust_creative=Klanz-jboxl2XzqrjP6LLw&utm_campaign=yelp_api_v3&utm_medium=api_v3_business_search&utm_source=Klanz-jboxl2XzqrjP6LLw", "review_count": 801, "categories": [{"alias": "vegan", "title": "Vegan"}, {"alias": "vegetarian", "title": "Vegetarian"}, {"alias": "wine_bars", "title": "Wine Bars"}], "rating": 4.0, "coordinates": {"latitude": 37.8475302, "longitude": -122.2519112}, "transactions": ["pickup", "delivery"], "price": "$$$", "location": {"address1": "5912 College Ave", "address2": "", "address3": "", "city": "Oakland", "zip_code": "94618", "country": "US", "state": "CA", "display_address": ["5912 College Ave", "Oakland, CA 94618"]}, "phone": "+15107359459", "display_phone": "(510) 735-9459", "distance": 18866.47408945647}, {"id": "_-7VgjSfibitQ1-TBvE0Aw", "alias": "mau-san-francisco", "name": "Mau", "image_url": "https://s3-media1.fl.yelpcdn.com/bphoto/lMmkscTVjRHzdteH1B5rzg/o.jpg", "is_closed": false, "url": "https://www.yelp.com/biz/mau-san-francisco?adjust_creative=Klanz-jboxl2XzqrjP6LLw&utm_campaign=yelp_api_v3&utm_medium=api_v3_business_search&utm_source=Klanz-jboxl2XzqrjP6LLw", "review_count": 910, "categories": [{"alias": "vietnamese", "title": "Vietnamese"}, {"alias": "noodles", "title": "Noodles"}, {"alias": "sandwiches", "title": "Sandwiches"}], "rating": 4.0, "coordinates": {"latitude": 37.79135, "longitude": -122.39311}, "transactions": ["pickup", "delivery"], "price": "$$", "location": {"address1": "180 Spear St", "address2": "", "address3": "", "city": "San Francisco", "zip_code": "94105", "country": "US", "state": "CA", "display_address": ["180 Spear St", "San Francisco, CA 94105"]}, "phone": "+14159348889", "display_phone": "(415) 934-8889", "distance": 5148.704616406487}, {"id": "NZdXTfrfCfl9nk4ZvoWT_A", "alias": "lees-deli-san-francisco-7", "name": "Lee's Deli", "image_url": "https://s3-media4.fl.yelpcdn.com/bphoto/KCO6_zlvhYswez5OTacrVg/o.jpg", "is_closed": false, "url": "https://www.yelp.com/biz/lees-deli-san-francisco-7?adjust_creative=Klanz-jboxl2XzqrjP6LLw&utm_campaign=yelp_api_v3&utm_medium=api_v3_business_search&utm_source=Klanz-jboxl2XzqrjP6LLw", "review_count": 211, "categories": [{"alias": "sandwiches", "title": "Sandwiches"}, {"alias": "chinese", "title": "Chinese"}, {"alias": "salad", "title": "Salad"}], "rating": 3.5, "coordinates": {"latitude": 37.785371, "longitude": -122.395898}, "transactions": ["pickup", "delivery"], "price": "$", "location": {"address1": "303 Second St", "address2": "", "address3": "", "city": "San Francisco", "zip_code": "94107", "country": "US", "state": "CA", "display_address": ["303 Second St", "San Francisco, CA 94107"]}, "phone": "+14152847303", "display_phone": "(415) 284-7303", "distance": 4484.0259136187415}, {"id": "go9gROcmJd76oNlXeWQtyg", "alias": "koja-kitchen-alameda-3", "name": "Koja Kitchen", "image_url": "https://s3-media2.fl.yelpcdn.com/bphoto/_OzJvsQjyhNwQinpdPDbZg/o.jpg", "is_closed": false, "url": "https://www.yelp.com/biz/koja-kitchen-alameda-3?adjust_creative=Klanz-jboxl2XzqrjP6LLw&utm_campaign=yelp_api_v3&utm_medium=api_v3_business_search&utm_source=Klanz-jboxl2XzqrjP6LLw", "review_count": 244, "categories": [{"alias": "japanese", "title": "Japanese"}, {"alias": "korean", "title": "Korean"}, {"alias": "salad", "title": "Salad"}], "rating": 3.5, "coordinates": {"latitude": 37.787179710031, "longitude": -122.280505523086}, "transactions": ["pickup", "delivery"], "price": "$$", "location": {"address1": "2680 5th St", "address2": "Ste D", "address3": null, "city": "Alameda", "zip_code": "94501", "country": "US", "state": "CA", "display_address": ["2680 5th St", "Ste D", "Alameda, CA 94501"]}, "phone": "+15102394175", "display_phone": "(510) 239-4175", "distance": 14014.079372719754}, {"id": "jO_aQU63g63oUzYwsDp8cw", "alias": "pyeong-chang-tofu-house-oakland-2", "name": "Pyeong Chang Tofu House", "image_url": "https://s3-media2.fl.yelpcdn.com/bphoto/jMLzwDNbvURqKFGd_IU8Vw/o.jpg", "is_closed": false, "url": "https://www.yelp.com/biz/pyeong-chang-tofu-house-oakland-2?adjust_creative=Klanz-jboxl2XzqrjP6LLw&utm_campaign=yelp_api_v3&utm_medium=api_v3_business_search&utm_source=Klanz-jboxl2XzqrjP6LLw", "review_count": 869, "categories": [{"alias": "korean", "title": "Korean"}, {"alias": "soup", "title": "Soup"}, {"alias": "chicken_wings", "title": "Chicken Wings"}], "rating": 4.0, "coordinates": {"latitude": 37.83451, "longitude": -122.2634}, "transactions": ["pickup", "delivery"], "price": "$$", "location": {"address1": "4701 Telegraph Ave", "address2": "", "address3": "", "city": "Oakland", "zip_code": "94609", "country": "US", "state": "CA", "display_address": ["4701 Telegraph Ave", "Oakland, CA 94609"]}, "phone": "+15106589040", "display_phone": "(510) 658-9040", "distance": 17273.360530459227}], "total": 1600, "region": {"center": {"longitude": -122.43644714355469, "latitude": 37.76089938976322}}}