{"businesses": [{"id": "qtH79N3gbcOe4ToQWBckuQ", "alias": "hamano-sushi-san-francisco", "name": "Hamano Sushi", "image_url": "https://s3-media4.fl.yelpcdn.com/bphoto/AwH4gAMDqcmVBDiXZR1d5w/o.jpg", "is_closed": false, "url": "https://www.yelp.com/biz/hamano-sushi-san-francisco?adjust_creative=Klanz-jboxl2XzqrjP6LLw&utm_campaign=yelp_api_v3&utm_medium=api_v3_business_search&utm_source=Klanz-jboxl2XzqrjP6LLw", "review_count": 422, "categories": [{"alias": "sushi", "title": "Sushi Bars"}, {"alias": "japanese", "title": "Japanese"}, {"alias": "seafood", "title": "Seafood"}], "rating": 3.5, "coordinates": {"latitude": 37.75077, "longitude": -122.43431}, "transactions": ["delivery"], "price": "$$", "location": {"address1": "1332 Castro St", "address2": "", "address3": "", "city": "San Francisco", "zip_code": "94114", "country": "US", "state": "CA", "display_address": ["1332 Castro St", "San Francisco, CA 94114"]}, "phone": "+14158260825", "display_phone": "(415) 826-0825", "distance": 1143.0098409604125}, {"id": "cODqYoxUxOGo6YNMW1VErA", "alias": "musashi-berkeley", "name": "Musashi", "image_url": "https://s3-media3.fl.yelpcdn.com/bphoto/2yNpjfas2gqxxHsoV7ALwA/o.jpg", "is_closed": false, "url": "https://www.yelp.com/biz/musashi-berkeley?adjust_creative=Klanz-jboxl2XzqrjP6LLw&utm_campaign=yelp_api_v3&utm_medium=api_v3_business_search&utm_source=Klanz-jboxl2XzqrjP6LLw", "review_count": 420, "categories": [{"alias": "japanese", "title": "Japanese"}, {"alias": "sushi", "title": "Sushi Bars"}], "rating": 4.0, "coordinates": {"latitude": 37.86383, "longitude": -122.26637}, "transactions": ["delivery"], "price": "$$", "location": {"address1": "2126 Dwight Way", "address2": "", "address3": "", "city": "Berkeley", "zip_code": "94704", "country": "US", "state": "CA", "display_address": ["2126 Dwight Way", "Berkeley, CA 94704"]}, "phone": "+15108432017", "display_phone": "(510) 843-2017", "distance": 18821.72851806478}, {"id": "I0qXHSJwUR0Xj8H91ovBPA", "alias": "my-fathers-kitchen-san-francisco", "name": "My Father's Kitchen", "image_url": "https://s3-media4.fl.yelpcdn.com/bphoto/twrvL6U9IExs5mYat8t9AQ/o.jpg", "is_closed": false, "url": "https://www.yelp.com/biz/my-fathers-kitchen-san-francisco?adjust_creative=Klanz-jboxl2XzqrjP6LLw&utm_campaign=yelp_api_v3&utm_medium=api_v3_business_search&utm_source=Klanz-jboxl2XzqrjP6LLw", "review_count": 483, "categories": [{"alias": "vietnamese", "title": "Vietnamese"}], "rating": 3.5, "coordinates": {"latitude": 37.78503492994844, "longitude": -122.44000719877698}, "transactions": ["delivery"], "price": "$$", "location": {"address1": "1655 Divisadero St", "address2": null, "address3": "", "city": "San Francisco", "zip_code": "94115", "country": "US", "state": "CA", "display_address": ["1655 Divisadero St", "San Francisco, CA 94115"]}, "phone": "+14158292610", "display_phone": "(415) 829-2610", "distance": 2701.9262632232917}, {"id": "Su1ay8vJyKsHZKQG_eluaA", "alias": "dragon-beaux-san-francisco", "name": "Dragon Beaux", "image_url": "https://s3-media2.fl.yelpcdn.com/bphoto/fmX3U2vlg_u60aRNVHNIqw/o.jpg", "is_closed": false, "url": "https://www.yelp.com/biz/dragon-beaux-san-francisco?adjust_creative=Klanz-jboxl2XzqrjP6LLw&utm_campaign=yelp_api_v3&utm_medium=api_v3_business_search&utm_source=Klanz-jboxl2XzqrjP6LLw", "review_count": 1897, "categories": [{"alias": "dimsum", "title": "Dim Sum"}, {"alias": "hotpot", "title": "Hot Pot"}], "rating": 4.0, "coordinates": {"latitude": 37.780504, "longitude": -122.480709}, "transactions": ["restaurant_reservation", "delivery", "pickup"], "price": "$$", "location": {"address1": "5700 Geary Blvd", "address2": "", "address3": "", "city": "San Francisco", "zip_code": "94121", "country": "US", "state": "CA", "display_address": ["5700 Geary Blvd", "San Francisco, CA 94121"]}, "phone": "+14153338899", "display_phone": "(415) 333-8899", "distance": 4459.919274452497}, {"id": "ZUFDorFZqeGyJijJTj_voQ", "alias": "aji-ichi-japanese-restaurant-san-bruno", "name": "Aji Ichi Japanese Restaurant", "image_url": "https://s3-media2.fl.yelpcdn.com/bphoto/-VLQlIBItcfYmUurB1fM-w/o.jpg", "is_closed": false, "url": "https://www.yelp.com/biz/aji-ichi-japanese-restaurant-san-bruno?adjust_creative=Klanz-jboxl2XzqrjP6LLw&utm_campaign=yelp_api_v3&utm_medium=api_v3_business_search&utm_source=Klanz-jboxl2XzqrjP6LLw", "review_count": 389, "categories": [{"alias": "japanese", "title": "Japanese"}, {"alias": "sushi", "title": "Sushi Bars"}], "rating": 4.0, "coordinates": {"latitude": 37.62816, "longitude": -122.41158}, "transactions": ["delivery", "pickup"], "price": "$$", "location": {"address1": "695 San Mateo Ave", "address2": "", "address3": "", "city": "San Bruno", "zip_code": "94066", "country": "US", "state": "CA", "display_address": ["695 San Mateo Ave", "San Bruno, CA 94066"]}, "phone": "+16509522898", "display_phone": "(650) 952-2898", "distance": 14923.728587619942}, {"id": "ZVjhg9F7r1iTf5FfyaivDQ", "alias": "maru-sushi-san-francisco", "name": "Maru Sushi", "image_url": "https://s3-media3.fl.yelpcdn.com/bphoto/Tity7a9HzugzJZt3jqH6vQ/o.jpg", "is_closed": false, "url": "https://www.yelp.com/biz/maru-sushi-san-francisco?adjust_creative=Klanz-jboxl2XzqrjP6LLw&utm_campaign=yelp_api_v3&utm_medium=api_v3_business_search&utm_source=Klanz-jboxl2XzqrjP6LLw", "review_count": 527, "categories": [{"alias": "japanese", "title": "Japanese"}, {"alias": "sushi", "title": "Sushi Bars"}], "rating": 3.5, "coordinates": {"latitude": 37.7896338386059, "longitude": -122.408825684075}, "transactions": ["delivery", "pickup"], "price": "$$", "location": {"address1": "529 Powell St", "address2": "", "address3": "", "city": "San Francisco", "zip_code": "94108", "country": "US", "state": "CA", "display_address": ["529 Powell St", "San Francisco, CA 94108"]}, "phone": "+14153939911", "display_phone": "(415) 393-9911", "distance": 4012.774348416623}, {"id": "iIY6k6NnEeUmdmqkn9zJJw", "alias": "akikos-sushi-bar-san-francisco", "name": "Akiko's Sushi Bar", "image_url": "https://s3-media2.fl.yelpcdn.com/bphoto/rW--F3w3sjvJznsD7dWa0A/o.jpg", "is_closed": false, "url": "https://www.yelp.com/biz/akikos-sushi-bar-san-francisco?adjust_creative=Klanz-jboxl2XzqrjP6LLw&utm_campaign=yelp_api_v3&utm_medium=api_v3_business_search&utm_source=Klanz-jboxl2XzqrjP6LLw", "review_count": 510, "categories": [{"alias": "sushi", "title": "Sushi Bars"}], "rating": 3.5, "coordinates": {"latitude": 37.788756, "longitude": -122.410032}, "transactions": ["pickup", "delivery"], "price": "$$", "location": {"address1": "542 Mason St", "address2": "Ste A", "address3": "", "city": "San Francisco", "zip_code": "94102", "country": "US", "state": "CA", "display_address": ["542 Mason St", "Ste A", "San Francisco, CA 94102"]}, "phone": "+14159898218", "display_phone": "(415) 989-8218", "distance": 3869.201426143576}, {"id": "kGG66pu2BpqM-BgGyOYp0A", "alias": "21-taste-house-san-francisco", "name": "21 Taste House", "image_url": "https://s3-media4.fl.yelpcdn.com/bphoto/How3b5nFaIVTWG-HGHVDCg/o.jpg", "is_closed": false, "url": "https://www.yelp.com/biz/21-taste-house-san-francisco?adjust_creative=Klanz-jboxl2XzqrjP6LLw&utm_campaign=yelp_api_v3&utm_medium=api_v3_business_search&utm_source=Klanz-jboxl2XzqrjP6LLw", "review_count": 323, "categories": [{"alias": "ramen", "title": "Ramen"}], "rating": 4.0, "coordinates": {"latitude": 37.7234497070312, "longitude": -122.45450592041}, "transactions": ["delivery", "pickup"], "price": "$$", "location": {"address1": "1109 Ocean Ave", "address2": "", "address3": "", "city": "San Francisco", "zip_code": "94112", "country": "US", "state": "CA", "display_address": ["1109 Ocean Ave", "San Francisco, CA 94112"]}, "phone": "+14152057984", "display_phone": "(415) 205-7984", "distance": 4456.690544951583}, {"id": "BP0D8y1iCA7xq21zds4xfg", "alias": "izakaya-links-sushi-bar-san-francisco-3", "name": "Izakaya links sushi bar ", "image_url": "https://s3-media1.fl.yelpcdn.com/bphoto/1I91UB690saS-vi-YiAAGg/o.jpg", "is_closed": false, "url": "https://www.yelp.com/biz/izakaya-links-sushi-bar-san-francisco-3?adjust_creative=Klanz-jboxl2XzqrjP6LLw&utm_campaign=yelp_api_v3&utm_medium=api_v3_business_search&utm_source=Klanz-jboxl2XzqrjP6LLw", "review_count": 81, "categories": [{"alias": "bars", "title": "Bars"}, {"alias": "newamerican", "title": "American (New)"}, {"alias": "izakaya", "title": "Izakaya"}], "rating": 4.5, "coordinates": {"latitude": 37.7814, "longitude": -122.49293}, "transactions": ["restaurant_reservation", "delivery", "pickup"], "price": "$$", "location": {"address1": "3129 Clement St", "address2": "", "address3": null, "city": "San Francisco", "zip_code": "94121", "country": "US", "state": "CA", "display_address": ["3129 Clement St", "San Francisco, CA 94121"]}, "phone": "+14157029117", "display_phone": "(415) 702-9117", "distance": 5467.115675245896}, {"id": "prl4rkVXnSj2eVUFv-VZqw", "alias": "707-sutter-san-francisco", "name": "707 Sutter", "image_url": "https://s3-media3.fl.yelpcdn.com/bphoto/LMU7EA0RwrM-l_vB4tcLJw/o.jpg", "is_closed": false, "url": "https://www.yelp.com/biz/707-sutter-san-francisco?adjust_creative=Klanz-jboxl2XzqrjP6LLw&utm_campaign=yelp_api_v3&utm_medium=api_v3_business_search&utm_source=Klanz-jboxl2XzqrjP6LLw", "review_count": 771, "categories": [{"alias": "korean", "title": "Korean"}], "rating": 4.0, "coordinates": {"latitude": 37.7886616504901, "longitude": -122.412151023746}, "transactions": ["delivery", "pickup"], "price": "$$", "location": {"address1": "707 Sutter St", "address2": "", "address3": "", "city": "San Francisco", "zip_code": "94109", "country": "US", "state": "CA", "display_address": ["707 Sutter St", "San Francisco, CA 94109"]}, "phone": "+14153467979", "display_phone": "(415) 346-7979", "distance": 3753.6217587875135}, {"id": "oqsu3pKpgRMGHj9QItsx0A", "alias": "zuni-caf\u00e9-san-francisco-3", "name": "Zuni Caf\u00e9", "image_url": "https://s3-media1.fl.yelpcdn.com/bphoto/pRvaKZbCIa5I0CWMJHNMOw/o.jpg", "is_closed": false, "url": "https://www.yelp.com/biz/zuni-caf%C3%A9-san-francisco-3?adjust_creative=Klanz-jboxl2XzqrjP6LLw&utm_campaign=yelp_api_v3&utm_medium=api_v3_business_search&utm_source=Klanz-jboxl2XzqrjP6LLw", "review_count": 2838, "categories": [{"alias": "italian", "title": "Italian"}, {"alias": "french", "title": "French"}], "rating": 3.5, "coordinates": {"latitude": 37.7734826, "longitude": -122.4216396}, "transactions": ["delivery"], "price": "$$$", "location": {"address1": "1658 Market St", "address2": "", "address3": "", "city": "San Francisco", "zip_code": "94102", "country": "US", "state": "CA", "display_address": ["1658 Market St", "San Francisco, CA 94102"]}, "phone": "+14155522522", "display_phone": "(415) 552-2522", "distance": 1921.6447621787343}, {"id": "3oiMUFH3mqaCqCLJuknILQ", "alias": "ipot-san-francisco", "name": "IPOT", "image_url": "https://s3-media1.fl.yelpcdn.com/bphoto/Dp-EBpPxmtBJt6W51fkRYw/o.jpg", "is_closed": false, "url": "https://www.yelp.com/biz/ipot-san-francisco?adjust_creative=Klanz-jboxl2XzqrjP6LLw&utm_campaign=yelp_api_v3&utm_medium=api_v3_business_search&utm_source=Klanz-jboxl2XzqrjP6LLw", "review_count": 1110, "categories": [{"alias": "chinese", "title": "Chinese"}, {"alias": "hotpot", "title": "Hot Pot"}, {"alias": "asianfusion", "title": "Asian Fusion"}], "rating": 4.0, "coordinates": {"latitude": 37.7639770507812, "longitude": -122.473213195801}, "transactions": ["delivery", "pickup"], "price": "$$$", "location": {"address1": "1420 Irving St", "address2": "", "address3": "", "city": "San Francisco", "zip_code": "94122", "country": "US", "state": "CA", "display_address": ["1420 Irving St", "San Francisco, CA 94122"]}, "phone": "+14153403225", "display_phone": "(415) 340-3225", "distance": 3249.916775954012}, {"id": "ACA2q2bYEy8eDzvoad9SZQ", "alias": "hawker-fare-san-francisco", "name": "Hawker Fare", "image_url": "https://s3-media1.fl.yelpcdn.com/bphoto/Qxk8qU7c5rZc51ROEq4Skg/o.jpg", "is_closed": false, "url": "https://www.yelp.com/biz/hawker-fare-san-francisco?adjust_creative=Klanz-jboxl2XzqrjP6LLw&utm_campaign=yelp_api_v3&utm_medium=api_v3_business_search&utm_source=Klanz-jboxl2XzqrjP6LLw", "review_count": 549, "categories": [{"alias": "thai", "title": "Thai"}, {"alias": "laotian", "title": "Laotian"}, {"alias": "venues", "title": "Venues & Event Spaces"}], "rating": 3.5, "coordinates": {"latitude": 37.7619934082031, "longitude": -122.421920776367}, "transactions": ["delivery", "pickup"], "price": "$$", "location": {"address1": "680 Valencia St", "address2": "", "address3": "", "city": "San Francisco", "zip_code": "94110", "country": "US", "state": "CA", "display_address": ["680 Valencia St", "San Francisco, CA 94110"]}, "phone": "+14154005699", "display_phone": "(415) 400-5699", "distance": 1287.8931528675168}, {"id": "m-X2DibsCMVNrkgiN2lo6g", "alias": "kamu-sushi-south-san-francisco", "name": "Kamu Sushi", "image_url": "https://s3-media2.fl.yelpcdn.com/bphoto/hsvqfBVU6EwpzXe9Db0FuQ/o.jpg", "is_closed": false, "url": "https://www.yelp.com/biz/kamu-sushi-south-san-francisco?adjust_creative=Klanz-jboxl2XzqrjP6LLw&utm_campaign=yelp_api_v3&utm_medium=api_v3_business_search&utm_source=Klanz-jboxl2XzqrjP6LLw", "review_count": 614, "categories": [{"alias": "japanese", "title": "Japanese"}, {"alias": "sushi", "title": "Sushi Bars"}], "rating": 4.0, "coordinates": {"latitude": 37.6548865, "longitude": -122.4082994}, "transactions": ["restaurant_reservation", "delivery"], "price": "$$", "location": {"address1": "112 Grand Ave", "address2": "", "address3": "", "city": "South San Francisco", "zip_code": "94080", "country": "US", "state": "CA", "display_address": ["112 Grand Ave", "South San Francisco, CA 94080"]}, "phone": "+16509522888", "display_phone": "(650) 952-2888", "distance": 12042.881172044665}, {"id": "qMZ1svKKAOXQwfjisZjjCA", "alias": "wenchang-dumpling-restaurant-san-francisco", "name": "WenChang Dumpling Restaurant", "image_url": "https://s3-media1.fl.yelpcdn.com/bphoto/uMD0p3bR6f3qvwADfmk9mA/o.jpg", "is_closed": false, "url": "https://www.yelp.com/biz/wenchang-dumpling-restaurant-san-francisco?adjust_creative=Klanz-jboxl2XzqrjP6LLw&utm_campaign=yelp_api_v3&utm_medium=api_v3_business_search&utm_source=Klanz-jboxl2XzqrjP6LLw", "review_count": 15, "categories": [{"alias": "chinese", "title": "Chinese"}, {"alias": "noodles", "title": "Noodles"}, {"alias": "soup", "title": "Soup"}], "rating": 5.0, "coordinates": {"latitude": 37.77679, "longitude": -122.4767}, "transactions": ["delivery", "pickup"], "location": {"address1": "1650 Balboa St", "address2": null, "address3": "", "city": "San Francisco", "zip_code": "94121", "country": "US", "state": "CA", "display_address": ["1650 Balboa St", "San Francisco, CA 94121"]}, "phone": "+14157026156", "display_phone": "(415) 702-6156", "distance": 3961.156429143332}, {"id": "LpzREKhZ2dGKiIUnxX03Gg", "alias": "fiery-hot-pot-buffet-san-francisco-2", "name": "Fiery Hot Pot Buffet", "image_url": "https://s3-media3.fl.yelpcdn.com/bphoto/2SV1jza6b9C0E-P0GiYoCQ/o.jpg", "is_closed": false, "url": "https://www.yelp.com/biz/fiery-hot-pot-buffet-san-francisco-2?adjust_creative=Klanz-jboxl2XzqrjP6LLw&utm_campaign=yelp_api_v3&utm_medium=api_v3_business_search&utm_source=Klanz-jboxl2XzqrjP6LLw", "review_count": 368, "categories": [{"alias": "hotpot", "title": "Hot Pot"}, {"alias": "chinese", "title": "Chinese"}], "rating": 4.5, "coordinates": {"latitude": 37.7429507985095, "longitude": -122.483775056899}, "transactions": [], "price": "$$$", "location": {"address1": "1626 Taraval St", "address2": null, "address3": null, "city": "San Francisco", "zip_code": "94116", "country": "US", "state": "CA", "display_address": ["1626 Taraval St", "San Francisco, CA 94116"]}, "phone": "+14156824578", "display_phone": "(415) 682-4578", "distance": 4614.8679529839965}, {"id": "fV-FyAnmdzJr9gAKtotXiA", "alias": "kamekyo-san-francisco", "name": "Kamekyo", "image_url": "https://s3-media3.fl.yelpcdn.com/bphoto/NXvglXhduBB-1bggDAuWrA/o.jpg", "is_closed": false, "url": "https://www.yelp.com/biz/kamekyo-san-francisco?adjust_creative=Klanz-jboxl2XzqrjP6LLw&utm_campaign=yelp_api_v3&utm_medium=api_v3_business_search&utm_source=Klanz-jboxl2XzqrjP6LLw", "review_count": 251, "categories": [{"alias": "sushi", "title": "Sushi Bars"}, {"alias": "japanese", "title": "Japanese"}, {"alias": "salad", "title": "Salad"}], "rating": 3.5, "coordinates": {"latitude": 37.7651946, "longitude": -122.4500132}, "transactions": ["delivery"], "price": "$$", "location": {"address1": "943 Cole St", "address2": "", "address3": "", "city": "San Francisco", "zip_code": "94117", "country": "US", "state": "CA", "display_address": ["943 Cole St", "San Francisco, CA 94117"]}, "phone": "+14157598428", "display_phone": "(415) 759-8428", "distance": 1284.6099506993392}, {"id": "l1oXDZh6vE-cYreeAcfRBw", "alias": "freshroll-vietnamese-rolls-and-bowls-san-francisco-7", "name": "Freshroll Vietnamese Rolls and Bowls", "image_url": "https://s3-media1.fl.yelpcdn.com/bphoto/xXBkH1HsAiZaL1DFVxjjZg/o.jpg", "is_closed": false, "url": "https://www.yelp.com/biz/freshroll-vietnamese-rolls-and-bowls-san-francisco-7?adjust_creative=Klanz-jboxl2XzqrjP6LLw&utm_campaign=yelp_api_v3&utm_medium=api_v3_business_search&utm_source=Klanz-jboxl2XzqrjP6LLw", "review_count": 1226, "categories": [{"alias": "vietnamese", "title": "Vietnamese"}, {"alias": "sandwiches", "title": "Sandwiches"}], "rating": 4.0, "coordinates": {"latitude": 37.7839351290841, "longitude": -122.403370141983}, "transactions": ["delivery", "pickup"], "price": "$$", "location": {"address1": "157 4th St", "address2": "", "address3": "", "city": "San Francisco", "zip_code": "94103", "country": "US", "state": "CA", "display_address": ["157 4th St", "San Francisco, CA 94103"]}, "phone": "+14153481858", "display_phone": "(415) 348-1858", "distance": 3874.694056368605}, {"id": "T7yx68dDBG33VJXXks5Fhw", "alias": "yubu-by-the-shota-san-francisco-3", "name": "YUBU By The Shota", "image_url": "https://s3-media1.fl.yelpcdn.com/bphoto/AvaBUzf7bpIAJw71UOGz_g/o.jpg", "is_closed": false, "url": "https://www.yelp.com/biz/yubu-by-the-shota-san-francisco-3?adjust_creative=Klanz-jboxl2XzqrjP6LLw&utm_campaign=yelp_api_v3&utm_medium=api_v3_business_search&utm_source=Klanz-jboxl2XzqrjP6LLw", "review_count": 111, "categories": [{"alias": "japanese", "title": "Japanese"}, {"alias": "sushi", "title": "Sushi Bars"}], "rating": 4.5, "coordinates": {"latitude": 37.79143, "longitude": -122.401056}, "transactions": ["delivery", "pickup"], "location": {"address1": "115 Sansome St", "address2": "", "address3": null, "city": "San Francisco", "zip_code": "94104", "country": "US", "state": "CA", "display_address": ["115 Sansome St", "San Francisco, CA 94104"]}, "phone": "+16282242074", "display_phone": "(628) 224-2074", "distance": 4604.5099889230805}, {"id": "5ugE5Qh_N90PfTzmU_msag", "alias": "jin-pot-shabu-house-san-francisco-2", "name": "Jin Pot Shabu House", "image_url": "https://s3-media2.fl.yelpcdn.com/bphoto/Xr8XIYP5RXA9Yl37gXM6MQ/o.jpg", "is_closed": false, "url": "https://www.yelp.com/biz/jin-pot-shabu-house-san-francisco-2?adjust_creative=Klanz-jboxl2XzqrjP6LLw&utm_campaign=yelp_api_v3&utm_medium=api_v3_business_search&utm_source=Klanz-jboxl2XzqrjP6LLw", "review_count": 396, "categories": [{"alias": "japanese", "title": "Japanese"}, {"alias": "hotpot", "title": "Hot Pot"}], "rating": 4.5, "coordinates": {"latitude": 37.78084, "longitude": -122.47492}, "transactions": ["restaurant_reservation", "delivery", "pickup"], "price": "$$$", "location": {"address1": "5158 Geary Blvd", "address2": "", "address3": null, "city": "San Francisco", "zip_code": "94118", "country": "US", "state": "CA", "display_address": ["5158 Geary Blvd", "San Francisco, CA 94118"]}, "phone": "+14153794539", "display_phone": "(415) 379-4539", "distance": 4043.7126401994383}, {"id": "r4bC7cNa-EAppRmvwck5jw", "alias": "aloh-o-mill-valley", "name": "Aloh-o", "image_url": "https://s3-media3.fl.yelpcdn.com/bphoto/KtEnOqdmj5ES46nmvXcUyg/o.jpg", "is_closed": false, "url": "https://www.yelp.com/biz/aloh-o-mill-valley?adjust_creative=Klanz-jboxl2XzqrjP6LLw&utm_campaign=yelp_api_v3&utm_medium=api_v3_business_search&utm_source=Klanz-jboxl2XzqrjP6LLw", "review_count": 29, "categories": [{"alias": "japanese", "title": "Japanese"}, {"alias": "poke", "title": "Poke"}, {"alias": "bubbletea", "title": "Bubble Tea"}], "rating": 3.5, "coordinates": {"latitude": 37.898274938244754, "longitude": -122.5147986027833}, "transactions": [], "location": {"address1": "800 Redwood Hwy", "address2": "Ste 114", "address3": null, "city": "Mill Valley", "zip_code": "94941", "country": "US", "state": "CA", "display_address": ["800 Redwood Hwy", "Ste 114", "Mill Valley, CA 94941"]}, "phone": "", "display_phone": "", "distance": 16753.846193478763}, {"id": "_9bhEHlrWSN55p7Y6sHP8g", "alias": "kamado-sushi-berkeley", "name": "Kamado Sushi", "image_url": "https://s3-media2.fl.yelpcdn.com/bphoto/xgB46zltDrNndr1DN-v0Og/o.jpg", "is_closed": false, "url": "https://www.yelp.com/biz/kamado-sushi-berkeley?adjust_creative=Klanz-jboxl2XzqrjP6LLw&utm_campaign=yelp_api_v3&utm_medium=api_v3_business_search&utm_source=Klanz-jboxl2XzqrjP6LLw", "review_count": 352, "categories": [{"alias": "japanese", "title": "Japanese"}, {"alias": "sushi", "title": "Sushi Bars"}, {"alias": "soup", "title": "Soup"}], "rating": 4.0, "coordinates": {"latitude": 37.8818319209494, "longitude": -122.269697226584}, "transactions": ["delivery"], "price": "$$", "location": {"address1": "1400 Shattuck Ave", "address2": "Ste 1A", "address3": "", "city": "Berkeley", "zip_code": "94709", "country": "US", "state": "CA", "display_address": ["1400 Shattuck Ave", "Ste 1A", "Berkeley, CA 94709"]}, "phone": "+15105405000", "display_phone": "(510) 540-5000", "distance": 19883.314713247946}, {"id": "emS6NzwOiBQGKYPiYu0ZVg", "alias": "yama-sushi-san-francisco-san-francisco", "name": "Yama Sushi - San Francisco", "image_url": "https://s3-media2.fl.yelpcdn.com/bphoto/--Oaz66V-jqxo4rzRdBGeg/o.jpg", "is_closed": false, "url": "https://www.yelp.com/biz/yama-sushi-san-francisco-san-francisco?adjust_creative=Klanz-jboxl2XzqrjP6LLw&utm_campaign=yelp_api_v3&utm_medium=api_v3_business_search&utm_source=Klanz-jboxl2XzqrjP6LLw", "review_count": 445, "categories": [{"alias": "japanese", "title": "Japanese"}], "rating": 3.0, "coordinates": {"latitude": 37.72198, "longitude": -122.46202}, "transactions": ["pickup", "delivery"], "price": "$$", "location": {"address1": "850 Holloway Ave", "address2": null, "address3": "", "city": "San Francisco", "zip_code": "94112", "country": "US", "state": "CA", "display_address": ["850 Holloway Ave", "San Francisco, CA 94112"]}, "phone": "+14153332889", "display_phone": "(415) 333-2889", "distance": 4881.827097559142}, {"id": "o4zXzIIJFHZvExPU2u7IdA", "alias": "ginza-japanese-restaurant-oakland", "name": "Ginza Japanese Restaurant", "image_url": "https://s3-media2.fl.yelpcdn.com/bphoto/FHLo1n38qRksLluZ7S0Zew/o.jpg", "is_closed": false, "url": "https://www.yelp.com/biz/ginza-japanese-restaurant-oakland?adjust_creative=Klanz-jboxl2XzqrjP6LLw&utm_campaign=yelp_api_v3&utm_medium=api_v3_business_search&utm_source=Klanz-jboxl2XzqrjP6LLw", "review_count": 348, "categories": [{"alias": "japanese", "title": "Japanese"}, {"alias": "sushi", "title": "Sushi Bars"}], "rating": 4.0, "coordinates": {"latitude": 37.797082, "longitude": -122.2759458}, "transactions": ["delivery", "pickup"], "price": "$$", "location": {"address1": "303 Broadway", "address2": "", "address3": "", "city": "Oakland", "zip_code": "94607", "country": "US", "state": "CA", "display_address": ["303 Broadway", "Oakland, CA 94607"]}, "phone": "+15104512224", "display_phone": "(510) 451-2224", "distance": 14668.392312954937}, {"id": "DSHzsZwazLD6g4Ot17A3iQ", "alias": "dim-sum-club-san-francisco-3", "name": "Dim Sum Club", "image_url": "https://s3-media1.fl.yelpcdn.com/bphoto/sWhZZ4Xrd5jIh3EP_G2PUA/o.jpg", "is_closed": false, "url": "https://www.yelp.com/biz/dim-sum-club-san-francisco-3?adjust_creative=Klanz-jboxl2XzqrjP6LLw&utm_campaign=yelp_api_v3&utm_medium=api_v3_business_search&utm_source=Klanz-jboxl2XzqrjP6LLw", "review_count": 119, "categories": [{"alias": "dimsum", "title": "Dim Sum"}, {"alias": "seafood", "title": "Seafood"}, {"alias": "cantonese", "title": "Cantonese"}], "rating": 4.0, "coordinates": {"latitude": 37.74224411177974, "longitude": -122.49033528220909}, "transactions": ["restaurant_reservation", "delivery", "pickup"], "price": "$$", "location": {"address1": "2237 Taraval St", "address2": "", "address3": null, "city": "San Francisco", "zip_code": "94116", "country": "US", "state": "CA", "display_address": ["2237 Taraval St", "San Francisco, CA 94116"]}, "phone": "+14155928938", "display_phone": "(415) 592-8938", "distance": 5171.994253476306}, {"id": "JfYD1RLWIocNtgsOLU5NgQ", "alias": "the-grubbies-san-francisco-3", "name": "The Grubbies", "image_url": "https://s3-media3.fl.yelpcdn.com/bphoto/aKnRnARFCN4bUMBjaKwbuw/o.jpg", "is_closed": false, "url": "https://www.yelp.com/biz/the-grubbies-san-francisco-3?adjust_creative=Klanz-jboxl2XzqrjP6LLw&utm_campaign=yelp_api_v3&utm_medium=api_v3_business_search&utm_source=Klanz-jboxl2XzqrjP6LLw", "review_count": 143, "categories": [{"alias": "japanese", "title": "Japanese"}], "rating": 4.0, "coordinates": {"latitude": 37.7878039, "longitude": -122.3993022}, "transactions": ["delivery", "pickup"], "price": "$$", "location": {"address1": "123 2nd St", "address2": "", "address3": null, "city": "San Francisco", "zip_code": "94105", "country": "US", "state": "CA", "display_address": ["123 2nd St", "San Francisco, CA 94105"]}, "phone": "+14157570887", "display_phone": "(415) 757-0887", "distance": 4429.552851042594}, {"id": "5HA7OuFkkN76mBiJmI-MoA", "alias": "eat-sushi-restaurant-san-francisco", "name": "Eat Sushi Restaurant", "image_url": "https://s3-media3.fl.yelpcdn.com/bphoto/LT-MDnLh7fyovLkZZ6vJNQ/o.jpg", "is_closed": false, "url": "https://www.yelp.com/biz/eat-sushi-restaurant-san-francisco?adjust_creative=Klanz-jboxl2XzqrjP6LLw&utm_campaign=yelp_api_v3&utm_medium=api_v3_business_search&utm_source=Klanz-jboxl2XzqrjP6LLw", "review_count": 198, "categories": [{"alias": "sushi", "title": "Sushi Bars"}, {"alias": "ramen", "title": "Ramen"}, {"alias": "poke", "title": "Poke"}], "rating": 4.5, "coordinates": {"latitude": 37.77182, "longitude": -122.41452}, "transactions": ["delivery", "pickup"], "price": "$$", "location": {"address1": "1516 Folsom St", "address2": null, "address3": "", "city": "San Francisco", "zip_code": "94103", "country": "US", "state": "CA", "display_address": ["1516 Folsom St", "San Francisco, CA 94103"]}, "phone": "+14153551288", "display_phone": "(415) 355-1288", "distance": 2277.2280096784893}, {"id": "Ldq4XfNsXM-ciulyDUlMmw", "alias": "sweet-lime-thai-cuisine-san-francisco", "name": "Sweet Lime Thai Cuisine", "image_url": "https://s3-media4.fl.yelpcdn.com/bphoto/MDfKrUulpDD4vIyDJ03csw/o.jpg", "is_closed": false, "url": "https://www.yelp.com/biz/sweet-lime-thai-cuisine-san-francisco?adjust_creative=Klanz-jboxl2XzqrjP6LLw&utm_campaign=yelp_api_v3&utm_medium=api_v3_business_search&utm_source=Klanz-jboxl2XzqrjP6LLw", "review_count": 522, "categories": [{"alias": "thai", "title": "Thai"}], "rating": 4.0, "coordinates": {"latitude": 37.7860027535405, "longitude": -122.435123975131}, "transactions": ["pickup", "delivery"], "price": "$$", "location": {"address1": "2100 Sutter St", "address2": "", "address3": "", "city": "San Francisco", "zip_code": "94115", "country": "US", "state": "CA", "display_address": ["2100 Sutter St", "San Francisco, CA 94115"]}, "phone": "+14156747515", "display_phone": "(415) 674-7515", "distance": 2793.7851906187257}, {"id": "ihsc-gyOo6O0I7xBumkxnw", "alias": "ipoh-garden-malaysian-cuisine-millbrae-4", "name": "IPOH Garden Malaysian Cuisine", "image_url": "https://s3-media2.fl.yelpcdn.com/bphoto/gwU8iJY6r5gvXJnEsRFwpg/o.jpg", "is_closed": false, "url": "https://www.yelp.com/biz/ipoh-garden-malaysian-cuisine-millbrae-4?adjust_creative=Klanz-jboxl2XzqrjP6LLw&utm_campaign=yelp_api_v3&utm_medium=api_v3_business_search&utm_source=Klanz-jboxl2XzqrjP6LLw", "review_count": 469, "categories": [{"alias": "malaysian", "title": "Malaysian"}], "rating": 4.0, "coordinates": {"latitude": 37.599366, "longitude": -122.387811}, "transactions": ["pickup"], "price": "$$", "location": {"address1": "100 El Camino Real", "address2": null, "address3": "", "city": "Millbrae", "zip_code": "94030", "country": "US", "state": "CA", "display_address": ["100 El Camino Real", "Millbrae, CA 94030"]}, "phone": "+16506529588", "display_phone": "(650) 652-9588", "distance": 18464.598014232168}, {"id": "AQjSsLrOheQ1snPWtYwv3w", "alias": "toyose-san-francisco-3", "name": "Toyose", "image_url": "https://s3-media3.fl.yelpcdn.com/bphoto/guKJMtGh-ubduLA3V4aZZg/o.jpg", "is_closed": false, "url": "https://www.yelp.com/biz/toyose-san-francisco-3?adjust_creative=Klanz-jboxl2XzqrjP6LLw&utm_campaign=yelp_api_v3&utm_medium=api_v3_business_search&utm_source=Klanz-jboxl2XzqrjP6LLw", "review_count": 1616, "categories": [{"alias": "korean", "title": "Korean"}], "rating": 3.5, "coordinates": {"latitude": 37.753199, "longitude": -122.504706}, "transactions": ["delivery", "pickup"], "price": "$$", "location": {"address1": "3814 Noriega St", "address2": "", "address3": "", "city": "San Francisco", "zip_code": "94122", "country": "US", "state": "CA", "display_address": ["3814 Noriega St", "San Francisco, CA 94122"]}, "phone": "+14157310232", "display_phone": "(415) 731-0232", "distance": 6061.224289706166}, {"id": "I5ecjIlXPoXptu7Kwnq4iw", "alias": "umai-ramen-house-san-francisco", "name": "Umai Ramen House", "image_url": "https://s3-media3.fl.yelpcdn.com/bphoto/R_lXh3mUIROmS57rI05cjw/o.jpg", "is_closed": false, "url": "https://www.yelp.com/biz/umai-ramen-house-san-francisco?adjust_creative=Klanz-jboxl2XzqrjP6LLw&utm_campaign=yelp_api_v3&utm_medium=api_v3_business_search&utm_source=Klanz-jboxl2XzqrjP6LLw", "review_count": 51, "categories": [{"alias": "ramen", "title": "Ramen"}, {"alias": "japacurry", "title": "Japanese Curry"}, {"alias": "wine_bars", "title": "Wine Bars"}], "rating": 4.0, "coordinates": {"latitude": 37.785216, "longitude": -122.429108}, "transactions": ["delivery", "pickup"], "price": "$$", "location": {"address1": "22 Peace Plz", "address2": "Ste 560", "address3": "", "city": "San Francisco", "zip_code": "94115", "country": "US", "state": "CA", "display_address": ["22 Peace Plz", "Ste 560", "San Francisco, CA 94115"]}, "phone": "+14156587370", "display_phone": "(415) 658-7370", "distance": 2779.7614894266953}, {"id": "Jdkiq2BN6g_-5Ja_Sevxcg", "alias": "wooden-charcoal-korean-village-barbecue-house-san-francisco", "name": "Wooden Charcoal Korean Village Barbecue House", "image_url": "https://s3-media3.fl.yelpcdn.com/bphoto/HroSJrKmqjrrurTVTMHfRQ/o.jpg", "is_closed": false, "url": "https://www.yelp.com/biz/wooden-charcoal-korean-village-barbecue-house-san-francisco?adjust_creative=Klanz-jboxl2XzqrjP6LLw&utm_campaign=yelp_api_v3&utm_medium=api_v3_business_search&utm_source=Klanz-jboxl2XzqrjP6LLw", "review_count": 561, "categories": [{"alias": "korean", "title": "Korean"}, {"alias": "bbq", "title": "Barbeque"}, {"alias": "noodles", "title": "Noodles"}], "rating": 3.5, "coordinates": {"latitude": 37.780608, "longitude": -122.4689096}, "transactions": ["delivery", "pickup"], "price": "$$", "location": {"address1": "4611 Geary Blvd", "address2": null, "address3": "", "city": "San Francisco", "zip_code": "94118", "country": "US", "state": "CA", "display_address": ["4611 Geary Blvd", "San Francisco, CA 94118"]}, "phone": "+14157516336", "display_phone": "(415) 751-6336", "distance": 3592.2128615631727}, {"id": "A_2m0mcKEqOJ1XsqUbzUIg", "alias": "amitis-caf\u00e9-san-francisco-2", "name": "Amitis Caf\u00e9", "image_url": "https://s3-media3.fl.yelpcdn.com/bphoto/9xXFxj5ZncgBQqUoVKiN2w/o.jpg", "is_closed": false, "url": "https://www.yelp.com/biz/amitis-caf%C3%A9-san-francisco-2?adjust_creative=Klanz-jboxl2XzqrjP6LLw&utm_campaign=yelp_api_v3&utm_medium=api_v3_business_search&utm_source=Klanz-jboxl2XzqrjP6LLw", "review_count": 204, "categories": [{"alias": "poke", "title": "Poke"}, {"alias": "sushi", "title": "Sushi Bars"}, {"alias": "japacurry", "title": "Japanese Curry"}], "rating": 4.5, "coordinates": {"latitude": 37.77384, "longitude": -122.44583}, "transactions": ["pickup", "delivery"], "price": "$$", "location": {"address1": "800 Masonic Ave", "address2": null, "address3": "", "city": "San Francisco", "zip_code": "94117", "country": "US", "state": "CA", "display_address": ["800 Masonic Ave", "San Francisco, CA 94117"]}, "phone": "+14155632828", "display_phone": "(415) 563-2828", "distance": 1660.6934320313992}, {"id": "wk1R0R2atEs9w4jgeibWqg", "alias": "rice-n-roll-pacifica", "name": "Rice N Roll", "image_url": "https://s3-media4.fl.yelpcdn.com/bphoto/cIAABar4GwEYiwukmo8BWQ/o.jpg", "is_closed": false, "url": "https://www.yelp.com/biz/rice-n-roll-pacifica?adjust_creative=Klanz-jboxl2XzqrjP6LLw&utm_campaign=yelp_api_v3&utm_medium=api_v3_business_search&utm_source=Klanz-jboxl2XzqrjP6LLw", "review_count": 743, "categories": [{"alias": "chinese", "title": "Chinese"}, {"alias": "vegetarian", "title": "Vegetarian"}], "rating": 3.5, "coordinates": {"latitude": 37.6460435, "longitude": -122.4716853}, "transactions": ["delivery", "pickup"], "price": "$$", "location": {"address1": "683 Manor Dr", "address2": null, "address3": "", "city": "Pacifica", "zip_code": "94044", "country": "US", "state": "CA", "display_address": ["683 Manor Dr", "Pacifica, CA 94044"]}, "phone": "+16507380218", "display_phone": "(650) 738-0218", "distance": 13140.299363974953}, {"id": "QeksPd0JgDBFg1ZvhKX6Kw", "alias": "the-hidden-bistro-san-francisco", "name": "The Hidden Bistro", "image_url": "https://s3-media1.fl.yelpcdn.com/bphoto/H5ZqFV4E9yjck37LhKLGtA/o.jpg", "is_closed": false, "url": "https://www.yelp.com/biz/the-hidden-bistro-san-francisco?adjust_creative=Klanz-jboxl2XzqrjP6LLw&utm_campaign=yelp_api_v3&utm_medium=api_v3_business_search&utm_source=Klanz-jboxl2XzqrjP6LLw", "review_count": 12, "categories": [{"alias": "vietnamese", "title": "Vietnamese"}, {"alias": "thai", "title": "Thai"}, {"alias": "burmese", "title": "Burmese"}], "rating": 5.0, "coordinates": {"latitude": 37.73685592340665, "longitude": -122.40499885677298}, "transactions": ["delivery"], "location": {"address1": "90 Charter Oak Ave", "address2": null, "address3": "", "city": "San Francisco", "zip_code": "94124", "country": "US", "state": "CA", "display_address": ["90 Charter Oak Ave", "San Francisco, CA 94124"]}, "phone": "+14159159530", "display_phone": "(415) 915-9530", "distance": 3846.145506401675}, {"id": "rdh_2_fXo5BeqYl_9OGZsA", "alias": "saap-ver-authentic-thai-cuisine-san-francisco-2", "name": "Saap Ver Authentic Thai Cuisine", "image_url": "https://s3-media2.fl.yelpcdn.com/bphoto/niDMWVsHguZ2W85pyTYgfg/o.jpg", "is_closed": false, "url": "https://www.yelp.com/biz/saap-ver-authentic-thai-cuisine-san-francisco-2?adjust_creative=Klanz-jboxl2XzqrjP6LLw&utm_campaign=yelp_api_v3&utm_medium=api_v3_business_search&utm_source=Klanz-jboxl2XzqrjP6LLw", "review_count": 574, "categories": [{"alias": "thai", "title": "Thai"}, {"alias": "noodles", "title": "Noodles"}, {"alias": "beer_and_wine", "title": "Beer, Wine & Spirits"}], "rating": 4.0, "coordinates": {"latitude": 37.7698933, "longitude": -122.4045964}, "transactions": ["restaurant_reservation", "pickup"], "price": "$$", "location": {"address1": "88 Division St", "address2": null, "address3": "", "city": "San Francisco", "zip_code": "94103", "country": "US", "state": "CA", "display_address": ["88 Division St", "San Francisco, CA 94103"]}, "phone": "+14152558188", "display_phone": "(415) 255-8188", "distance": 3122.0552350298603}, {"id": "4q0hzjmI5VCoTxyjbJ04RA", "alias": "amberjack-mill-valley", "name": "Amberjack", "image_url": "https://s3-media4.fl.yelpcdn.com/bphoto/4FRQU2jrkioLkuJ7Bqir1g/o.jpg", "is_closed": false, "url": "https://www.yelp.com/biz/amberjack-mill-valley?adjust_creative=Klanz-jboxl2XzqrjP6LLw&utm_campaign=yelp_api_v3&utm_medium=api_v3_business_search&utm_source=Klanz-jboxl2XzqrjP6LLw", "review_count": 106, "categories": [{"alias": "japanese", "title": "Japanese"}, {"alias": "sushi", "title": "Sushi Bars"}], "rating": 3.5, "coordinates": {"latitude": 37.9058004, "longitude": -122.5452319}, "transactions": ["delivery", "pickup"], "price": "$$", "location": {"address1": "72 E Blithedale Ave", "address2": null, "address3": "", "city": "Mill Valley", "zip_code": "94941", "country": "US", "state": "CA", "display_address": ["72 E Blithedale Ave", "Mill Valley, CA 94941"]}, "phone": "+14153831327", "display_phone": "(415) 383-1327", "distance": 18728.35273921515}, {"id": "vka9K72EQhmw2H3MFhPrHg", "alias": "ushio-ramen-san-francisco-3", "name": "Ushio Ramen", "image_url": "https://s3-media3.fl.yelpcdn.com/bphoto/TmBN8q69bXvfdm2HZA7daw/o.jpg", "is_closed": false, "url": "https://www.yelp.com/biz/ushio-ramen-san-francisco-3?adjust_creative=Klanz-jboxl2XzqrjP6LLw&utm_campaign=yelp_api_v3&utm_medium=api_v3_business_search&utm_source=Klanz-jboxl2XzqrjP6LLw", "review_count": 273, "categories": [{"alias": "ramen", "title": "Ramen"}], "rating": 4.0, "coordinates": {"latitude": 37.765096, "longitude": -122.422692}, "transactions": ["delivery", "pickup"], "price": "$$", "location": {"address1": "3128 16th St", "address2": "", "address3": null, "city": "San Francisco", "zip_code": "94103", "country": "US", "state": "CA", "display_address": ["3128 16th St", "San Francisco, CA 94103"]}, "phone": "+14157030318", "display_phone": "(415) 703-0318", "distance": 1296.067917318319}, {"id": "LPbxqvHlctFiYsfZTx3YrQ", "alias": "osakaya-restaurant-san-francisco", "name": "Osakaya Restaurant", "image_url": "https://s3-media1.fl.yelpcdn.com/bphoto/KUhUH_MxHEMjZTEI-B-eWA/o.jpg", "is_closed": false, "url": "https://www.yelp.com/biz/osakaya-restaurant-san-francisco?adjust_creative=Klanz-jboxl2XzqrjP6LLw&utm_campaign=yelp_api_v3&utm_medium=api_v3_business_search&utm_source=Klanz-jboxl2XzqrjP6LLw", "review_count": 606, "categories": [{"alias": "ramen", "title": "Ramen"}, {"alias": "sushi", "title": "Sushi Bars"}, {"alias": "japacurry", "title": "Japanese Curry"}], "rating": 3.0, "coordinates": {"latitude": 37.785196, "longitude": -122.430501}, "transactions": ["delivery"], "price": "$$", "location": {"address1": "1737 Post St", "address2": "Ste 370", "address3": "", "city": "San Francisco", "zip_code": "94115", "country": "US", "state": "CA", "display_address": ["1737 Post St", "Ste 370", "San Francisco, CA 94115"]}, "phone": "+14159222728", "display_phone": "(415) 922-2728", "distance": 2751.74250547299}, {"id": "EF8WoEUdt-qTZ2P-DLYYNQ", "alias": "new-england-lobster-market-and-eatery-burlingame", "name": "New England Lobster Market & Eatery", "image_url": "https://s3-media3.fl.yelpcdn.com/bphoto/eIEvQKEdybaW7Xx3ZYRsyw/o.jpg", "is_closed": false, "url": "https://www.yelp.com/biz/new-england-lobster-market-and-eatery-burlingame?adjust_creative=Klanz-jboxl2XzqrjP6LLw&utm_campaign=yelp_api_v3&utm_medium=api_v3_business_search&utm_source=Klanz-jboxl2XzqrjP6LLw", "review_count": 4371, "categories": [{"alias": "seafoodmarkets", "title": "Seafood Markets"}, {"alias": "seafood", "title": "Seafood"}, {"alias": "tapasmallplates", "title": "Tapas/Small Plates"}], "rating": 4.5, "coordinates": {"latitude": 37.602687, "longitude": -122.374733}, "transactions": ["pickup", "delivery"], "price": "$$", "location": {"address1": "824 Cowan Rd", "address2": "", "address3": "", "city": "Burlingame", "zip_code": "94010", "country": "US", "state": "CA", "display_address": ["824 Cowan Rd", "Burlingame, CA 94010"]}, "phone": "+16504431559", "display_phone": "(650) 443-1559", "distance": 18411.611545679087}, {"id": "bCrPqM3TTC8lGQCLYGIpLw", "alias": "kama-sushi-san-francisco-10", "name": "Kama Sushi", "image_url": "https://s3-media3.fl.yelpcdn.com/bphoto/RF1HSJFYA7YzMN3TXe4_Sg/o.jpg", "is_closed": false, "url": "https://www.yelp.com/biz/kama-sushi-san-francisco-10?adjust_creative=Klanz-jboxl2XzqrjP6LLw&utm_campaign=yelp_api_v3&utm_medium=api_v3_business_search&utm_source=Klanz-jboxl2XzqrjP6LLw", "review_count": 742, "categories": [{"alias": "japanese", "title": "Japanese"}, {"alias": "sushi", "title": "Sushi Bars"}], "rating": 4.0, "coordinates": {"latitude": 37.773787, "longitude": -122.411969}, "transactions": ["pickup"], "price": "$$", "location": {"address1": "294 9th St", "address2": null, "address3": "", "city": "San Francisco", "zip_code": "94103", "country": "US", "state": "CA", "display_address": ["294 9th St", "San Francisco, CA 94103"]}, "phone": "+14158008287", "display_phone": "(415) 800-8287", "distance": 2585.922987995937}, {"id": "XR4giIOCQ5D-mxtOPUUY_Q", "alias": "palette-tea-house-san-francisco-2", "name": "Palette Tea House", "image_url": "https://s3-media2.fl.yelpcdn.com/bphoto/deEL6muzhCHpCuHIt-9qww/o.jpg", "is_closed": false, "url": "https://www.yelp.com/biz/palette-tea-house-san-francisco-2?adjust_creative=Klanz-jboxl2XzqrjP6LLw&utm_campaign=yelp_api_v3&utm_medium=api_v3_business_search&utm_source=Klanz-jboxl2XzqrjP6LLw", "review_count": 1007, "categories": [{"alias": "dimsum", "title": "Dim Sum"}, {"alias": "seafood", "title": "Seafood"}, {"alias": "cantonese", "title": "Cantonese"}], "rating": 4.0, "coordinates": {"latitude": 37.805852, "longitude": -122.42293}, "transactions": ["restaurant_reservation", "delivery", "pickup"], "location": {"address1": "900 N Point St", "address2": "Ste B-201A", "address3": "", "city": "San Francisco", "zip_code": "94109", "country": "US", "state": "CA", "display_address": ["900 N Point St", "Ste B-201A", "San Francisco, CA 94109"]}, "phone": "+14153478888", "display_phone": "(415) 347-8888", "distance": 5109.360713877256}, {"id": "dw0tkJ04WYegq6ZQe5C1AQ", "alias": "harmony-restaurant-mill-valley", "name": "Harmony Restaurant", "image_url": "https://s3-media3.fl.yelpcdn.com/bphoto/4ETub6sR9ZHcBIEDPOvoFw/o.jpg", "is_closed": false, "url": "https://www.yelp.com/biz/harmony-restaurant-mill-valley?adjust_creative=Klanz-jboxl2XzqrjP6LLw&utm_campaign=yelp_api_v3&utm_medium=api_v3_business_search&utm_source=Klanz-jboxl2XzqrjP6LLw", "review_count": 443, "categories": [{"alias": "chinese", "title": "Chinese"}], "rating": 3.5, "coordinates": {"latitude": 37.897481, "longitude": -122.515351}, "transactions": ["delivery"], "price": "$$", "location": {"address1": "800 Redwood Hwy", "address2": "", "address3": "", "city": "Mill Valley", "zip_code": "94941", "country": "US", "state": "CA", "display_address": ["800 Redwood Hwy", "Mill Valley, CA 94941"]}, "phone": "+14153815300", "display_phone": "(415) 381-5300", "distance": 16693.49054870309}, {"id": "5pbmDuj6eFIaUx_yDHGODg", "alias": "ichi-ni-san-sushi-san-francisco", "name": "Ichi Ni San Sushi", "image_url": "https://s3-media2.fl.yelpcdn.com/bphoto/5Q-_zdZP7luqAaXhDJ7Ljg/o.jpg", "is_closed": false, "url": "https://www.yelp.com/biz/ichi-ni-san-sushi-san-francisco?adjust_creative=Klanz-jboxl2XzqrjP6LLw&utm_campaign=yelp_api_v3&utm_medium=api_v3_business_search&utm_source=Klanz-jboxl2XzqrjP6LLw", "review_count": 32, "categories": [{"alias": "japanese", "title": "Japanese"}, {"alias": "sushi", "title": "Sushi Bars"}], "rating": 4.5, "coordinates": {"latitude": 37.75552, "longitude": -122.41955}, "transactions": ["restaurant_reservation", "delivery", "pickup"], "location": {"address1": "3230 22nd St", "address2": null, "address3": "", "city": "San Francisco", "zip_code": "94110", "country": "US", "state": "CA", "display_address": ["3230 22nd St", "San Francisco, CA 94110"]}, "phone": "+14158171762", "display_phone": "(415) 817-1762", "distance": 1605.1572809117197}, {"id": "EDbLPG9Gb6V3tMRBucuPfw", "alias": "yoshio-sushi-el-cerrito-2", "name": "Yoshio Sushi", "image_url": "https://s3-media3.fl.yelpcdn.com/bphoto/LYpVL3gBuIRW_EMav30JDg/o.jpg", "is_closed": false, "url": "https://www.yelp.com/biz/yoshio-sushi-el-cerrito-2?adjust_creative=Klanz-jboxl2XzqrjP6LLw&utm_campaign=yelp_api_v3&utm_medium=api_v3_business_search&utm_source=Klanz-jboxl2XzqrjP6LLw", "review_count": 293, "categories": [{"alias": "sushi", "title": "Sushi Bars"}, {"alias": "japanese", "title": "Japanese"}], "rating": 3.5, "coordinates": {"latitude": 37.9151991, "longitude": -122.3115541}, "transactions": ["delivery", "pickup"], "price": "$$", "location": {"address1": "10889 San Pablo Ave", "address2": null, "address3": "", "city": "El Cerrito", "zip_code": "94530", "country": "US", "state": "CA", "display_address": ["10889 San Pablo Ave", "El Cerrito, CA 94530"]}, "phone": "+15102370562", "display_phone": "(510) 237-0562", "distance": 20360.58653814354}, {"id": "ivgTjeXIRgh20Moz5lQtLA", "alias": "kyoto-berkeley", "name": "Kyoto", "image_url": "https://s3-media2.fl.yelpcdn.com/bphoto/jSq_j_-YVYyXmeiRgn4U5Q/o.jpg", "is_closed": false, "url": "https://www.yelp.com/biz/kyoto-berkeley?adjust_creative=Klanz-jboxl2XzqrjP6LLw&utm_campaign=yelp_api_v3&utm_medium=api_v3_business_search&utm_source=Klanz-jboxl2XzqrjP6LLw", "review_count": 227, "categories": [{"alias": "japanese", "title": "Japanese"}, {"alias": "sushi", "title": "Sushi Bars"}], "rating": 4.0, "coordinates": {"latitude": 37.8912633, "longitude": -122.2846004}, "transactions": ["delivery"], "price": "$", "location": {"address1": "1599 Solano Ave", "address2": "", "address3": "", "city": "Berkeley", "zip_code": "94707", "country": "US", "state": "CA", "display_address": ["1599 Solano Ave", "Berkeley, CA 94707"]}, "phone": "+15105273288", "display_phone": "(510) 527-3288", "distance": 19697.604124190013}, {"id": "xO2V0wkXP3Na-mWhLo1ZxQ", "alias": "cocotte-san-francisco", "name": "Cocotte", "image_url": "https://s3-media2.fl.yelpcdn.com/bphoto/D2DIWhNuZ9jKRM4GyKAHXA/o.jpg", "is_closed": false, "url": "https://www.yelp.com/biz/cocotte-san-francisco?adjust_creative=Klanz-jboxl2XzqrjP6LLw&utm_campaign=yelp_api_v3&utm_medium=api_v3_business_search&utm_source=Klanz-jboxl2XzqrjP6LLw", "review_count": 583, "categories": [{"alias": "french", "title": "French"}, {"alias": "wine_bars", "title": "Wine Bars"}], "rating": 4.0, "coordinates": {"latitude": 37.7948581, "longitude": -122.4183072}, "transactions": ["pickup"], "price": "$$$", "location": {"address1": "1521 Hyde St", "address2": "", "address3": "", "city": "San Francisco", "zip_code": "94109", "country": "US", "state": "CA", "display_address": ["1521 Hyde St", "San Francisco, CA 94109"]}, "phone": "", "display_phone": "", "distance": 4098.7955712438525}, {"id": "Nym8BkMAjD6yEqruLFx3Zw", "alias": "hiro-san-bruno-3", "name": "Hiro", "image_url": "https://s3-media2.fl.yelpcdn.com/bphoto/s_6_i6Q-Lf2nnXSyJc_kfA/o.jpg", "is_closed": false, "url": "https://www.yelp.com/biz/hiro-san-bruno-3?adjust_creative=Klanz-jboxl2XzqrjP6LLw&utm_campaign=yelp_api_v3&utm_medium=api_v3_business_search&utm_source=Klanz-jboxl2XzqrjP6LLw", "review_count": 134, "categories": [{"alias": "korean", "title": "Korean"}, {"alias": "asianfusion", "title": "Asian Fusion"}], "rating": 4.5, "coordinates": {"latitude": 37.622852335363, "longitude": -122.411480136216}, "transactions": [], "price": "$$", "location": {"address1": "449 San Mateo Ave", "address2": "", "address3": null, "city": "San Bruno", "zip_code": "94066", "country": "US", "state": "CA", "display_address": ["449 San Mateo Ave", "San Bruno, CA 94066"]}, "phone": "+16505885559", "display_phone": "(650) 588-5559", "distance": 15506.518536093165}, {"id": "oYSVp4mhODs0GL4LeFip5Q", "alias": "akagi-restaurant-san-bruno", "name": "Akagi Restaurant", "image_url": "https://s3-media3.fl.yelpcdn.com/bphoto/tYo_Qcb_KDr1ybOxD-_Vnw/o.jpg", "is_closed": false, "url": "https://www.yelp.com/biz/akagi-restaurant-san-bruno?adjust_creative=Klanz-jboxl2XzqrjP6LLw&utm_campaign=yelp_api_v3&utm_medium=api_v3_business_search&utm_source=Klanz-jboxl2XzqrjP6LLw", "review_count": 503, "categories": [{"alias": "japanese", "title": "Japanese"}, {"alias": "sushi", "title": "Sushi Bars"}], "rating": 3.5, "coordinates": {"latitude": 37.6273469, "longitude": -122.4163692}, "transactions": ["delivery"], "price": "$$", "location": {"address1": "713 Camino Plz", "address2": "", "address3": "", "city": "San Bruno", "zip_code": "94066", "country": "US", "state": "CA", "display_address": ["713 Camino Plz", "San Bruno, CA 94066"]}, "phone": "+16509524141", "display_phone": "(650) 952-4141", "distance": 14943.046749987278}, {"id": "2FR395iJImCphQNGWubUtw", "alias": "champa-garden-san-francisco-2", "name": "Champa Garden", "image_url": "https://s3-media4.fl.yelpcdn.com/bphoto/C3C_Rgzz-h3CZGg6IdTFoQ/o.jpg", "is_closed": false, "url": "https://www.yelp.com/biz/champa-garden-san-francisco-2?adjust_creative=Klanz-jboxl2XzqrjP6LLw&utm_campaign=yelp_api_v3&utm_medium=api_v3_business_search&utm_source=Klanz-jboxl2XzqrjP6LLw", "review_count": 885, "categories": [{"alias": "laotian", "title": "Laotian"}, {"alias": "asianfusion", "title": "Asian Fusion"}, {"alias": "thai", "title": "Thai"}], "rating": 4.0, "coordinates": {"latitude": 37.725079, "longitude": -122.460196}, "transactions": ["delivery", "pickup"], "price": "$$", "location": {"address1": "613 Faxon Ave", "address2": "", "address3": "", "city": "San Francisco", "zip_code": "94112", "country": "US", "state": "CA", "display_address": ["613 Faxon Ave", "San Francisco, CA 94112"]}, "phone": "+14153494186", "display_phone": "(415) 349-4186", "distance": 4496.014516338692}], "total": 1600, "region": {"center": {"longitude": -122.43644714355469, "latitude": 37.76089938976322}}}