{"businesses": [{"id": "cL0q9S4bqwpbAN9ZKh-Zeg", "alias": "nara-restaurant-and-sake-bar-san-francisco", "name": "Nara Restaurant & Sake Bar", "image_url": "https://s3-media1.fl.yelpcdn.com/bphoto/7zzlpJKaC9bndjuo2UIr6g/o.jpg", "is_closed": false, "url": "https://www.yelp.com/biz/nara-restaurant-and-sake-bar-san-francisco?adjust_creative=Klanz-jboxl2XzqrjP6LLw&utm_campaign=yelp_api_v3&utm_medium=api_v3_business_search&utm_source=Klanz-jboxl2XzqrjP6LLw", "review_count": 1630, "categories": [{"alias": "japanese", "title": "Japanese"}, {"alias": "sushi", "title": "Sushi Bars"}], "rating": 4.5, "coordinates": {"latitude": 37.7721665317965, "longitude": -122.430675700307}, "transactions": ["delivery", "restaurant_reservation", "pickup"], "price": "$$", "location": {"address1": "518 Haight St", "address2": "", "address3": "", "city": "San Francisco", "zip_code": "94117", "country": "US", "state": "CA", "display_address": ["518 Haight St", "San Francisco, CA 94117"]}, "phone": "+14156386124", "display_phone": "(415) 638-6124", "distance": 1351.6641305802066}, {"id": "HHtpR0RslupSQ99GIIwW5A", "alias": "marufuku-ramen-san-francisco-5", "name": "Marufuku Ramen", "image_url": "https://s3-media4.fl.yelpcdn.com/bphoto/ouK2VmW0SrI70jsJpTxJhw/o.jpg", "is_closed": false, "url": "https://www.yelp.com/biz/marufuku-ramen-san-francisco-5?adjust_creative=Klanz-jboxl2XzqrjP6LLw&utm_campaign=yelp_api_v3&utm_medium=api_v3_business_search&utm_source=Klanz-jboxl2XzqrjP6LLw", "review_count": 3653, "categories": [{"alias": "ramen", "title": "Ramen"}], "rating": 4.5, "coordinates": {"latitude": 37.78520111708754, "longitude": -122.43200834862841}, "transactions": ["delivery", "pickup"], "price": "$$", "location": {"address1": "1581 Webster St", "address2": "Ste 235", "address3": null, "city": "San Francisco", "zip_code": "94115", "country": "US", "state": "CA", "display_address": ["1581 Webster St", "Ste 235", "San Francisco, CA 94115"]}, "phone": "+14158729786", "display_phone": "(415) 872-9786", "distance": 2730.244177861569}, {"id": "mydKjdG8gJOcRQ9cZwkQpQ", "alias": "ryokos-san-francisco", "name": "Ryoko's", "image_url": "https://s3-media3.fl.yelpcdn.com/bphoto/w3i_dVIjGTyIeiYXUzumkA/o.jpg", "is_closed": false, "url": "https://www.yelp.com/biz/ryokos-san-francisco?adjust_creative=Klanz-jboxl2XzqrjP6LLw&utm_campaign=yelp_api_v3&utm_medium=api_v3_business_search&utm_source=Klanz-jboxl2XzqrjP6LLw", "review_count": 3129, "categories": [{"alias": "sushi", "title": "Sushi Bars"}, {"alias": "japanese", "title": "Japanese"}, {"alias": "bars", "title": "Bars"}], "rating": 4.0, "coordinates": {"latitude": 37.7881987776243, "longitude": -122.412059158087}, "transactions": ["delivery"], "price": "$$", "location": {"address1": "619 Taylor St", "address2": "", "address3": "", "city": "San Francisco", "zip_code": "94102", "country": "US", "state": "CA", "display_address": ["619 Taylor St", "San Francisco, CA 94102"]}, "phone": "+14157751028", "display_phone": "(415) 775-1028", "distance": 3716.0638867510324}, {"id": "pKP6ikrLyM5Gtua13kVoUw", "alias": "izakaya-sozai-san-francisco", "name": "Izakaya Sozai", "image_url": "https://s3-media4.fl.yelpcdn.com/bphoto/XWj7FATx9EG9gteTQBXhgA/o.jpg", "is_closed": false, "url": "https://www.yelp.com/biz/izakaya-sozai-san-francisco?adjust_creative=Klanz-jboxl2XzqrjP6LLw&utm_campaign=yelp_api_v3&utm_medium=api_v3_business_search&utm_source=Klanz-jboxl2XzqrjP6LLw", "review_count": 2104, "categories": [{"alias": "ramen", "title": "Ramen"}, {"alias": "izakaya", "title": "Izakaya"}, {"alias": "noodles", "title": "Noodles"}], "rating": 4.0, "coordinates": {"latitude": 37.763879, "longitude": -122.47413}, "transactions": ["delivery"], "price": "$$", "location": {"address1": "1500 Irving St", "address2": null, "address3": "", "city": "San Francisco", "zip_code": "94122", "country": "US", "state": "CA", "display_address": ["1500 Irving St", "San Francisco, CA 94122"]}, "phone": "+14157425122", "display_phone": "(415) 742-5122", "distance": 3329.071252002252}, {"id": "LDqA7rQ3fCmPWFymhIXXcQ", "alias": "sakesan-sushi-and-bistro-san-francisco-2", "name": "Sakesan Sushi & Bistro", "image_url": "https://s3-media2.fl.yelpcdn.com/bphoto/ZGDmAxFMtHMFtbFTVcgj7Q/o.jpg", "is_closed": false, "url": "https://www.yelp.com/biz/sakesan-sushi-and-bistro-san-francisco-2?adjust_creative=Klanz-jboxl2XzqrjP6LLw&utm_campaign=yelp_api_v3&utm_medium=api_v3_business_search&utm_source=Klanz-jboxl2XzqrjP6LLw", "review_count": 1128, "categories": [{"alias": "japanese", "title": "Japanese"}, {"alias": "karaoke", "title": "Karaoke"}, {"alias": "sushi", "title": "Sushi Bars"}], "rating": 4.0, "coordinates": {"latitude": 37.7830613, "longitude": -122.466063}, "transactions": ["delivery", "restaurant_reservation", "pickup"], "price": "$$", "location": {"address1": "626 Clement St", "address2": null, "address3": "", "city": "San Francisco", "zip_code": "94118", "country": "US", "state": "CA", "display_address": ["626 Clement St", "San Francisco, CA 94118"]}, "phone": "+14158766313", "display_phone": "(415) 876-6313", "distance": 3584.507149023519}, {"id": "IRD_9JUjR-06zztisuTdAA", "alias": "akikos-restaurant-san-francisco", "name": "Akiko's Restaurant", "image_url": "https://s3-media2.fl.yelpcdn.com/bphoto/XJBfe68tQbZeueKmOgYJIw/o.jpg", "is_closed": false, "url": "https://www.yelp.com/biz/akikos-restaurant-san-francisco?adjust_creative=Klanz-jboxl2XzqrjP6LLw&utm_campaign=yelp_api_v3&utm_medium=api_v3_business_search&utm_source=Klanz-jboxl2XzqrjP6LLw", "review_count": 1921, "categories": [{"alias": "sushi", "title": "Sushi Bars"}, {"alias": "japanese", "title": "Japanese"}], "rating": 4.0, "coordinates": {"latitude": 37.790582, "longitude": -122.404653}, "transactions": ["delivery"], "price": "$$$", "location": {"address1": "431 Bush St", "address2": "", "address3": "", "city": "San Francisco", "zip_code": "94108", "country": "US", "state": "CA", "display_address": ["431 Bush St", "San Francisco, CA 94108"]}, "phone": "+14153973218", "display_phone": "(415) 397-3218", "distance": 4324.608600941186}, {"id": "WtA7XYzBFhZ5LPbSihEWkw", "alias": "akira-japanese-restaurant-san-francisco", "name": "Akira Japanese Restaurant", "image_url": "https://s3-media1.fl.yelpcdn.com/bphoto/hMLXYF8acpJzGEDgEqbRog/o.jpg", "is_closed": false, "url": "https://www.yelp.com/biz/akira-japanese-restaurant-san-francisco?adjust_creative=Klanz-jboxl2XzqrjP6LLw&utm_campaign=yelp_api_v3&utm_medium=api_v3_business_search&utm_source=Klanz-jboxl2XzqrjP6LLw", "review_count": 439, "categories": [{"alias": "japanese", "title": "Japanese"}, {"alias": "sushi", "title": "Sushi Bars"}], "rating": 4.0, "coordinates": {"latitude": 37.78846, "longitude": -122.42421}, "transactions": ["delivery", "pickup"], "price": "$$", "location": {"address1": "1634 Bush St", "address2": "", "address3": null, "city": "San Francisco", "zip_code": "94109", "country": "US", "state": "CA", "display_address": ["1634 Bush St", "San Francisco, CA 94109"]}, "phone": "+14158008498", "display_phone": "(415) 800-8498", "distance": 3240.441916550173}, {"id": "r2jiJk3yivcLkWSSYELGcA", "alias": "tataki-san-francisco", "name": "Tataki", "image_url": "https://s3-media1.fl.yelpcdn.com/bphoto/jz1YmSB_DGqAWoRlXxqaow/o.jpg", "is_closed": false, "url": "https://www.yelp.com/biz/tataki-san-francisco?adjust_creative=Klanz-jboxl2XzqrjP6LLw&utm_campaign=yelp_api_v3&utm_medium=api_v3_business_search&utm_source=Klanz-jboxl2XzqrjP6LLw", "review_count": 1314, "categories": [{"alias": "sushi", "title": "Sushi Bars"}, {"alias": "bars", "title": "Bars"}], "rating": 4.0, "coordinates": {"latitude": 37.7878390504557, "longitude": -122.441227674274}, "transactions": ["delivery", "restaurant_reservation"], "price": "$$", "location": {"address1": "2827 California St", "address2": "", "address3": "", "city": "San Francisco", "zip_code": "94115", "country": "US", "state": "CA", "display_address": ["2827 California St", "San Francisco, CA 94115"]}, "phone": "+14159311182", "display_phone": "(415) 931-1182", "distance": 3024.874051233535}, {"id": "oibaW-5yuiKVS5o_CcvzIg", "alias": "izakaya-mayumi-san-francisco", "name": "Izakaya Mayumi", "image_url": "https://s3-media4.fl.yelpcdn.com/bphoto/86o0ZlzpCbgRg1xzoDR8ug/o.jpg", "is_closed": false, "url": "https://www.yelp.com/biz/izakaya-mayumi-san-francisco?adjust_creative=Klanz-jboxl2XzqrjP6LLw&utm_campaign=yelp_api_v3&utm_medium=api_v3_business_search&utm_source=Klanz-jboxl2XzqrjP6LLw", "review_count": 68, "categories": [{"alias": "izakaya", "title": "Izakaya"}], "rating": 4.5, "coordinates": {"latitude": 37.78195, "longitude": -122.48316}, "transactions": ["delivery", "pickup"], "location": {"address1": "2221 Clement St", "address2": "", "address3": null, "city": "San Francisco", "zip_code": "94121", "country": "US", "state": "CA", "display_address": ["2221 Clement St", "San Francisco, CA 94121"]}, "phone": "+14157424159", "display_phone": "(415) 742-4159", "distance": 4727.4974345442415}, {"id": "qvGED1YA1lt_wrbP92RVZA", "alias": "kibatsu-san-francisco", "name": "Kibatsu", "image_url": "https://s3-media4.fl.yelpcdn.com/bphoto/lzOFTkbitbmm-oOBahmQsw/o.jpg", "is_closed": false, "url": "https://www.yelp.com/biz/kibatsu-san-francisco?adjust_creative=Klanz-jboxl2XzqrjP6LLw&utm_campaign=yelp_api_v3&utm_medium=api_v3_business_search&utm_source=Klanz-jboxl2XzqrjP6LLw", "review_count": 240, "categories": [{"alias": "sushi", "title": "Sushi Bars"}, {"alias": "japanese", "title": "Japanese"}], "rating": 4.5, "coordinates": {"latitude": 37.77243, "longitude": -122.42899}, "transactions": ["delivery", "restaurant_reservation", "pickup"], "price": "$$$", "location": {"address1": "400 Haight St", "address2": "", "address3": null, "city": "San Francisco", "zip_code": "94117", "country": "US", "state": "CA", "display_address": ["400 Haight St", "San Francisco, CA 94117"]}, "phone": "+14158729636", "display_phone": "(415) 872-9636", "distance": 1444.631536218594}, {"id": "9t3DWuROXOrvioDxG9R59A", "alias": "goemon-sushi-san-francisco-2", "name": "Goemon Sushi", "image_url": "https://s3-media1.fl.yelpcdn.com/bphoto/KQWa0taBVFzPN4oY83wT1A/o.jpg", "is_closed": false, "url": "https://www.yelp.com/biz/goemon-sushi-san-francisco-2?adjust_creative=Klanz-jboxl2XzqrjP6LLw&utm_campaign=yelp_api_v3&utm_medium=api_v3_business_search&utm_source=Klanz-jboxl2XzqrjP6LLw", "review_count": 275, "categories": [{"alias": "japanese", "title": "Japanese"}, {"alias": "sushi", "title": "Sushi Bars"}], "rating": 4.5, "coordinates": {"latitude": 37.76393, "longitude": -122.47438}, "transactions": ["delivery", "pickup"], "price": "$$", "location": {"address1": "1524 Irving St", "address2": "", "address3": null, "city": "San Francisco", "zip_code": "94122", "country": "US", "state": "CA", "display_address": ["1524 Irving St", "San Francisco, CA 94122"]}, "phone": "+14157425137", "display_phone": "(415) 742-5137", "distance": 3354.660795211291}, {"id": "U0GqpXzcIDlad7vQHbB63Q", "alias": "kusakabe-san-francisco", "name": "KUSAKABE", "image_url": "https://s3-media1.fl.yelpcdn.com/bphoto/iXZ1Ts45fAl83jO9XhOELQ/o.jpg", "is_closed": false, "url": "https://www.yelp.com/biz/kusakabe-san-francisco?adjust_creative=Klanz-jboxl2XzqrjP6LLw&utm_campaign=yelp_api_v3&utm_medium=api_v3_business_search&utm_source=Klanz-jboxl2XzqrjP6LLw", "review_count": 959, "categories": [{"alias": "sushi", "title": "Sushi Bars"}, {"alias": "japanese", "title": "Japanese"}], "rating": 4.5, "coordinates": {"latitude": 37.7957017702111, "longitude": -122.402884835582}, "transactions": ["delivery", "pickup"], "price": "$$$$", "location": {"address1": "584 Washington St", "address2": "", "address3": "", "city": "San Francisco", "zip_code": "94111", "country": "US", "state": "CA", "display_address": ["584 Washington St", "San Francisco, CA 94111"]}, "phone": "+14157570155", "display_phone": "(415) 757-0155", "distance": 4865.835208903343}, {"id": "HojJBwz97VzJztVSp7bBow", "alias": "kazoku-sushi-san-francisco", "name": "Kazoku Sushi", "image_url": "https://s3-media4.fl.yelpcdn.com/bphoto/ywMWgZ_hxzHlL-vAOSKqjw/o.jpg", "is_closed": false, "url": "https://www.yelp.com/biz/kazoku-sushi-san-francisco?adjust_creative=Klanz-jboxl2XzqrjP6LLw&utm_campaign=yelp_api_v3&utm_medium=api_v3_business_search&utm_source=Klanz-jboxl2XzqrjP6LLw", "review_count": 85, "categories": [{"alias": "sushi", "title": "Sushi Bars"}, {"alias": "japanese", "title": "Japanese"}], "rating": 4.5, "coordinates": {"latitude": 37.77561, "longitude": -122.50206}, "transactions": ["delivery", "restaurant_reservation", "pickup"], "price": "$$", "location": {"address1": "4036 Balboa St", "address2": null, "address3": "", "city": "San Francisco", "zip_code": "94121", "country": "US", "state": "CA", "display_address": ["4036 Balboa St", "San Francisco, CA 94121"]}, "phone": "+16282803813", "display_phone": "(628) 280-3813", "distance": 6015.0883503389805}, {"id": "zWpV3kVw1CO9Fb3JroQpqw", "alias": "an-japanese-restaurant-san-francisco-2", "name": "An Japanese Restaurant", "image_url": "https://s3-media1.fl.yelpcdn.com/bphoto/986p9JBv2x2jwsNaV-_o1A/o.jpg", "is_closed": false, "url": "https://www.yelp.com/biz/an-japanese-restaurant-san-francisco-2?adjust_creative=Klanz-jboxl2XzqrjP6LLw&utm_campaign=yelp_api_v3&utm_medium=api_v3_business_search&utm_source=Klanz-jboxl2XzqrjP6LLw", "review_count": 169, "categories": [{"alias": "sushi", "title": "Sushi Bars"}, {"alias": "japanese", "title": "Japanese"}], "rating": 4.5, "coordinates": {"latitude": 37.7850737295732, "longitude": -122.428939975798}, "transactions": ["delivery"], "price": "$$$$", "location": {"address1": "22 Peace Plz", "address2": "Ste 510", "address3": "", "city": "San Francisco", "zip_code": "94115", "country": "US", "state": "CA", "display_address": ["22 Peace Plz", "Ste 510", "San Francisco, CA 94115"]}, "phone": "+14152507276", "display_phone": "(415) 250-7276", "distance": 2767.859559800693}, {"id": "D1K_lFglA5fOYquqltYcdg", "alias": "ebisu-san-francisco", "name": "Ebisu", "image_url": "https://s3-media3.fl.yelpcdn.com/bphoto/LBXwE1lTAB58073vOlMONA/o.jpg", "is_closed": false, "url": "https://www.yelp.com/biz/ebisu-san-francisco?adjust_creative=Klanz-jboxl2XzqrjP6LLw&utm_campaign=yelp_api_v3&utm_medium=api_v3_business_search&utm_source=Klanz-jboxl2XzqrjP6LLw", "review_count": 1881, "categories": [{"alias": "sushi", "title": "Sushi Bars"}, {"alias": "japanese", "title": "Japanese"}], "rating": 4.0, "coordinates": {"latitude": 37.7644547169329, "longitude": -122.466417011814}, "transactions": ["delivery"], "price": "$$", "location": {"address1": "1283 9th Ave", "address2": "", "address3": "", "city": "San Francisco", "zip_code": "94122", "country": "US", "state": "CA", "display_address": ["1283 9th Ave", "San Francisco, CA 94122"]}, "phone": "+14155661770", "display_phone": "(415) 566-1770", "distance": 2664.01311750992}, {"id": "cjfJOMF6hpE7bX0ESWdAEg", "alias": "sanraku-san-francisco-2", "name": "Sanraku", "image_url": "https://s3-media2.fl.yelpcdn.com/bphoto/yo8sm_wnaFXe4kT6LBwUag/o.jpg", "is_closed": false, "url": "https://www.yelp.com/biz/sanraku-san-francisco-2?adjust_creative=Klanz-jboxl2XzqrjP6LLw&utm_campaign=yelp_api_v3&utm_medium=api_v3_business_search&utm_source=Klanz-jboxl2XzqrjP6LLw", "review_count": 1774, "categories": [{"alias": "japanese", "title": "Japanese"}, {"alias": "sushi", "title": "Sushi Bars"}, {"alias": "asianfusion", "title": "Asian Fusion"}], "rating": 4.0, "coordinates": {"latitude": 37.7889513951509, "longitude": -122.41242887495}, "transactions": ["delivery", "restaurant_reservation"], "price": "$$", "location": {"address1": "704 Sutter St", "address2": "", "address3": "", "city": "San Francisco", "zip_code": "94109", "country": "US", "state": "CA", "display_address": ["704 Sutter St", "San Francisco, CA 94109"]}, "phone": "+14157710803", "display_phone": "(415) 771-0803", "distance": 3766.419072831803}, {"id": "bE_1J-17ut6t6bvNhkkxSw", "alias": "wako-japanese-restaurant-san-francisco", "name": "Wako Japanese Restaurant", "image_url": "https://s3-media3.fl.yelpcdn.com/bphoto/30HBWXQkdLSyiOc9BOQ9pA/o.jpg", "is_closed": false, "url": "https://www.yelp.com/biz/wako-japanese-restaurant-san-francisco?adjust_creative=Klanz-jboxl2XzqrjP6LLw&utm_campaign=yelp_api_v3&utm_medium=api_v3_business_search&utm_source=Klanz-jboxl2XzqrjP6LLw", "review_count": 668, "categories": [{"alias": "japanese", "title": "Japanese"}, {"alias": "sushi", "title": "Sushi Bars"}], "rating": 4.5, "coordinates": {"latitude": 37.78283, "longitude": -122.46148}, "transactions": [], "price": "$$$$", "location": {"address1": "211 Clement St", "address2": "", "address3": "", "city": "San Francisco", "zip_code": "94118", "country": "US", "state": "CA", "display_address": ["211 Clement St", "San Francisco, CA 94118"]}, "phone": "+14156824875", "display_phone": "(415) 682-4875", "distance": 3295.5870048888887}, {"id": "vth2jtXfVUCRJeIP680CyA", "alias": "udon-mugizo-san-francisco-11", "name": "Udon Mugizo", "image_url": "https://s3-media3.fl.yelpcdn.com/bphoto/7M2QWfxKnGU8qCMl1edeMQ/o.jpg", "is_closed": false, "url": "https://www.yelp.com/biz/udon-mugizo-san-francisco-11?adjust_creative=Klanz-jboxl2XzqrjP6LLw&utm_campaign=yelp_api_v3&utm_medium=api_v3_business_search&utm_source=Klanz-jboxl2XzqrjP6LLw", "review_count": 1082, "categories": [{"alias": "japanese", "title": "Japanese"}, {"alias": "noodles", "title": "Noodles"}], "rating": 4.0, "coordinates": {"latitude": 37.78501, "longitude": -122.431741}, "transactions": ["delivery", "pickup"], "price": "$$", "location": {"address1": "1581 Webster St", "address2": "Ste 217", "address3": "", "city": "San Francisco", "zip_code": "94115", "country": "US", "state": "CA", "display_address": ["1581 Webster St", "Ste 217", "San Francisco, CA 94115"]}, "phone": "+14159313118", "display_phone": "(415) 931-3118", "distance": 2712.696327480518}, {"id": "zj09K037XrZ_51Yh5qsIAw", "alias": "kui-shin-bo-san-francisco-2", "name": "Kui Shin Bo", "image_url": "https://s3-media2.fl.yelpcdn.com/bphoto/N_YNLGQJLo8en-dgbu4cWg/o.jpg", "is_closed": false, "url": "https://www.yelp.com/biz/kui-shin-bo-san-francisco-2?adjust_creative=Klanz-jboxl2XzqrjP6LLw&utm_campaign=yelp_api_v3&utm_medium=api_v3_business_search&utm_source=Klanz-jboxl2XzqrjP6LLw", "review_count": 828, "categories": [{"alias": "japanese", "title": "Japanese"}, {"alias": "sushi", "title": "Sushi Bars"}], "rating": 4.0, "coordinates": {"latitude": 37.785367, "longitude": -122.429465}, "transactions": ["delivery", "pickup"], "price": "$$", "location": {"address1": "22 Peace Plz", "address2": "Fl 2", "address3": null, "city": "San Francisco", "zip_code": "94115", "country": "US", "state": "CA", "display_address": ["22 Peace Plz", "Fl 2", "San Francisco, CA 94115"]}, "phone": "+14159229575", "display_phone": "(415) 922-9575", "distance": 2789.0243769571885}, {"id": "KutHWQT6Ha5ZRplvZ5mLXg", "alias": "toyama-sushi-san-francisco-2", "name": "Toyama Sushi", "image_url": "https://s3-media2.fl.yelpcdn.com/bphoto/FQHBmBmdUqVCbPFwy0nC9w/o.jpg", "is_closed": false, "url": "https://www.yelp.com/biz/toyama-sushi-san-francisco-2?adjust_creative=Klanz-jboxl2XzqrjP6LLw&utm_campaign=yelp_api_v3&utm_medium=api_v3_business_search&utm_source=Klanz-jboxl2XzqrjP6LLw", "review_count": 311, "categories": [{"alias": "japanese", "title": "Japanese"}, {"alias": "sushi", "title": "Sushi Bars"}], "rating": 4.5, "coordinates": {"latitude": 37.780943, "longitude": -122.459450103343}, "transactions": ["delivery", "pickup"], "price": "$$", "location": {"address1": "3727 Geary Blvd", "address2": "", "address3": null, "city": "San Francisco", "zip_code": "94118", "country": "US", "state": "CA", "display_address": ["3727 Geary Blvd", "San Francisco, CA 94118"]}, "phone": "+14152219811", "display_phone": "(415) 221-9811", "distance": 3009.190784912084}, {"id": "Fe-YjAdSRLqDC2H_pqPcSw", "alias": "hinodeya-ramen-bar-san-francisco", "name": "Hinodeya Ramen Bar", "image_url": "https://s3-media3.fl.yelpcdn.com/bphoto/9B_YcZvpGTZjKhAkR9BaWQ/o.jpg", "is_closed": false, "url": "https://www.yelp.com/biz/hinodeya-ramen-bar-san-francisco?adjust_creative=Klanz-jboxl2XzqrjP6LLw&utm_campaign=yelp_api_v3&utm_medium=api_v3_business_search&utm_source=Klanz-jboxl2XzqrjP6LLw", "review_count": 1485, "categories": [{"alias": "ramen", "title": "Ramen"}], "rating": 4.0, "coordinates": {"latitude": 37.7861574638014, "longitude": -122.430057115853}, "transactions": ["delivery", "pickup"], "price": "$$", "location": {"address1": "1737 Buchanan St", "address2": "", "address3": null, "city": "San Francisco", "zip_code": "94115", "country": "US", "state": "CA", "display_address": ["1737 Buchanan St", "San Francisco, CA 94115"]}, "phone": "+14152165011", "display_phone": "(415) 216-5011", "distance": 2864.172030534964}, {"id": "4jXML1vz29FYYUeoPJIs6A", "alias": "fujiyama-ya-japanese-restaurant-san-francisco", "name": "Fujiyama-Ya Japanese Restaurant", "image_url": "https://s3-media1.fl.yelpcdn.com/bphoto/00BoeaDcyDGWEhXNRevk7A/o.jpg", "is_closed": false, "url": "https://www.yelp.com/biz/fujiyama-ya-japanese-restaurant-san-francisco?adjust_creative=Klanz-jboxl2XzqrjP6LLw&utm_campaign=yelp_api_v3&utm_medium=api_v3_business_search&utm_source=Klanz-jboxl2XzqrjP6LLw", "review_count": 588, "categories": [{"alias": "japanese", "title": "Japanese"}, {"alias": "sushi", "title": "Sushi Bars"}], "rating": 4.0, "coordinates": {"latitude": 37.75444, "longitude": -122.47711}, "transactions": ["delivery"], "price": "$$", "location": {"address1": "1234 Noriega St", "address2": "", "address3": "", "city": "San Francisco", "zip_code": "94122", "country": "US", "state": "CA", "display_address": ["1234 Noriega St", "San Francisco, CA 94122"]}, "phone": "+14156651772", "display_phone": "(415) 665-1772", "distance": 3649.735666730695}, {"id": "dU04BKGhaB19ipLoKM7tRw", "alias": "shokudou-san-francisco-5", "name": "Shokudou", "image_url": "https://s3-media1.fl.yelpcdn.com/bphoto/xe7iOX14-CRXfgmMjgTtJw/o.jpg", "is_closed": false, "url": "https://www.yelp.com/biz/shokudou-san-francisco-5?adjust_creative=Klanz-jboxl2XzqrjP6LLw&utm_campaign=yelp_api_v3&utm_medium=api_v3_business_search&utm_source=Klanz-jboxl2XzqrjP6LLw", "review_count": 54, "categories": [{"alias": "izakaya", "title": "Izakaya"}], "rating": 4.5, "coordinates": {"latitude": 37.73893929400767, "longitude": -122.413161}, "transactions": ["delivery", "pickup"], "location": {"address1": "1000 Cortland Ave", "address2": null, "address3": "", "city": "San Francisco", "zip_code": "94110", "country": "US", "state": "CA", "display_address": ["1000 Cortland Ave", "San Francisco, CA 94110"]}, "phone": "+14158006883", "display_phone": "(415) 800-6883", "distance": 3186.5651800625633}, {"id": "WpcWACqlAodx5dbe5GJWZA", "alias": "omakase-san-francisco", "name": "Omakase", "image_url": "https://s3-media2.fl.yelpcdn.com/bphoto/9cOe015pIwqkWzbqzQCa3w/o.jpg", "is_closed": false, "url": "https://www.yelp.com/biz/omakase-san-francisco?adjust_creative=Klanz-jboxl2XzqrjP6LLw&utm_campaign=yelp_api_v3&utm_medium=api_v3_business_search&utm_source=Klanz-jboxl2XzqrjP6LLw", "review_count": 548, "categories": [{"alias": "sushi", "title": "Sushi Bars"}, {"alias": "japanese", "title": "Japanese"}], "rating": 4.5, "coordinates": {"latitude": 37.7706719094861, "longitude": -122.402888577285}, "transactions": [], "price": "$$$$", "location": {"address1": "665 Townsend St", "address2": "", "address3": "", "city": "San Francisco", "zip_code": "94103", "country": "US", "state": "CA", "display_address": ["665 Townsend St", "San Francisco, CA 94103"]}, "phone": "+14158650633", "display_phone": "(415) 865-0633", "distance": 3143.6415932479918}, {"id": "d40PbnRah7AWH_dclw1h_Q", "alias": "rintaro-san-francisco-4", "name": "Rintaro", "image_url": "https://s3-media1.fl.yelpcdn.com/bphoto/w-XxiV9K2KGisIo2r-hcdw/o.jpg", "is_closed": false, "url": "https://www.yelp.com/biz/rintaro-san-francisco-4?adjust_creative=Klanz-jboxl2XzqrjP6LLw&utm_campaign=yelp_api_v3&utm_medium=api_v3_business_search&utm_source=Klanz-jboxl2XzqrjP6LLw", "review_count": 737, "categories": [{"alias": "izakaya", "title": "Izakaya"}], "rating": 4.0, "coordinates": {"latitude": 37.76881, "longitude": -122.41511}, "transactions": ["delivery"], "price": "$$$", "location": {"address1": "82 14th St", "address2": "", "address3": "", "city": "San Francisco", "zip_code": "94103", "country": "US", "state": "CA", "display_address": ["82 14th St", "San Francisco, CA 94103"]}, "phone": "+14155897022", "display_phone": "(415) 589-7022", "distance": 2071.4305270365676}, {"id": "CGhIrUZW4MVprvgqhI222w", "alias": "oki-sushi-san-francisco", "name": "Oki Sushi", "image_url": "https://s3-media4.fl.yelpcdn.com/bphoto/-taKPd-Z5c9YCi7jL-6Pqw/o.jpg", "is_closed": false, "url": "https://www.yelp.com/biz/oki-sushi-san-francisco?adjust_creative=Klanz-jboxl2XzqrjP6LLw&utm_campaign=yelp_api_v3&utm_medium=api_v3_business_search&utm_source=Klanz-jboxl2XzqrjP6LLw", "review_count": 92, "categories": [{"alias": "sushi", "title": "Sushi Bars"}, {"alias": "japanese", "title": "Japanese"}], "rating": 4.5, "coordinates": {"latitude": 37.74307, "longitude": -122.42689}, "transactions": ["delivery", "pickup"], "price": "$$", "location": {"address1": "1740 Church St", "address2": null, "address3": "", "city": "San Francisco", "zip_code": "94131", "country": "US", "state": "CA", "display_address": ["1740 Church St", "San Francisco, CA 94131"]}, "phone": "+14158171094", "display_phone": "(415) 817-1094", "distance": 2150.8907523523076}, {"id": "SO7w-fN6uIBUEzkakrcxoQ", "alias": "ushi-taro-ramen-san-francisco-3", "name": "Ushi Taro Ramen", "image_url": "https://s3-media1.fl.yelpcdn.com/bphoto/WvJPkuX4ipW7QdmOzHMbzA/o.jpg", "is_closed": false, "url": "https://www.yelp.com/biz/ushi-taro-ramen-san-francisco-3?adjust_creative=Klanz-jboxl2XzqrjP6LLw&utm_campaign=yelp_api_v3&utm_medium=api_v3_business_search&utm_source=Klanz-jboxl2XzqrjP6LLw", "review_count": 320, "categories": [{"alias": "ramen", "title": "Ramen"}], "rating": 4.5, "coordinates": {"latitude": 37.7625462134757, "longitude": -122.466102987528}, "transactions": ["delivery", "pickup"], "price": "$$", "location": {"address1": "1382 9th Ave", "address2": "", "address3": null, "city": "San Francisco", "zip_code": "94122", "country": "US", "state": "CA", "display_address": ["1382 9th Ave", "San Francisco, CA 94122"]}, "phone": "+14157026014", "display_phone": "(415) 702-6014", "distance": 2613.3690556023816}, {"id": "bUllrq8bcGbn9TKtVcjL-A", "alias": "izakaya-yoki-san-francisco-2", "name": "Izakaya Yoki", "image_url": "https://s3-media2.fl.yelpcdn.com/bphoto/Nn-JV7RE8teR0wWSU0MaOQ/o.jpg", "is_closed": false, "url": "https://www.yelp.com/biz/izakaya-yoki-san-francisco-2?adjust_creative=Klanz-jboxl2XzqrjP6LLw&utm_campaign=yelp_api_v3&utm_medium=api_v3_business_search&utm_source=Klanz-jboxl2XzqrjP6LLw", "review_count": 315, "categories": [{"alias": "japanese", "title": "Japanese"}, {"alias": "korean", "title": "Korean"}], "rating": 4.5, "coordinates": {"latitude": 37.789884, "longitude": -122.412317}, "transactions": ["delivery", "restaurant_reservation", "pickup"], "price": "$$", "location": {"address1": "900 Bush St", "address2": "Ste C101", "address3": null, "city": "San Francisco", "zip_code": "94109", "country": "US", "state": "CA", "display_address": ["900 Bush St", "Ste C101", "San Francisco, CA 94109"]}, "phone": "+14159231141", "display_phone": "(415) 923-1141", "distance": 3858.1284480407476}, {"id": "6TL8udi-vy_5rH-wikMSoA", "alias": "saru-sushi-bar-noe-valley-san-francisco-3", "name": "Saru Sushi Bar - Noe Valley", "image_url": "https://s3-media1.fl.yelpcdn.com/bphoto/5-ugy01zjSvudVsfdhmCsA/o.jpg", "is_closed": false, "url": "https://www.yelp.com/biz/saru-sushi-bar-noe-valley-san-francisco-3?adjust_creative=Klanz-jboxl2XzqrjP6LLw&utm_campaign=yelp_api_v3&utm_medium=api_v3_business_search&utm_source=Klanz-jboxl2XzqrjP6LLw", "review_count": 900, "categories": [{"alias": "sushi", "title": "Sushi Bars"}, {"alias": "japanese", "title": "Japanese"}, {"alias": "seafood", "title": "Seafood"}], "rating": 4.5, "coordinates": {"latitude": 37.751706, "longitude": -122.4288283}, "transactions": ["delivery"], "price": "$$$", "location": {"address1": "3856 24th St", "address2": "", "address3": "", "city": "San Francisco", "zip_code": "94114", "country": "US", "state": "CA", "display_address": ["3856 24th St", "San Francisco, CA 94114"]}, "phone": "+14154004510", "display_phone": "(415) 400-4510", "distance": 1222.1441911467125}, {"id": "3MRyd2-Zx9smDLXWPAL3kw", "alias": "sushi-hon-san-francisco", "name": "Sushi Hon", "image_url": "https://s3-media1.fl.yelpcdn.com/bphoto/2eeUk9qkznmwUuw02DT-rA/o.jpg", "is_closed": false, "url": "https://www.yelp.com/biz/sushi-hon-san-francisco?adjust_creative=Klanz-jboxl2XzqrjP6LLw&utm_campaign=yelp_api_v3&utm_medium=api_v3_business_search&utm_source=Klanz-jboxl2XzqrjP6LLw", "review_count": 438, "categories": [{"alias": "japanese", "title": "Japanese"}, {"alias": "sushi", "title": "Sushi Bars"}], "rating": 4.5, "coordinates": {"latitude": 37.7559672710911, "longitude": -122.41243198514}, "transactions": ["restaurant_reservation"], "price": "$$$$", "location": {"address1": "2598 Harrison St", "address2": "", "address3": "", "city": "San Francisco", "zip_code": "94110", "country": "US", "state": "CA", "display_address": ["2598 Harrison St", "San Francisco, CA 94110"]}, "phone": "+14155254527", "display_phone": "(415) 525-4527", "distance": 2181.255715616739}, {"id": "czbXSfezN_DK8Ws0vcFqhg", "alias": "elephant-sushi-san-francisco", "name": "Elephant Sushi", "image_url": "https://s3-media3.fl.yelpcdn.com/bphoto/-g-eqRTyiomkXYH2z9k1oA/o.jpg", "is_closed": false, "url": "https://www.yelp.com/biz/elephant-sushi-san-francisco?adjust_creative=Klanz-jboxl2XzqrjP6LLw&utm_campaign=yelp_api_v3&utm_medium=api_v3_business_search&utm_source=Klanz-jboxl2XzqrjP6LLw", "review_count": 841, "categories": [{"alias": "sushi", "title": "Sushi Bars"}, {"alias": "japanese", "title": "Japanese"}], "rating": 4.0, "coordinates": {"latitude": 37.7986649, "longitude": -122.4187868}, "transactions": ["delivery", "pickup"], "price": "$$$", "location": {"address1": "1916 Hyde St", "address2": "", "address3": "", "city": "San Francisco", "zip_code": "94109", "country": "US", "state": "CA", "display_address": ["1916 Hyde St", "San Francisco, CA 94109"]}, "phone": "+14154401905", "display_phone": "(415) 440-1905", "distance": 4476.9765635890235}, {"id": "YZrl7W2dewBb-T7e-BxAkQ", "alias": "nara-san-francisco-5", "name": "Nara", "image_url": "https://s3-media2.fl.yelpcdn.com/bphoto/1dS02ESdZULndSAPsw8JHA/o.jpg", "is_closed": false, "url": "https://www.yelp.com/biz/nara-san-francisco-5?adjust_creative=Klanz-jboxl2XzqrjP6LLw&utm_campaign=yelp_api_v3&utm_medium=api_v3_business_search&utm_source=Klanz-jboxl2XzqrjP6LLw", "review_count": 393, "categories": [{"alias": "japanese", "title": "Japanese"}, {"alias": "sushi", "title": "Sushi Bars"}, {"alias": "bars", "title": "Bars"}], "rating": 4.5, "coordinates": {"latitude": 37.790889908718235, "longitude": -122.42094463158013}, "transactions": ["restaurant_reservation"], "price": "$$", "location": {"address1": "1515 Polk St", "address2": "", "address3": null, "city": "San Francisco", "zip_code": "94109", "country": "US", "state": "CA", "display_address": ["1515 Polk St", "San Francisco, CA 94109"]}, "phone": "+14155671515", "display_phone": "(415) 567-1515", "distance": 3602.3969658032584}, {"id": "A0AG2SpXxkIyq6x8HyTuSA", "alias": "kaiju-eats-ramen-and-izakaya-san-francisco-3", "name": "Kaiju Eats Ramen and Izakaya", "image_url": "https://s3-media2.fl.yelpcdn.com/bphoto/5p4-SeOKC5XMb_yRNoNCfg/o.jpg", "is_closed": false, "url": "https://www.yelp.com/biz/kaiju-eats-ramen-and-izakaya-san-francisco-3?adjust_creative=Klanz-jboxl2XzqrjP6LLw&utm_campaign=yelp_api_v3&utm_medium=api_v3_business_search&utm_source=Klanz-jboxl2XzqrjP6LLw", "review_count": 840, "categories": [{"alias": "sushi", "title": "Sushi Bars"}, {"alias": "ramen", "title": "Ramen"}, {"alias": "izakaya", "title": "Izakaya"}], "rating": 4.0, "coordinates": {"latitude": 37.781106, "longitude": -122.455533}, "transactions": ["pickup"], "price": "$$", "location": {"address1": "3409 Geary Blvd", "address2": "", "address3": "", "city": "San Francisco", "zip_code": "94118", "country": "US", "state": "CA", "display_address": ["3409 Geary Blvd", "San Francisco, CA 94118"]}, "phone": "+14157424309", "display_phone": "(415) 742-4309", "distance": 2804.040413057605}, {"id": "OcRSAkpOhnWHjV7X0FoM5Q", "alias": "j\u016b-ni-san-francisco-5", "name": "j\u016b-ni", "image_url": "https://s3-media2.fl.yelpcdn.com/bphoto/wupMb79rueJGeBWnGdJsnA/o.jpg", "is_closed": false, "url": "https://www.yelp.com/biz/j%C5%AB-ni-san-francisco-5?adjust_creative=Klanz-jboxl2XzqrjP6LLw&utm_campaign=yelp_api_v3&utm_medium=api_v3_business_search&utm_source=Klanz-jboxl2XzqrjP6LLw", "review_count": 436, "categories": [{"alias": "japanese", "title": "Japanese"}, {"alias": "sushi", "title": "Sushi Bars"}], "rating": 4.5, "coordinates": {"latitude": 37.77653, "longitude": -122.43883}, "transactions": [], "price": "$$$$", "location": {"address1": "1335 Fulton St", "address2": "Ste 101", "address3": "", "city": "San Francisco", "zip_code": "94117", "country": "US", "state": "CA", "display_address": ["1335 Fulton St", "Ste 101", "San Francisco, CA 94117"]}, "phone": "+14156559924", "display_phone": "(415) 655-9924", "distance": 1757.7177799710257}, {"id": "gI7sj-7oCcLuufz0EeLQ1w", "alias": "fenikkusu-san-francisco", "name": "Fenikkusu", "image_url": "https://s3-media4.fl.yelpcdn.com/bphoto/kMMAEmbV2oYXpVtMBQqlWQ/o.jpg", "is_closed": false, "url": "https://www.yelp.com/biz/fenikkusu-san-francisco?adjust_creative=Klanz-jboxl2XzqrjP6LLw&utm_campaign=yelp_api_v3&utm_medium=api_v3_business_search&utm_source=Klanz-jboxl2XzqrjP6LLw", "review_count": 83, "categories": [{"alias": "japanese", "title": "Japanese"}, {"alias": "tapasmallplates", "title": "Tapas/Small Plates"}], "rating": 4.5, "coordinates": {"latitude": 37.754826, "longitude": -122.422957}, "transactions": ["delivery"], "location": {"address1": "1009 Guerrero St", "address2": null, "address3": "", "city": "San Francisco", "zip_code": "94110", "country": "US", "state": "CA", "display_address": ["1009 Guerrero St", "San Francisco, CA 94110"]}, "phone": "+14159238600", "display_phone": "(415) 923-8600", "distance": 1369.5021798945072}, {"id": "BRz0ocqDzNlGS-AG1IpXtA", "alias": "pabu-izakaya-san-francisco-san-francisco", "name": "PABU Izakaya San Francisco", "image_url": "https://s3-media3.fl.yelpcdn.com/bphoto/DkfEfb2IRhCHxenRV6dnhw/o.jpg", "is_closed": false, "url": "https://www.yelp.com/biz/pabu-izakaya-san-francisco-san-francisco?adjust_creative=Klanz-jboxl2XzqrjP6LLw&utm_campaign=yelp_api_v3&utm_medium=api_v3_business_search&utm_source=Klanz-jboxl2XzqrjP6LLw", "review_count": 1123, "categories": [{"alias": "japanese", "title": "Japanese"}, {"alias": "sushi", "title": "Sushi Bars"}, {"alias": "cocktailbars", "title": "Cocktail Bars"}], "rating": 4.0, "coordinates": {"latitude": 37.792795, "longitude": -122.397989}, "transactions": ["delivery", "pickup"], "price": "$$$$", "location": {"address1": "101 California St", "address2": null, "address3": "", "city": "San Francisco", "zip_code": "94111", "country": "US", "state": "CA", "display_address": ["101 California St", "San Francisco, CA 94111"]}, "phone": "+14155350184", "display_phone": "(415) 535-0184", "distance": 4899.3051885514615}, {"id": "gcwl3UwaL_ogpYlgg8qdzQ", "alias": "amami-sushi-bistro-san-francisco-7", "name": "Amami Sushi Bistro", "image_url": "https://s3-media3.fl.yelpcdn.com/bphoto/EmPmoMUp45E3k_dBy_q7mA/o.jpg", "is_closed": false, "url": "https://www.yelp.com/biz/amami-sushi-bistro-san-francisco-7?adjust_creative=Klanz-jboxl2XzqrjP6LLw&utm_campaign=yelp_api_v3&utm_medium=api_v3_business_search&utm_source=Klanz-jboxl2XzqrjP6LLw", "review_count": 165, "categories": [{"alias": "sushi", "title": "Sushi Bars"}], "rating": 4.5, "coordinates": {"latitude": 37.72715, "longitude": -122.43271}, "transactions": ["delivery", "pickup"], "location": {"address1": "4435 Mission St", "address2": null, "address3": "", "city": "San Francisco", "zip_code": "94112", "country": "US", "state": "CA", "display_address": ["4435 Mission St", "San Francisco, CA 94112"]}, "phone": "+14153339288", "display_phone": "(415) 333-9288", "distance": 3769.5409263165275}, {"id": "7iiWJyo_N5rGz4agqe9EbA", "alias": "kabuto-restaurant-san-francisco", "name": "Kabuto Restaurant", "image_url": "https://s3-media3.fl.yelpcdn.com/bphoto/WpJfiIf2-BZWA9B9CNFPRA/o.jpg", "is_closed": false, "url": "https://www.yelp.com/biz/kabuto-restaurant-san-francisco?adjust_creative=Klanz-jboxl2XzqrjP6LLw&utm_campaign=yelp_api_v3&utm_medium=api_v3_business_search&utm_source=Klanz-jboxl2XzqrjP6LLw", "review_count": 1064, "categories": [{"alias": "sushi", "title": "Sushi Bars"}, {"alias": "japanese", "title": "Japanese"}], "rating": 4.0, "coordinates": {"latitude": 37.78031, "longitude": -122.47441}, "transactions": ["delivery", "restaurant_reservation"], "price": "$$$", "location": {"address1": "5121 Geary Blvd", "address2": "", "address3": "", "city": "San Francisco", "zip_code": "94118", "country": "US", "state": "CA", "display_address": ["5121 Geary Blvd", "San Francisco, CA 94118"]}, "phone": "+14157525652", "display_phone": "(415) 752-5652", "distance": 3974.7650899912555}, {"id": "yD9-WrXijc_grVmi_zkCfQ", "alias": "hinata-san-francisco", "name": "Hinata", "image_url": "https://s3-media2.fl.yelpcdn.com/bphoto/L9-kFO3pQfZXd8Pk-iaoHQ/o.jpg", "is_closed": false, "url": "https://www.yelp.com/biz/hinata-san-francisco?adjust_creative=Klanz-jboxl2XzqrjP6LLw&utm_campaign=yelp_api_v3&utm_medium=api_v3_business_search&utm_source=Klanz-jboxl2XzqrjP6LLw", "review_count": 631, "categories": [{"alias": "sushi", "title": "Sushi Bars"}, {"alias": "japanese", "title": "Japanese"}], "rating": 4.5, "coordinates": {"latitude": 37.78324, "longitude": -122.42048}, "transactions": ["restaurant_reservation"], "price": "$$$$", "location": {"address1": "810 Van Ness Ave", "address2": null, "address3": "", "city": "San Francisco", "zip_code": "94109", "country": "US", "state": "CA", "display_address": ["810 Van Ness Ave", "San Francisco, CA 94109"]}, "phone": "+14158298291", "display_phone": "(415) 829-8291", "distance": 2833.377489987141}, {"id": "kUxtjTa2vCSWQvr00YwxQw", "alias": "kazan-san-francisco", "name": "Kazan", "image_url": "https://s3-media3.fl.yelpcdn.com/bphoto/YFjJ96YGoB-U2j0GFpZ7UQ/o.jpg", "is_closed": false, "url": "https://www.yelp.com/biz/kazan-san-francisco?adjust_creative=Klanz-jboxl2XzqrjP6LLw&utm_campaign=yelp_api_v3&utm_medium=api_v3_business_search&utm_source=Klanz-jboxl2XzqrjP6LLw", "review_count": 508, "categories": [{"alias": "japanese", "title": "Japanese"}, {"alias": "sushi", "title": "Sushi Bars"}, {"alias": "soup", "title": "Soup"}], "rating": 4.5, "coordinates": {"latitude": 37.752694, "longitude": -122.408469}, "transactions": ["delivery"], "price": "$$", "location": {"address1": "2809 24th St", "address2": "", "address3": "", "city": "San Francisco", "zip_code": "94110", "country": "US", "state": "CA", "display_address": ["2809 24th St", "San Francisco, CA 94110"]}, "phone": "+14152822001", "display_phone": "(415) 282-2001", "distance": 2622.6059855964513}, {"id": "4GAsfSjaB1XewzS3TKOtTg", "alias": "koo-san-francisco", "name": "Koo", "image_url": "https://s3-media4.fl.yelpcdn.com/bphoto/DksWzDlavC9OqqMFHWwroQ/o.jpg", "is_closed": false, "url": "https://www.yelp.com/biz/koo-san-francisco?adjust_creative=Klanz-jboxl2XzqrjP6LLw&utm_campaign=yelp_api_v3&utm_medium=api_v3_business_search&utm_source=Klanz-jboxl2XzqrjP6LLw", "review_count": 1132, "categories": [{"alias": "japanese", "title": "Japanese"}, {"alias": "sushi", "title": "Sushi Bars"}], "rating": 4.0, "coordinates": {"latitude": 37.764358548011, "longitude": -122.46248724056164}, "transactions": ["delivery"], "price": "$$$", "location": {"address1": "408 Irving St", "address2": "", "address3": "", "city": "San Francisco", "zip_code": "94122", "country": "US", "state": "CA", "display_address": ["408 Irving St", "San Francisco, CA 94122"]}, "phone": "+14157317077", "display_phone": "(415) 731-7077", "distance": 2321.16071395463}, {"id": "vZpuRwoCD4upNRP5CScjDQ", "alias": "kiraku-berkeley", "name": "Kiraku", "image_url": "https://s3-media1.fl.yelpcdn.com/bphoto/mbrS9-YBB8E9GVxbdV-AHg/o.jpg", "is_closed": false, "url": "https://www.yelp.com/biz/kiraku-berkeley?adjust_creative=Klanz-jboxl2XzqrjP6LLw&utm_campaign=yelp_api_v3&utm_medium=api_v3_business_search&utm_source=Klanz-jboxl2XzqrjP6LLw", "review_count": 1235, "categories": [{"alias": "japanese", "title": "Japanese"}, {"alias": "tapasmallplates", "title": "Tapas/Small Plates"}, {"alias": "tapas", "title": "Tapas Bars"}], "rating": 4.5, "coordinates": {"latitude": 37.863683, "longitude": -122.258976}, "transactions": ["delivery", "restaurant_reservation", "pickup"], "price": "$$", "location": {"address1": "2566B Telegraph Ave", "address2": "", "address3": "", "city": "Berkeley", "zip_code": "94704", "country": "US", "state": "CA", "display_address": ["2566B Telegraph Ave", "Berkeley, CA 94704"]}, "phone": "+15108482758", "display_phone": "(510) 848-2758", "distance": 19330.72253628738}, {"id": "DpIphLvQx6FVaTbLdqcdEg", "alias": "hoshinoya-san-francisco", "name": "Hoshinoya", "image_url": "https://s3-media4.fl.yelpcdn.com/bphoto/VkEjPYsEJSHMUsiGcbVpig/o.jpg", "is_closed": false, "url": "https://www.yelp.com/biz/hoshinoya-san-francisco?adjust_creative=Klanz-jboxl2XzqrjP6LLw&utm_campaign=yelp_api_v3&utm_medium=api_v3_business_search&utm_source=Klanz-jboxl2XzqrjP6LLw", "review_count": 114, "categories": [{"alias": "japanese", "title": "Japanese"}, {"alias": "thai", "title": "Thai"}], "rating": 4.5, "coordinates": {"latitude": 37.78619933951487, "longitude": -122.42980602887711}, "transactions": ["delivery", "pickup"], "price": "$$", "location": {"address1": "1740 Buchanan St", "address2": null, "address3": "", "city": "San Francisco", "zip_code": "94115", "country": "US", "state": "CA", "display_address": ["1740 Buchanan St", "San Francisco, CA 94115"]}, "phone": "+14156103929", "display_phone": "(415) 610-3929", "distance": 2873.140179131405}, {"id": "kqk5BoCJU59MC9fH0IB4wQ", "alias": "kin-khao-san-francisco-2", "name": "Kin Khao", "image_url": "https://s3-media1.fl.yelpcdn.com/bphoto/zHz6-HG5XuXSZJq2FvNmsQ/o.jpg", "is_closed": false, "url": "https://www.yelp.com/biz/kin-khao-san-francisco-2?adjust_creative=Klanz-jboxl2XzqrjP6LLw&utm_campaign=yelp_api_v3&utm_medium=api_v3_business_search&utm_source=Klanz-jboxl2XzqrjP6LLw", "review_count": 2134, "categories": [{"alias": "thai", "title": "Thai"}], "rating": 4.0, "coordinates": {"latitude": 37.7852278803726, "longitude": -122.409348137336}, "transactions": ["delivery"], "price": "$$", "location": {"address1": "55 Cyril Magnin St", "address2": null, "address3": "", "city": "San Francisco", "zip_code": "94102", "country": "US", "state": "CA", "display_address": ["55 Cyril Magnin St", "San Francisco, CA 94102"]}, "phone": "+14153627456", "display_phone": "(415) 362-7456", "distance": 3604.326557361939}, {"id": "_GpFQcVns2ro364TBu7-VA", "alias": "sakesan-sushi-and-robata-san-francisco-6", "name": "Sakesan Sushi & Robata", "image_url": "https://s3-media4.fl.yelpcdn.com/bphoto/C_wHgECuULE4CUcMgMiLCw/o.jpg", "is_closed": false, "url": "https://www.yelp.com/biz/sakesan-sushi-and-robata-san-francisco-6?adjust_creative=Klanz-jboxl2XzqrjP6LLw&utm_campaign=yelp_api_v3&utm_medium=api_v3_business_search&utm_source=Klanz-jboxl2XzqrjP6LLw", "review_count": 396, "categories": [{"alias": "japanese", "title": "Japanese"}, {"alias": "sushi", "title": "Sushi Bars"}], "rating": 4.0, "coordinates": {"latitude": 37.7243585192671, "longitude": -122.457495672167}, "transactions": ["delivery", "restaurant_reservation", "pickup"], "price": "$$", "location": {"address1": "1400 Ocean Ave", "address2": "", "address3": null, "city": "San Francisco", "zip_code": "94112", "country": "US", "state": "CA", "display_address": ["1400 Ocean Ave", "San Francisco, CA 94112"]}, "phone": "+14153477898", "display_phone": "(415) 347-7898", "distance": 4464.82084179}, {"id": "-zetzVfO4X0dpiiTmjdeKg", "alias": "eiji-san-francisco", "name": "Eiji", "image_url": "https://s3-media1.fl.yelpcdn.com/bphoto/pWiRTXc0Te7loPLVRRBhwQ/o.jpg", "is_closed": false, "url": "https://www.yelp.com/biz/eiji-san-francisco?adjust_creative=Klanz-jboxl2XzqrjP6LLw&utm_campaign=yelp_api_v3&utm_medium=api_v3_business_search&utm_source=Klanz-jboxl2XzqrjP6LLw", "review_count": 1113, "categories": [{"alias": "sushi", "title": "Sushi Bars"}, {"alias": "japanese", "title": "Japanese"}], "rating": 4.0, "coordinates": {"latitude": 37.764058, "longitude": -122.430685}, "transactions": ["delivery"], "price": "$$", "location": {"address1": "317 Sanchez St", "address2": null, "address3": "", "city": "San Francisco", "zip_code": "94114", "country": "US", "state": "CA", "display_address": ["317 Sanchez St", "San Francisco, CA 94114"]}, "phone": "+14155588149", "display_phone": "(415) 558-8149", "distance": 616.380008566382}, {"id": "qKVwVCJ_5D0iOxJYE9wSJw", "alias": "roka-akor-san-francisco-san-francisco-4", "name": "Roka Akor - San Francisco", "image_url": "https://s3-media4.fl.yelpcdn.com/bphoto/AAncYrJqBI7kXTKL87DNTA/o.jpg", "is_closed": false, "url": "https://www.yelp.com/biz/roka-akor-san-francisco-san-francisco-4?adjust_creative=Klanz-jboxl2XzqrjP6LLw&utm_campaign=yelp_api_v3&utm_medium=api_v3_business_search&utm_source=Klanz-jboxl2XzqrjP6LLw", "review_count": 1426, "categories": [{"alias": "steak", "title": "Steakhouses"}, {"alias": "japanese", "title": "Japanese"}, {"alias": "cocktailbars", "title": "Cocktail Bars"}], "rating": 4.0, "coordinates": {"latitude": 37.7965391394848, "longitude": -122.403850511802}, "transactions": ["delivery"], "price": "$$$$", "location": {"address1": "801 Montgomery St", "address2": "", "address3": "", "city": "San Francisco", "zip_code": "94133", "country": "US", "state": "CA", "display_address": ["801 Montgomery St", "San Francisco, CA 94133"]}, "phone": "+14153628887", "display_phone": "(415) 362-8887", "distance": 4890.000090549722}, {"id": "ba82pLmI2zFk0ayiCQoPJQ", "alias": "sushi-uma-san-francisco", "name": "Sushi Uma", "image_url": "https://s3-media3.fl.yelpcdn.com/bphoto/LbNYFSSWVF3P6OvTTeaLsQ/o.jpg", "is_closed": false, "url": "https://www.yelp.com/biz/sushi-uma-san-francisco?adjust_creative=Klanz-jboxl2XzqrjP6LLw&utm_campaign=yelp_api_v3&utm_medium=api_v3_business_search&utm_source=Klanz-jboxl2XzqrjP6LLw", "review_count": 325, "categories": [{"alias": "sushi", "title": "Sushi Bars"}, {"alias": "japanese", "title": "Japanese"}], "rating": 4.0, "coordinates": {"latitude": 37.76353, "longitude": -122.48113}, "transactions": ["delivery", "pickup"], "price": "$$", "location": {"address1": "2146 Irving St", "address2": null, "address3": "", "city": "San Francisco", "zip_code": "94122", "country": "US", "state": "CA", "display_address": ["2146 Irving St", "San Francisco, CA 94122"]}, "phone": "+14159689933", "display_phone": "(415) 968-9933", "distance": 3939.628249904515}, {"id": "1bwGLMXDffQqmjWAd9MT7A", "alias": "kaisen-don-san-francisco-4", "name": "Kaisen Don", "image_url": "https://s3-media4.fl.yelpcdn.com/bphoto/7bGzEJ1bVRyE2viSVFDF3Q/o.jpg", "is_closed": false, "url": "https://www.yelp.com/biz/kaisen-don-san-francisco-4?adjust_creative=Klanz-jboxl2XzqrjP6LLw&utm_campaign=yelp_api_v3&utm_medium=api_v3_business_search&utm_source=Klanz-jboxl2XzqrjP6LLw", "review_count": 418, "categories": [{"alias": "japanese", "title": "Japanese"}, {"alias": "sushi", "title": "Sushi Bars"}, {"alias": "poke", "title": "Poke"}], "rating": 4.0, "coordinates": {"latitude": 37.725428, "longitude": -122.463254}, "transactions": ["delivery", "pickup"], "price": "$$", "location": {"address1": "1939 Ocean Ave", "address2": null, "address3": "", "city": "San Francisco", "zip_code": "94127", "country": "US", "state": "CA", "display_address": ["1939 Ocean Ave", "San Francisco, CA 94127"]}, "phone": "+14158599081", "display_phone": "(415) 859-9081", "distance": 4589.763820348943}, {"id": "wSsuLcdgXat_g69PswYWxw", "alias": "ichika-sushi-house-brisbane", "name": "Ichika Sushi House", "image_url": "https://s3-media3.fl.yelpcdn.com/bphoto/AFE4nVLEFW1A5CTRjqT2jw/o.jpg", "is_closed": false, "url": "https://www.yelp.com/biz/ichika-sushi-house-brisbane?adjust_creative=Klanz-jboxl2XzqrjP6LLw&utm_campaign=yelp_api_v3&utm_medium=api_v3_business_search&utm_source=Klanz-jboxl2XzqrjP6LLw", "review_count": 548, "categories": [{"alias": "sushi", "title": "Sushi Bars"}, {"alias": "ramen", "title": "Ramen"}, {"alias": "japacurry", "title": "Japanese Curry"}], "rating": 4.5, "coordinates": {"latitude": 37.68559, "longitude": -122.39976}, "transactions": ["delivery", "pickup"], "price": "$$", "location": {"address1": "118 Old County Rd", "address2": null, "address3": "", "city": "Brisbane", "zip_code": "94005", "country": "US", "state": "CA", "display_address": ["118 Old County Rd", "Brisbane, CA 94005"]}, "phone": "+14158255790", "display_phone": "(415) 825-5790", "distance": 8944.94073431498}], "total": 1600, "region": {"center": {"longitude": -122.43644714355469, "latitude": 37.76089938976322}}}