{"businesses": [{"id": "kN0TocgPKCGv1m44dmz37A", "alias": "amami-san-sushi-south-san-francisco", "name": "Amami San Sushi", "image_url": "https://s3-media3.fl.yelpcdn.com/bphoto/c3_YfTQj1bqtrptoh-fApA/o.jpg", "is_closed": false, "url": "https://www.yelp.com/biz/amami-san-sushi-south-san-francisco?adjust_creative=Klanz-jboxl2XzqrjP6LLw&utm_campaign=yelp_api_v3&utm_medium=api_v3_business_search&utm_source=Klanz-jboxl2XzqrjP6LLw", "review_count": 796, "categories": [{"alias": "sushi", "title": "Sushi Bars"}, {"alias": "japanese", "title": "Japanese"}], "rating": 3.5, "coordinates": {"latitude": 37.6555256545544, "longitude": -122.409950271249}, "transactions": ["pickup", "delivery"], "price": "$$", "location": {"address1": "310 Linden Ave", "address2": null, "address3": "", "city": "South San Francisco", "zip_code": "94080", "country": "US", "state": "CA", "display_address": ["310 Linden Ave", "South San Francisco, CA 94080"]}, "phone": "+16508731084", "display_phone": "(650) 873-1084", "distance": 11943.099759580147}, {"id": "0Rvlt2sukMzpHNAIxC_5Ug", "alias": "daigo-sushi-san-francisco", "name": "Daigo Sushi", "image_url": "https://s3-media3.fl.yelpcdn.com/bphoto/fM8XSsALY2OCBDsnbdCLZg/o.jpg", "is_closed": false, "url": "https://www.yelp.com/biz/daigo-sushi-san-francisco?adjust_creative=Klanz-jboxl2XzqrjP6LLw&utm_campaign=yelp_api_v3&utm_medium=api_v3_business_search&utm_source=Klanz-jboxl2XzqrjP6LLw", "review_count": 540, "categories": [{"alias": "japanese", "title": "Japanese"}, {"alias": "sushi", "title": "Sushi Bars"}], "rating": 4.0, "coordinates": {"latitude": 37.782156, "longitude": -122.485709}, "transactions": ["pickup", "delivery"], "price": "$$", "location": {"address1": "2450 Clement St", "address2": "", "address3": "", "city": "San Francisco", "zip_code": "94121", "country": "US", "state": "CA", "display_address": ["2450 Clement St", "San Francisco, CA 94121"]}, "phone": "+14153868008", "display_phone": "(415) 386-8008", "distance": 4941.935887299632}, {"id": "XQLmEdXoMzOpffwoFaBtaQ", "alias": "kitchen-story-san-francisco", "name": "Kitchen Story", "image_url": "https://s3-media3.fl.yelpcdn.com/bphoto/XIhdtd0fB2P_v_qhh1hWbg/o.jpg", "is_closed": false, "url": "https://www.yelp.com/biz/kitchen-story-san-francisco?adjust_creative=Klanz-jboxl2XzqrjP6LLw&utm_campaign=yelp_api_v3&utm_medium=api_v3_business_search&utm_source=Klanz-jboxl2XzqrjP6LLw", "review_count": 3653, "categories": [{"alias": "breakfast_brunch", "title": "Breakfast & Brunch"}, {"alias": "asianfusion", "title": "Asian Fusion"}, {"alias": "newamerican", "title": "American (New)"}], "rating": 4.0, "coordinates": {"latitude": 37.7642352, "longitude": -122.4306936}, "transactions": ["restaurant_reservation", "delivery", "pickup"], "price": "$$", "location": {"address1": "3499 16th St", "address2": "", "address3": "", "city": "San Francisco", "zip_code": "94114", "country": "US", "state": "CA", "display_address": ["3499 16th St", "San Francisco, CA 94114"]}, "phone": "+14155254905", "display_phone": "(415) 525-4905", "distance": 624.4353688015374}, {"id": "MNsB9Tn1DQpZzP1Q1Vit1g", "alias": "gintei-san-bruno", "name": "Gintei", "image_url": "https://s3-media3.fl.yelpcdn.com/bphoto/AD4drEDOUFj5OCHkcqniuA/o.jpg", "is_closed": false, "url": "https://www.yelp.com/biz/gintei-san-bruno?adjust_creative=Klanz-jboxl2XzqrjP6LLw&utm_campaign=yelp_api_v3&utm_medium=api_v3_business_search&utm_source=Klanz-jboxl2XzqrjP6LLw", "review_count": 477, "categories": [{"alias": "japanese", "title": "Japanese"}, {"alias": "sushi", "title": "Sushi Bars"}], "rating": 4.0, "coordinates": {"latitude": 37.618545, "longitude": -122.40979}, "transactions": ["pickup", "delivery"], "price": "$$$", "location": {"address1": "235 El Camino Real", "address2": null, "address3": "", "city": "San Bruno", "zip_code": "94066", "country": "US", "state": "CA", "display_address": ["235 El Camino Real", "San Bruno, CA 94066"]}, "phone": "+16506364135", "display_phone": "(650) 636-4135", "distance": 16001.046175516944}, {"id": "GwX6aZd2-ojVZtZMMvkbbA", "alias": "sushi-urashima-san-francisco", "name": "Sushi Urashima", "image_url": "https://s3-media1.fl.yelpcdn.com/bphoto/bhKuIDC4l4wRtpHtP2faew/o.jpg", "is_closed": false, "url": "https://www.yelp.com/biz/sushi-urashima-san-francisco?adjust_creative=Klanz-jboxl2XzqrjP6LLw&utm_campaign=yelp_api_v3&utm_medium=api_v3_business_search&utm_source=Klanz-jboxl2XzqrjP6LLw", "review_count": 33, "categories": [{"alias": "japanese", "title": "Japanese"}, {"alias": "sushi", "title": "Sushi Bars"}], "rating": 4.5, "coordinates": {"latitude": 37.766841745394075, "longitude": -122.43308083094837}, "transactions": [], "location": {"address1": "149 Noe St", "address2": null, "address3": "", "city": "San Francisco", "zip_code": "94114", "country": "US", "state": "CA", "display_address": ["149 Noe St", "San Francisco, CA 94114"]}, "phone": "+14158617000", "display_phone": "(415) 861-7000", "distance": 723.993670284214}, {"id": "Jpxv-URBpIvcu0mE5B6S3g", "alias": "cafe-okawari-san-francisco", "name": "Cafe Okawari", "image_url": "https://s3-media1.fl.yelpcdn.com/bphoto/3BUYpWqi8Z_7EqHynnX4gw/o.jpg", "is_closed": false, "url": "https://www.yelp.com/biz/cafe-okawari-san-francisco?adjust_creative=Klanz-jboxl2XzqrjP6LLw&utm_campaign=yelp_api_v3&utm_medium=api_v3_business_search&utm_source=Klanz-jboxl2XzqrjP6LLw", "review_count": 186, "categories": [{"alias": "japanese", "title": "Japanese"}, {"alias": "cafes", "title": "Cafes"}], "rating": 4.5, "coordinates": {"latitude": 37.77826, "longitude": -122.39388}, "transactions": ["pickup", "delivery"], "price": "$$", "location": {"address1": "236 Townsend St", "address2": "", "address3": null, "city": "San Francisco", "zip_code": "94107", "country": "US", "state": "CA", "display_address": ["236 Townsend St", "San Francisco, CA 94107"]}, "phone": "+14158015927", "display_phone": "(415) 801-5927", "distance": 4203.1209835336695}, {"id": "1HaGgUlxYAmvfgGyX68oPw", "alias": "iza-ramen-lower-haight-san-francisco", "name": "Iza Ramen Lower Haight", "image_url": "https://s3-media3.fl.yelpcdn.com/bphoto/c2hUqfjGL1XLsNS8uVZxsg/o.jpg", "is_closed": false, "url": "https://www.yelp.com/biz/iza-ramen-lower-haight-san-francisco?adjust_creative=Klanz-jboxl2XzqrjP6LLw&utm_campaign=yelp_api_v3&utm_medium=api_v3_business_search&utm_source=Klanz-jboxl2XzqrjP6LLw", "review_count": 757, "categories": [{"alias": "ramen", "title": "Ramen"}, {"alias": "noodles", "title": "Noodles"}, {"alias": "izakaya", "title": "Izakaya"}], "rating": 4.0, "coordinates": {"latitude": 37.7718144, "longitude": -122.4305515}, "transactions": ["pickup", "delivery"], "price": "$$", "location": {"address1": "237 Fillmore St", "address2": null, "address3": "", "city": "San Francisco", "zip_code": "94117", "country": "US", "state": "CA", "display_address": ["237 Fillmore St", "San Francisco, CA 94117"]}, "phone": "+14159268173", "display_phone": "(415) 926-8173", "distance": 1312.545951949735}, {"id": "_JB5Bv5h7txJ7rcqcQJ6fw", "alias": "kitaro-japanese-restaurant-san-francisco", "name": "Kitaro Japanese Restaurant", "image_url": "https://s3-media1.fl.yelpcdn.com/bphoto/VyVwZwB6_Ctuu2YEdQw6pw/o.jpg", "is_closed": false, "url": "https://www.yelp.com/biz/kitaro-japanese-restaurant-san-francisco?adjust_creative=Klanz-jboxl2XzqrjP6LLw&utm_campaign=yelp_api_v3&utm_medium=api_v3_business_search&utm_source=Klanz-jboxl2XzqrjP6LLw", "review_count": 1109, "categories": [{"alias": "japanese", "title": "Japanese"}, {"alias": "sushi", "title": "Sushi Bars"}], "rating": 3.5, "coordinates": {"latitude": 37.77995, "longitude": -122.48087}, "transactions": ["pickup", "delivery"], "price": "$$", "location": {"address1": "5723 Geary Blvd", "address2": "", "address3": "", "city": "San Francisco", "zip_code": "94121", "country": "US", "state": "CA", "display_address": ["5723 Geary Blvd", "San Francisco, CA 94121"]}, "phone": "+14153862777", "display_phone": "(415) 386-2777", "distance": 4448.939344425898}, {"id": "KQzMMqzpxhVtdgSpJPeXyg", "alias": "tom-san-ramen-daly-city", "name": "Tom San Ramen", "image_url": "https://s3-media2.fl.yelpcdn.com/bphoto/RWLH67J-DMAWyF6lbZgdAw/o.jpg", "is_closed": false, "url": "https://www.yelp.com/biz/tom-san-ramen-daly-city?adjust_creative=Klanz-jboxl2XzqrjP6LLw&utm_campaign=yelp_api_v3&utm_medium=api_v3_business_search&utm_source=Klanz-jboxl2XzqrjP6LLw", "review_count": 180, "categories": [{"alias": "ramen", "title": "Ramen"}, {"alias": "sushi", "title": "Sushi Bars"}, {"alias": "salad", "title": "Salad"}], "rating": 4.5, "coordinates": {"latitude": 37.697134, "longitude": -122.48377}, "transactions": ["pickup", "delivery"], "price": "$$", "location": {"address1": "177 Southgate Ave", "address2": null, "address3": "", "city": "Daly City", "zip_code": "94015", "country": "US", "state": "CA", "display_address": ["177 Southgate Ave", "Daly City, CA 94015"]}, "phone": "+16509934204", "display_phone": "(650) 993-4204", "distance": 8221.577063287194}, {"id": "EYsctaXs-YUwsso88MDXRA", "alias": "wasabi-bistro-san-francisco-3", "name": "Wasabi Bistro", "image_url": "https://s3-media4.fl.yelpcdn.com/bphoto/TFD9QPlpy1tdtA4ZlXwbFw/o.jpg", "is_closed": false, "url": "https://www.yelp.com/biz/wasabi-bistro-san-francisco-3?adjust_creative=Klanz-jboxl2XzqrjP6LLw&utm_campaign=yelp_api_v3&utm_medium=api_v3_business_search&utm_source=Klanz-jboxl2XzqrjP6LLw", "review_count": 31, "categories": [{"alias": "sushi", "title": "Sushi Bars"}, {"alias": "japanese", "title": "Japanese"}], "rating": 4.5, "coordinates": {"latitude": 37.78135, "longitude": -122.46386}, "transactions": ["pickup", "delivery"], "price": "$$", "location": {"address1": "4134 Geary Blvd", "address2": "", "address3": null, "city": "San Francisco", "zip_code": "94118", "country": "US", "state": "CA", "display_address": ["4134 Geary Blvd", "San Francisco, CA 94118"]}, "phone": "+14157026106", "display_phone": "(415) 702-6106", "distance": 3306.065940624436}, {"id": "QZQGRJZ4bZCmNoXjs3z1XQ", "alias": "state-bird-provisions-san-francisco", "name": "State Bird Provisions", "image_url": "https://s3-media1.fl.yelpcdn.com/bphoto/jvY3apeVhznt9URLIoKeZQ/o.jpg", "is_closed": false, "url": "https://www.yelp.com/biz/state-bird-provisions-san-francisco?adjust_creative=Klanz-jboxl2XzqrjP6LLw&utm_campaign=yelp_api_v3&utm_medium=api_v3_business_search&utm_source=Klanz-jboxl2XzqrjP6LLw", "review_count": 2899, "categories": [{"alias": "tapasmallplates", "title": "Tapas/Small Plates"}, {"alias": "newamerican", "title": "American (New)"}, {"alias": "desserts", "title": "Desserts"}], "rating": 4.0, "coordinates": {"latitude": 37.78374, "longitude": -122.433005}, "transactions": ["delivery"], "price": "$$$", "location": {"address1": "1529 Fillmore St", "address2": "", "address3": "", "city": "San Francisco", "zip_code": "94115", "country": "US", "state": "CA", "display_address": ["1529 Fillmore St", "San Francisco, CA 94115"]}, "phone": "+14157951272", "display_phone": "(415) 795-1272", "distance": 2557.7136800981866}, {"id": "D1-_5ff4aic1-7rLqzUd4g", "alias": "yamo-san-francisco", "name": "Yamo", "image_url": "https://s3-media4.fl.yelpcdn.com/bphoto/f3fyfUwRZbGgPB9eYZG62w/o.jpg", "is_closed": false, "url": "https://www.yelp.com/biz/yamo-san-francisco?adjust_creative=Klanz-jboxl2XzqrjP6LLw&utm_campaign=yelp_api_v3&utm_medium=api_v3_business_search&utm_source=Klanz-jboxl2XzqrjP6LLw", "review_count": 2013, "categories": [{"alias": "burmese", "title": "Burmese"}, {"alias": "chinese", "title": "Chinese"}], "rating": 4.0, "coordinates": {"latitude": 37.7619463343878, "longitude": -122.41972421413524}, "transactions": ["delivery"], "price": "$", "location": {"address1": "3406 18th St", "address2": "", "address3": "", "city": "San Francisco", "zip_code": "94110", "country": "US", "state": "CA", "display_address": ["3406 18th St", "San Francisco, CA 94110"]}, "phone": "+14155538911", "display_phone": "(415) 553-8911", "distance": 1474.6647817848025}, {"id": "OZAZSQnvAGeETvoKRSEbuQ", "alias": "warakubune-sushi-san-francisco", "name": "Warakubune Sushi", "image_url": "https://s3-media2.fl.yelpcdn.com/bphoto/_9LTxpxWxrCrUdl_KBadjg/o.jpg", "is_closed": false, "url": "https://www.yelp.com/biz/warakubune-sushi-san-francisco?adjust_creative=Klanz-jboxl2XzqrjP6LLw&utm_campaign=yelp_api_v3&utm_medium=api_v3_business_search&utm_source=Klanz-jboxl2XzqrjP6LLw", "review_count": 596, "categories": [{"alias": "conveyorsushi", "title": "Conveyor Belt Sushi"}], "rating": 4.0, "coordinates": {"latitude": 37.76595, "longitude": -122.42852}, "transactions": ["delivery"], "price": "$$", "location": {"address1": "307 Church St", "address2": "", "address3": "", "city": "San Francisco", "zip_code": "94114", "country": "US", "state": "CA", "display_address": ["307 Church St", "San Francisco, CA 94114"]}, "phone": "+14152528383", "display_phone": "(415) 252-8383", "distance": 891.3636363981728}, {"id": "1IqqA8pcuCIWJtuKfHwU8g", "alias": "nojo-ramen-tavern-san-francisco-6", "name": "Nojo Ramen Tavern", "image_url": "https://s3-media3.fl.yelpcdn.com/bphoto/f8jcPmO2OhZr9w11Bj2zeg/o.jpg", "is_closed": false, "url": "https://www.yelp.com/biz/nojo-ramen-tavern-san-francisco-6?adjust_creative=Klanz-jboxl2XzqrjP6LLw&utm_campaign=yelp_api_v3&utm_medium=api_v3_business_search&utm_source=Klanz-jboxl2XzqrjP6LLw", "review_count": 1010, "categories": [{"alias": "ramen", "title": "Ramen"}, {"alias": "izakaya", "title": "Izakaya"}], "rating": 4.0, "coordinates": {"latitude": 37.77669, "longitude": -122.42151}, "transactions": ["pickup", "delivery"], "price": "$$", "location": {"address1": "231 Franklin St", "address2": "", "address3": "", "city": "San Francisco", "zip_code": "94102", "country": "US", "state": "CA", "display_address": ["231 Franklin St", "San Francisco, CA 94102"]}, "phone": "+14158964587", "display_phone": "(415) 896-4587", "distance": 2199.6164508548827}, {"id": "NH1tpRk-TypznNFACTTDuw", "alias": "sasa-japanese-restaurant-san-francisco-2", "name": "Sasa Japanese restaurant", "image_url": "https://s3-media2.fl.yelpcdn.com/bphoto/oIE6BN_OQhz0ewCKT_Ni2Q/o.jpg", "is_closed": false, "url": "https://www.yelp.com/biz/sasa-japanese-restaurant-san-francisco-2?adjust_creative=Klanz-jboxl2XzqrjP6LLw&utm_campaign=yelp_api_v3&utm_medium=api_v3_business_search&utm_source=Klanz-jboxl2XzqrjP6LLw", "review_count": 328, "categories": [{"alias": "japanese", "title": "Japanese"}, {"alias": "sushi", "title": "Sushi Bars"}], "rating": 4.0, "coordinates": {"latitude": 37.78535091278894, "longitude": -122.42936446719457}, "transactions": ["pickup", "restaurant_reservation", "delivery"], "price": "$$$", "location": {"address1": "22 Peace Plz", "address2": "Ste 530", "address3": null, "city": "San Francisco", "zip_code": "94115", "country": "US", "state": "CA", "display_address": ["22 Peace Plz", "Ste 530", "San Francisco, CA 94115"]}, "phone": "+16286006945", "display_phone": "(628) 600-6945", "distance": 2789.2382373753812}, {"id": "5pG5Rqy7sDx3rmV0CggrPw", "alias": "sf-honey-pig-korean-bbq-san-francisco-2", "name": "SF Honey Pig Korean BBQ", "image_url": "https://s3-media4.fl.yelpcdn.com/bphoto/PVXBprwPiStcZvOw6sPa5g/o.jpg", "is_closed": false, "url": "https://www.yelp.com/biz/sf-honey-pig-korean-bbq-san-francisco-2?adjust_creative=Klanz-jboxl2XzqrjP6LLw&utm_campaign=yelp_api_v3&utm_medium=api_v3_business_search&utm_source=Klanz-jboxl2XzqrjP6LLw", "review_count": 153, "categories": [{"alias": "korean", "title": "Korean"}, {"alias": "bbq", "title": "Barbeque"}], "rating": 4.0, "coordinates": {"latitude": 37.780705, "longitude": -122.464639}, "transactions": ["pickup", "delivery"], "price": "$$", "location": {"address1": "4217 Geary Blvd", "address2": null, "address3": null, "city": "San Francisco", "zip_code": "94118", "country": "US", "state": "CA", "display_address": ["4217 Geary Blvd", "San Francisco, CA 94118"]}, "phone": "+14157026565", "display_phone": "(415) 702-6565", "distance": 3315.852946790471}, {"id": "NI49vg3BRErnPDDytqgkYQ", "alias": "nabe-san-francisco-3", "name": "Nabe", "image_url": "https://s3-media3.fl.yelpcdn.com/bphoto/abBSPcZZRtNBFlmLw19DrQ/o.jpg", "is_closed": false, "url": "https://www.yelp.com/biz/nabe-san-francisco-3?adjust_creative=Klanz-jboxl2XzqrjP6LLw&utm_campaign=yelp_api_v3&utm_medium=api_v3_business_search&utm_source=Klanz-jboxl2XzqrjP6LLw", "review_count": 545, "categories": [{"alias": "hotpot", "title": "Hot Pot"}, {"alias": "japanese", "title": "Japanese"}], "rating": 4.0, "coordinates": {"latitude": 37.76355023655015, "longitude": -122.46645184360641}, "transactions": ["pickup", "delivery"], "price": "$$", "location": {"address1": "1325 9th Ave", "address2": "", "address3": "", "city": "San Francisco", "zip_code": "94122", "country": "US", "state": "CA", "display_address": ["1325 9th Ave", "San Francisco, CA 94122"]}, "phone": "+14157312658", "display_phone": "(415) 731-2658", "distance": 2654.0136424470356}, {"id": "-Lw7AT_wBUMbeTpAf21aPw", "alias": "machiya-san-francisco-2", "name": "Machiya", "image_url": "https://s3-media2.fl.yelpcdn.com/bphoto/CxGHXLczNv_CosB_N9aaLg/o.jpg", "is_closed": false, "url": "https://www.yelp.com/biz/machiya-san-francisco-2?adjust_creative=Klanz-jboxl2XzqrjP6LLw&utm_campaign=yelp_api_v3&utm_medium=api_v3_business_search&utm_source=Klanz-jboxl2XzqrjP6LLw", "review_count": 35, "categories": [{"alias": "sushi", "title": "Sushi Bars"}, {"alias": "izakaya", "title": "Izakaya"}], "rating": 4.5, "coordinates": {"latitude": 37.77857, "longitude": -122.39714}, "transactions": ["pickup", "restaurant_reservation", "delivery"], "location": {"address1": "570 4th St", "address2": null, "address3": "", "city": "San Francisco", "zip_code": "94107", "country": "US", "state": "CA", "display_address": ["570 4th St", "San Francisco, CA 94107"]}, "phone": "+14153856167", "display_phone": "(415) 385-6167", "distance": 3969.0108857560576}, {"id": "7qK2Gwu0afQMtYFSJvvCqQ", "alias": "muraccis-japanese-curry-and-grill-san-francisco", "name": "Muracci's Japanese Curry & Grill", "image_url": "https://s3-media2.fl.yelpcdn.com/bphoto/b5FGkjGOF80EO_LlPZF5Bw/o.jpg", "is_closed": false, "url": "https://www.yelp.com/biz/muraccis-japanese-curry-and-grill-san-francisco?adjust_creative=Klanz-jboxl2XzqrjP6LLw&utm_campaign=yelp_api_v3&utm_medium=api_v3_business_search&utm_source=Klanz-jboxl2XzqrjP6LLw", "review_count": 1747, "categories": [{"alias": "japacurry", "title": "Japanese Curry"}], "rating": 4.0, "coordinates": {"latitude": 37.791036, "longitude": -122.404233}, "transactions": ["pickup"], "price": "$$", "location": {"address1": "307 Kearny St", "address2": "Ste 204", "address3": "", "city": "San Francisco", "zip_code": "94108", "country": "US", "state": "CA", "display_address": ["307 Kearny St", "Ste 204", "San Francisco, CA 94108"]}, "phone": "+14157731101", "display_phone": "(415) 773-1101", "distance": 4386.985758657884}, {"id": "sZPWB4TTX06W5Ht5kv7qdg", "alias": "sushi-kazu-san-francisco", "name": "Sushi Kazu", "image_url": "https://s3-media4.fl.yelpcdn.com/bphoto/oWUZkwIEFthskqY4hTProA/o.jpg", "is_closed": false, "url": "https://www.yelp.com/biz/sushi-kazu-san-francisco?adjust_creative=Klanz-jboxl2XzqrjP6LLw&utm_campaign=yelp_api_v3&utm_medium=api_v3_business_search&utm_source=Klanz-jboxl2XzqrjP6LLw", "review_count": 371, "categories": [{"alias": "japanese", "title": "Japanese"}, {"alias": "sushi", "title": "Sushi Bars"}], "rating": 4.0, "coordinates": {"latitude": 37.76384, "longitude": -122.46708}, "transactions": ["delivery"], "price": "$$", "location": {"address1": "841 Irving St", "address2": "", "address3": "", "city": "San Francisco", "zip_code": "94122", "country": "US", "state": "CA", "display_address": ["841 Irving St", "San Francisco, CA 94122"]}, "phone": "+14156815539", "display_phone": "(415) 681-5539", "distance": 2717.6788798287794}, {"id": "29lhGyTOtiWGkLCWDJZZFg", "alias": "cha-ya-san-francisco-san-francisco-2", "name": "Cha-Ya San Francisco", "image_url": "https://s3-media2.fl.yelpcdn.com/bphoto/MNWfVHKGj83qq94DpK2X3g/o.jpg", "is_closed": false, "url": "https://www.yelp.com/biz/cha-ya-san-francisco-san-francisco-2?adjust_creative=Klanz-jboxl2XzqrjP6LLw&utm_campaign=yelp_api_v3&utm_medium=api_v3_business_search&utm_source=Klanz-jboxl2XzqrjP6LLw", "review_count": 1241, "categories": [{"alias": "japanese", "title": "Japanese"}, {"alias": "vegetarian", "title": "Vegetarian"}, {"alias": "vegan", "title": "Vegan"}], "rating": 4.0, "coordinates": {"latitude": 37.760753, "longitude": -122.421787}, "transactions": ["delivery"], "price": "$$", "location": {"address1": "762 Valencia St", "address2": "", "address3": "", "city": "San Francisco", "zip_code": "94110", "country": "US", "state": "CA", "display_address": ["762 Valencia St", "San Francisco, CA 94110"]}, "phone": "+14152527825", "display_phone": "(415) 252-7825", "distance": 1288.8423998336536}, {"id": "iae4_DggOHwwtrMx8waqhg", "alias": "nisei-san-francisco-3", "name": "Nisei", "image_url": "https://s3-media4.fl.yelpcdn.com/bphoto/ulzuCG8M2Lrb2o5rM--uFA/o.jpg", "is_closed": false, "url": "https://www.yelp.com/biz/nisei-san-francisco-3?adjust_creative=Klanz-jboxl2XzqrjP6LLw&utm_campaign=yelp_api_v3&utm_medium=api_v3_business_search&utm_source=Klanz-jboxl2XzqrjP6LLw", "review_count": 41, "categories": [{"alias": "japanese", "title": "Japanese"}], "rating": 4.0, "coordinates": {"latitude": 37.79815897912051, "longitude": -122.42210871657831}, "transactions": [], "price": "$$$$", "location": {"address1": "2316 Polk St", "address2": "", "address3": null, "city": "San Francisco", "zip_code": "94109", "country": "US", "state": "CA", "display_address": ["2316 Polk St", "San Francisco, CA 94109"]}, "phone": "+14158276898", "display_phone": "(415) 827-6898", "distance": 4330.473738728487}, {"id": "6TZrECrbULijNtm84Pw7Iw", "alias": "kui-shin-bo-san-francisco-4", "name": "Kui Shin Bo", "image_url": "https://s3-media2.fl.yelpcdn.com/bphoto/bSE1FVW075S9uLzx3m7QPg/o.jpg", "is_closed": false, "url": "https://www.yelp.com/biz/kui-shin-bo-san-francisco-4?adjust_creative=Klanz-jboxl2XzqrjP6LLw&utm_campaign=yelp_api_v3&utm_medium=api_v3_business_search&utm_source=Klanz-jboxl2XzqrjP6LLw", "review_count": 224, "categories": [{"alias": "sushi", "title": "Sushi Bars"}, {"alias": "ramen", "title": "Ramen"}], "rating": 4.0, "coordinates": {"latitude": 37.8014, "longitude": -122.42516}, "transactions": ["restaurant_reservation", "delivery", "pickup"], "price": "$$", "location": {"address1": "1424 Lombard St", "address2": "", "address3": null, "city": "San Francisco", "zip_code": "94123", "country": "US", "state": "CA", "display_address": ["1424 Lombard St", "San Francisco, CA 94123"]}, "phone": "+14156559496", "display_phone": "(415) 655-9496", "distance": 4610.015664356313}, {"id": "eQtJR9FsTl6v-EnzVeHDcg", "alias": "elephant-sushi-san-francisco-7", "name": "Elephant Sushi", "image_url": "https://s3-media1.fl.yelpcdn.com/bphoto/6LhDIl-8L9ISQkrV4QvgpQ/o.jpg", "is_closed": false, "url": "https://www.yelp.com/biz/elephant-sushi-san-francisco-7?adjust_creative=Klanz-jboxl2XzqrjP6LLw&utm_campaign=yelp_api_v3&utm_medium=api_v3_business_search&utm_source=Klanz-jboxl2XzqrjP6LLw", "review_count": 307, "categories": [{"alias": "sushi", "title": "Sushi Bars"}, {"alias": "japanese", "title": "Japanese"}, {"alias": "seafood", "title": "Seafood"}], "rating": 4.5, "coordinates": {"latitude": 37.78629, "longitude": -122.41499}, "transactions": ["pickup", "delivery"], "price": "$$", "location": {"address1": "705 Geary St", "address2": null, "address3": "", "city": "San Francisco", "zip_code": "94109", "country": "US", "state": "CA", "display_address": ["705 Geary St", "San Francisco, CA 94109"]}, "phone": "+14153747186", "display_phone": "(415) 374-7186", "distance": 3395.5328682030467}, {"id": "KQ7h8IAXitEVgTyPhKrAkw", "alias": "shabusen-authentic-japanese-shabu-shabu-san-francisco-5", "name": "Shabusen Authentic Japanese Shabu Shabu", "image_url": "https://s3-media1.fl.yelpcdn.com/bphoto/AatNQ70k2154Kq3m2wVH0w/o.jpg", "is_closed": false, "url": "https://www.yelp.com/biz/shabusen-authentic-japanese-shabu-shabu-san-francisco-5?adjust_creative=Klanz-jboxl2XzqrjP6LLw&utm_campaign=yelp_api_v3&utm_medium=api_v3_business_search&utm_source=Klanz-jboxl2XzqrjP6LLw", "review_count": 13, "categories": [{"alias": "japanese", "title": "Japanese"}, {"alias": "fondue", "title": "Fondue"}, {"alias": "hotpot", "title": "Hot Pot"}], "rating": 4.0, "coordinates": {"latitude": 37.78606, "longitude": -122.42968}, "transactions": [], "location": {"address1": "1726 Buchanan St", "address2": "", "address3": null, "city": "San Francisco", "zip_code": "94115", "country": "US", "state": "CA", "display_address": ["1726 Buchanan St", "San Francisco, CA 94115"]}, "phone": "+16288674044", "display_phone": "(628) 867-4044", "distance": 2858.8945585214956}, {"id": "cWubVwhqzpY6i4718HTsww", "alias": "fish-and-bird-sousaku-izakaya-berkeley", "name": "Fish & Bird Sousaku Izakaya", "image_url": "https://s3-media2.fl.yelpcdn.com/bphoto/OFTULtDTZbjyFmGrmY-uIA/o.jpg", "is_closed": false, "url": "https://www.yelp.com/biz/fish-and-bird-sousaku-izakaya-berkeley?adjust_creative=Klanz-jboxl2XzqrjP6LLw&utm_campaign=yelp_api_v3&utm_medium=api_v3_business_search&utm_source=Klanz-jboxl2XzqrjP6LLw", "review_count": 213, "categories": [{"alias": "izakaya", "title": "Izakaya"}, {"alias": "cocktailbars", "title": "Cocktail Bars"}], "rating": 4.0, "coordinates": {"latitude": 37.86468, "longitude": -122.26684}, "transactions": ["delivery"], "location": {"address1": "2451 Shattuck Ave", "address2": null, "address3": "", "city": "Berkeley", "zip_code": "94704", "country": "US", "state": "CA", "display_address": ["2451 Shattuck Ave", "Berkeley, CA 94704"]}, "phone": "+15107051539", "display_phone": "(510) 705-1539", "distance": 18828.60248967129}, {"id": "Dy7et29HmeTNbZDd9FkbOQ", "alias": "tanis-kitchen-daly-city", "name": "Tani's Kitchen", "image_url": "https://s3-media1.fl.yelpcdn.com/bphoto/WPwPWkOhQpZ_Cj1ZARa9dw/o.jpg", "is_closed": false, "url": "https://www.yelp.com/biz/tanis-kitchen-daly-city?adjust_creative=Klanz-jboxl2XzqrjP6LLw&utm_campaign=yelp_api_v3&utm_medium=api_v3_business_search&utm_source=Klanz-jboxl2XzqrjP6LLw", "review_count": 1337, "categories": [{"alias": "sushi", "title": "Sushi Bars"}, {"alias": "japacurry", "title": "Japanese Curry"}], "rating": 3.5, "coordinates": {"latitude": 37.7012987, "longitude": -122.4820031}, "transactions": ["delivery"], "price": "$$", "location": {"address1": "32 Park Plz Dr", "address2": "", "address3": "", "city": "Daly City", "zip_code": "94015", "country": "US", "state": "CA", "display_address": ["32 Park Plz Dr", "Daly City, CA 94015"]}, "phone": "+16509921701", "display_phone": "(650) 992-1701", "distance": 7744.493272670656}, {"id": "8dUaybEPHsZMgr1iKgqgMQ", "alias": "sotto-mare-oysteria-and-seafood-san-francisco", "name": "Sotto Mare Oysteria & Seafood", "image_url": "https://s3-media3.fl.yelpcdn.com/bphoto/o3hIcGLMxV_5ynxEjGWGrw/o.jpg", "is_closed": false, "url": "https://www.yelp.com/biz/sotto-mare-oysteria-and-seafood-san-francisco?adjust_creative=Klanz-jboxl2XzqrjP6LLw&utm_campaign=yelp_api_v3&utm_medium=api_v3_business_search&utm_source=Klanz-jboxl2XzqrjP6LLw", "review_count": 4263, "categories": [{"alias": "seafood", "title": "Seafood"}, {"alias": "italian", "title": "Italian"}, {"alias": "bars", "title": "Bars"}], "rating": 4.5, "coordinates": {"latitude": 37.79979, "longitude": -122.40834}, "transactions": ["pickup", "delivery"], "price": "$$", "location": {"address1": "552 Green St", "address2": "", "address3": "", "city": "San Francisco", "zip_code": "94133", "country": "US", "state": "CA", "display_address": ["552 Green St", "San Francisco, CA 94133"]}, "phone": "+14153983181", "display_phone": "(415) 398-3181", "distance": 4976.893507610494}, {"id": "5VAapc_o_KoQP9nAyh4iUQ", "alias": "kirala-restaurant-berkeley-2", "name": "Kirala Restaurant", "image_url": "https://s3-media2.fl.yelpcdn.com/bphoto/NRHsrbdQgndYFEDm3AOMWw/o.jpg", "is_closed": false, "url": "https://www.yelp.com/biz/kirala-restaurant-berkeley-2?adjust_creative=Klanz-jboxl2XzqrjP6LLw&utm_campaign=yelp_api_v3&utm_medium=api_v3_business_search&utm_source=Klanz-jboxl2XzqrjP6LLw", "review_count": 1764, "categories": [{"alias": "sushi", "title": "Sushi Bars"}, {"alias": "japanese", "title": "Japanese"}], "rating": 4.0, "coordinates": {"latitude": 37.859286, "longitude": -122.266717}, "transactions": ["delivery", "pickup"], "price": "$$", "location": {"address1": "2100 Ward St", "address2": "", "address3": "", "city": "Berkeley", "zip_code": "94705", "country": "US", "state": "CA", "display_address": ["2100 Ward St", "Berkeley, CA 94705"]}, "phone": "+15105493486", "display_phone": "(510) 549-3486", "distance": 18493.578677301764}, {"id": "2QmqKihdH1xoyfIQoMQNjQ", "alias": "ippuku-berkeley-2", "name": "Ippuku", "image_url": "https://s3-media2.fl.yelpcdn.com/bphoto/c6LBt2lD8OX4TMF4zQyYng/o.jpg", "is_closed": false, "url": "https://www.yelp.com/biz/ippuku-berkeley-2?adjust_creative=Klanz-jboxl2XzqrjP6LLw&utm_campaign=yelp_api_v3&utm_medium=api_v3_business_search&utm_source=Klanz-jboxl2XzqrjP6LLw", "review_count": 1290, "categories": [{"alias": "bars", "title": "Bars"}, {"alias": "izakaya", "title": "Izakaya"}], "rating": 4.0, "coordinates": {"latitude": 37.87027, "longitude": -122.26702}, "transactions": [], "price": "$$$", "location": {"address1": "2130 Center St", "address2": "Ste 101", "address3": "", "city": "Berkeley", "zip_code": "94704", "country": "US", "state": "CA", "display_address": ["2130 Center St", "Ste 101", "Berkeley, CA 94704"]}, "phone": "+15106551969", "display_phone": "(510) 655-1969", "distance": 19207.010505032362}, {"id": "VInn2fWYotPteuqbkkjU4A", "alias": "sushi-sho-el-cerrito", "name": "Sushi Sho", "image_url": "https://s3-media1.fl.yelpcdn.com/bphoto/Si6-cxL2a9HHI005qMjs0A/o.jpg", "is_closed": false, "url": "https://www.yelp.com/biz/sushi-sho-el-cerrito?adjust_creative=Klanz-jboxl2XzqrjP6LLw&utm_campaign=yelp_api_v3&utm_medium=api_v3_business_search&utm_source=Klanz-jboxl2XzqrjP6LLw", "review_count": 203, "categories": [{"alias": "sushi", "title": "Sushi Bars"}, {"alias": "japanese", "title": "Japanese"}], "rating": 4.0, "coordinates": {"latitude": 37.9128987, "longitude": -122.3100635}, "transactions": ["restaurant_reservation", "delivery"], "price": "$$$", "location": {"address1": "10749 San Pablo Ave", "address2": "", "address3": "", "city": "El Cerrito", "zip_code": "94530", "country": "US", "state": "CA", "display_address": ["10749 San Pablo Ave", "El Cerrito, CA 94530"]}, "phone": "+15105251800", "display_phone": "(510) 525-1800", "distance": 20219.83865531627}, {"id": "rf39v0UmaNk1SZZ9HuZ3hA", "alias": "glaze-teriyaki-san-francisco-3", "name": "Glaze Teriyaki", "image_url": "https://s3-media2.fl.yelpcdn.com/bphoto/J_clUEQ8EGPJt69fNLZOBw/o.jpg", "is_closed": false, "url": "https://www.yelp.com/biz/glaze-teriyaki-san-francisco-3?adjust_creative=Klanz-jboxl2XzqrjP6LLw&utm_campaign=yelp_api_v3&utm_medium=api_v3_business_search&utm_source=Klanz-jboxl2XzqrjP6LLw", "review_count": 489, "categories": [{"alias": "japanese", "title": "Japanese"}, {"alias": "gluten_free", "title": "Gluten-Free"}, {"alias": "asianfusion", "title": "Asian Fusion"}], "rating": 4.0, "coordinates": {"latitude": 37.7879022, "longitude": -122.433527}, "transactions": ["pickup", "delivery"], "price": "$$", "location": {"address1": "1946 Fillmore St", "address2": "", "address3": "", "city": "San Francisco", "zip_code": "94115", "country": "US", "state": "CA", "display_address": ["1946 Fillmore St", "San Francisco, CA 94115"]}, "phone": "+14155902199", "display_phone": "(415) 590-2199", "distance": 3013.521521229832}, {"id": "pgO1Q4cEh4u_MZT5hQ4y_w", "alias": "karaweik-burmese-cuisine-san-francisco", "name": "Karaweik Burmese Cuisine", "image_url": "https://s3-media1.fl.yelpcdn.com/bphoto/cY7YJXAq4Oml9TKLHZ3-iw/o.jpg", "is_closed": false, "url": "https://www.yelp.com/biz/karaweik-burmese-cuisine-san-francisco?adjust_creative=Klanz-jboxl2XzqrjP6LLw&utm_campaign=yelp_api_v3&utm_medium=api_v3_business_search&utm_source=Klanz-jboxl2XzqrjP6LLw", "review_count": 182, "categories": [{"alias": "burmese", "title": "Burmese"}, {"alias": "noodles", "title": "Noodles"}, {"alias": "salad", "title": "Salad"}], "rating": 4.5, "coordinates": {"latitude": 37.79991, "longitude": -122.43804}, "transactions": ["pickup", "delivery"], "price": "$$", "location": {"address1": "3317 Steiner St", "address2": null, "address3": "", "city": "San Francisco", "zip_code": "94123", "country": "US", "state": "CA", "display_address": ["3317 Steiner St", "San Francisco, CA 94123"]}, "phone": "+14159221892", "display_phone": "(415) 922-1892", "distance": 4343.241161400187}, {"id": "4Dx_LtGrciojBXixDZoCvw", "alias": "fuji-japanese-restaurant-san-francisco", "name": "Fuji Japanese Restaurant", "image_url": "https://s3-media2.fl.yelpcdn.com/bphoto/LwvWRMaGXsFHGWv-683wIA/o.jpg", "is_closed": false, "url": "https://www.yelp.com/biz/fuji-japanese-restaurant-san-francisco?adjust_creative=Klanz-jboxl2XzqrjP6LLw&utm_campaign=yelp_api_v3&utm_medium=api_v3_business_search&utm_source=Klanz-jboxl2XzqrjP6LLw", "review_count": 519, "categories": [{"alias": "sushi", "title": "Sushi Bars"}, {"alias": "japanese", "title": "Japanese"}, {"alias": "raw_food", "title": "Live/Raw Food"}], "rating": 3.5, "coordinates": {"latitude": 37.737683, "longitude": -122.468924}, "transactions": ["pickup"], "price": "$$", "location": {"address1": "301 W Portal Ave", "address2": "", "address3": "", "city": "San Francisco", "zip_code": "94127", "country": "US", "state": "CA", "display_address": ["301 W Portal Ave", "San Francisco, CA 94127"]}, "phone": "+14155646360", "display_phone": "(415) 564-6360", "distance": 3846.7515088643663}, {"id": "LbluzciGYhn1pKrsQCY1Sw", "alias": "kura-revolving-sushi-bar-san-francisco-2", "name": "Kura Revolving Sushi Bar", "image_url": "https://s3-media1.fl.yelpcdn.com/bphoto/5zk3xSWt7xJQcxcoyBcqUQ/o.jpg", "is_closed": false, "url": "https://www.yelp.com/biz/kura-revolving-sushi-bar-san-francisco-2?adjust_creative=Klanz-jboxl2XzqrjP6LLw&utm_campaign=yelp_api_v3&utm_medium=api_v3_business_search&utm_source=Klanz-jboxl2XzqrjP6LLw", "review_count": 119, "categories": [{"alias": "sushi", "title": "Sushi Bars"}, {"alias": "conveyorsushi", "title": "Conveyor Belt Sushi"}], "rating": 3.5, "coordinates": {"latitude": 37.72791788061855, "longitude": -122.4772126}, "transactions": [], "location": {"address1": "3251 20th Ave", "address2": "Ste 220", "address3": null, "city": "San Francisco", "zip_code": "94132", "country": "US", "state": "CA", "display_address": ["3251 20th Ave", "Ste 220", "San Francisco, CA 94132"]}, "phone": "+16509770707", "display_phone": "(650) 977-0707", "distance": 5128.108103085309}, {"id": "jefsqzA1dIlsszG9Y6xwMQ", "alias": "hina-yakitori-san-francisco-2", "name": "Hina Yakitori", "image_url": "https://s3-media2.fl.yelpcdn.com/bphoto/j9nYbAWrGYrHcJAjLv00Gw/o.jpg", "is_closed": false, "url": "https://www.yelp.com/biz/hina-yakitori-san-francisco-2?adjust_creative=Klanz-jboxl2XzqrjP6LLw&utm_campaign=yelp_api_v3&utm_medium=api_v3_business_search&utm_source=Klanz-jboxl2XzqrjP6LLw", "review_count": 80, "categories": [{"alias": "japanese", "title": "Japanese"}], "rating": 4.5, "coordinates": {"latitude": 37.77707, "longitude": -122.43792}, "transactions": ["pickup", "delivery"], "price": "$$$$", "location": {"address1": "808 Divisadero St", "address2": "", "address3": null, "city": "San Francisco", "zip_code": "94117", "country": "US", "state": "CA", "display_address": ["808 Divisadero St", "San Francisco, CA 94117"]}, "phone": "+14158171944", "display_phone": "(415) 817-1944", "distance": 1809.9588476262732}, {"id": "olOldyL0jSpDuZE0tELVcw", "alias": "fumi-japanese-curry-and-ramen-san-francisco-3", "name": "Fumi Japanese Curry & Ramen", "image_url": "https://s3-media1.fl.yelpcdn.com/bphoto/k12xeEJSa1Fg_lspYI5Kuw/o.jpg", "is_closed": false, "url": "https://www.yelp.com/biz/fumi-japanese-curry-and-ramen-san-francisco-3?adjust_creative=Klanz-jboxl2XzqrjP6LLw&utm_campaign=yelp_api_v3&utm_medium=api_v3_business_search&utm_source=Klanz-jboxl2XzqrjP6LLw", "review_count": 454, "categories": [{"alias": "ramen", "title": "Ramen"}, {"alias": "japacurry", "title": "Japanese Curry"}], "rating": 4.0, "coordinates": {"latitude": 37.74397, "longitude": -122.42051}, "transactions": ["delivery", "pickup"], "price": "$$", "location": {"address1": "3303 Mission St", "address2": null, "address3": "", "city": "San Francisco", "zip_code": "94110", "country": "US", "state": "CA", "display_address": ["3303 Mission St", "San Francisco, CA 94110"]}, "phone": "+14157570901", "display_phone": "(415) 757-0901", "distance": 2340.4316524241217}, {"id": "99eYkXciOu-_jU8SSSZqvg", "alias": "tamashisoul-sushi-bar-san-francisco", "name": "Tamashisoul Sushi Bar", "image_url": "https://s3-media3.fl.yelpcdn.com/bphoto/FcoAyJEIG09D0N-j3bo92g/o.jpg", "is_closed": false, "url": "https://www.yelp.com/biz/tamashisoul-sushi-bar-san-francisco?adjust_creative=Klanz-jboxl2XzqrjP6LLw&utm_campaign=yelp_api_v3&utm_medium=api_v3_business_search&utm_source=Klanz-jboxl2XzqrjP6LLw", "review_count": 410, "categories": [{"alias": "sushi", "title": "Sushi Bars"}, {"alias": "japanese", "title": "Japanese"}], "rating": 4.0, "coordinates": {"latitude": 37.79754, "longitude": -122.42966}, "transactions": ["restaurant_reservation", "delivery", "pickup"], "price": "$$", "location": {"address1": "1849 Union St", "address2": "", "address3": "", "city": "San Francisco", "zip_code": "94123", "country": "US", "state": "CA", "display_address": ["1849 Union St", "San Francisco, CA 94123"]}, "phone": "+14153461849", "display_phone": "(415) 346-1849", "distance": 4127.186121129301}, {"id": "PMKHqnEC56o64SbSI0jarw", "alias": "samurai-mill-valley", "name": "Samurai", "image_url": "https://s3-media4.fl.yelpcdn.com/bphoto/2MtC9Gt9mauGse_g2loWMA/o.jpg", "is_closed": false, "url": "https://www.yelp.com/biz/samurai-mill-valley?adjust_creative=Klanz-jboxl2XzqrjP6LLw&utm_campaign=yelp_api_v3&utm_medium=api_v3_business_search&utm_source=Klanz-jboxl2XzqrjP6LLw", "review_count": 231, "categories": [{"alias": "sushi", "title": "Sushi Bars"}, {"alias": "japanese", "title": "Japanese"}], "rating": 4.0, "coordinates": {"latitude": 37.89643, "longitude": -122.5354}, "transactions": ["delivery"], "price": "$$", "location": {"address1": "425 Miller Ave", "address2": "", "address3": "", "city": "Mill Valley", "zip_code": "94941", "country": "US", "state": "CA", "display_address": ["425 Miller Ave", "Mill Valley, CA 94941"]}, "phone": "+14153813680", "display_phone": "(415) 381-3680", "distance": 17374.25352330597}, {"id": "RxIFKVvc8iVBPIVpe55Byg", "alias": "bon-nene-san-francisco", "name": "Bon, Nene", "image_url": "https://s3-media3.fl.yelpcdn.com/bphoto/2vFXNGm2eBj0_7xbJ7L5AA/o.jpg", "is_closed": false, "url": "https://www.yelp.com/biz/bon-nene-san-francisco?adjust_creative=Klanz-jboxl2XzqrjP6LLw&utm_campaign=yelp_api_v3&utm_medium=api_v3_business_search&utm_source=Klanz-jboxl2XzqrjP6LLw", "review_count": 266, "categories": [{"alias": "japanese", "title": "Japanese"}, {"alias": "asianfusion", "title": "Asian Fusion"}], "rating": 4.0, "coordinates": {"latitude": 37.75762490446, "longitude": -122.411629484421}, "transactions": ["delivery", "pickup"], "price": "$$", "location": {"address1": "2850 21st St", "address2": "", "address3": null, "city": "San Francisco", "zip_code": "94110", "country": "US", "state": "CA", "display_address": ["2850 21st St", "San Francisco, CA 94110"]}, "phone": "+14158729332", "display_phone": "(415) 872-9332", "distance": 2211.883791862204}, {"id": "tYU0M2jW7FIjzRHJ3nAUVw", "alias": "the-crew-san-francisco", "name": "The Crew", "image_url": "https://s3-media4.fl.yelpcdn.com/bphoto/DOO1lYoNSGdbdhjlYaE0OA/o.jpg", "is_closed": false, "url": "https://www.yelp.com/biz/the-crew-san-francisco?adjust_creative=Klanz-jboxl2XzqrjP6LLw&utm_campaign=yelp_api_v3&utm_medium=api_v3_business_search&utm_source=Klanz-jboxl2XzqrjP6LLw", "review_count": 486, "categories": [{"alias": "korean", "title": "Korean"}, {"alias": "bbq", "title": "Barbeque"}], "rating": 4.0, "coordinates": {"latitude": 37.7543406605787, "longitude": -122.478169364418}, "transactions": ["delivery"], "price": "$$", "location": {"address1": "1330 Noriega St", "address2": "", "address3": "", "city": "San Francisco", "zip_code": "94122", "country": "US", "state": "CA", "display_address": ["1330 Noriega St", "San Francisco, CA 94122"]}, "phone": "+14156658548", "display_phone": "(415) 665-8548", "distance": 3739.6654482868444}, {"id": "md19wETpeFhjh4MkFi029A", "alias": "oma-san-francisco-station-san-francisco-2", "name": "Oma San Francisco Station", "image_url": "https://s3-media3.fl.yelpcdn.com/bphoto/Lif1tNcL0NepkJ5p4J7iTQ/o.jpg", "is_closed": false, "url": "https://www.yelp.com/biz/oma-san-francisco-station-san-francisco-2?adjust_creative=Klanz-jboxl2XzqrjP6LLw&utm_campaign=yelp_api_v3&utm_medium=api_v3_business_search&utm_source=Klanz-jboxl2XzqrjP6LLw", "review_count": 246, "categories": [{"alias": "sushi", "title": "Sushi Bars"}, {"alias": "japanese", "title": "Japanese"}], "rating": 4.5, "coordinates": {"latitude": 37.785103, "longitude": -122.430974}, "transactions": ["pickup", "delivery"], "price": "$$$$", "location": {"address1": "1737 Post St", "address2": "Ste 337", "address3": null, "city": "San Francisco", "zip_code": "94115", "country": "US", "state": "CA", "display_address": ["1737 Post St", "Ste 337", "San Francisco, CA 94115"]}, "phone": "", "display_phone": "", "distance": 2733.96989598124}, {"id": "gPUXFQkf4koX8CmWJR7wMg", "alias": "suzu-noodle-house-san-francisco", "name": "Suzu Noodle House", "image_url": "https://s3-media2.fl.yelpcdn.com/bphoto/qzdExKuuppoZCXiHmu7bIQ/o.jpg", "is_closed": false, "url": "https://www.yelp.com/biz/suzu-noodle-house-san-francisco?adjust_creative=Klanz-jboxl2XzqrjP6LLw&utm_campaign=yelp_api_v3&utm_medium=api_v3_business_search&utm_source=Klanz-jboxl2XzqrjP6LLw", "review_count": 1511, "categories": [{"alias": "noodles", "title": "Noodles"}, {"alias": "ramen", "title": "Ramen"}], "rating": 3.5, "coordinates": {"latitude": 37.78508, "longitude": -122.431902}, "transactions": ["pickup", "delivery"], "price": "$$", "location": {"address1": "1825 Post St", "address2": "", "address3": "", "city": "San Francisco", "zip_code": "94115", "country": "US", "state": "CA", "display_address": ["1825 Post St", "San Francisco, CA 94115"]}, "phone": "+14153465083", "display_phone": "(415) 346-5083", "distance": 2718.2735072800165}, {"id": "W97siDhQbWIVa0MEpcq9iA", "alias": "bistro-central-parc-san-francisco", "name": "Bistro Central Parc", "image_url": "https://s3-media2.fl.yelpcdn.com/bphoto/o7pdE7vHm3tW3FhP_wReog/o.jpg", "is_closed": false, "url": "https://www.yelp.com/biz/bistro-central-parc-san-francisco?adjust_creative=Klanz-jboxl2XzqrjP6LLw&utm_campaign=yelp_api_v3&utm_medium=api_v3_business_search&utm_source=Klanz-jboxl2XzqrjP6LLw", "review_count": 968, "categories": [{"alias": "italian", "title": "Italian"}, {"alias": "newamerican", "title": "American (New)"}, {"alias": "wine_bars", "title": "Wine Bars"}], "rating": 4.5, "coordinates": {"latitude": 37.775023, "longitude": -122.44427}, "transactions": ["pickup", "restaurant_reservation", "delivery"], "price": "$$$", "location": {"address1": "560 Central Ave", "address2": "", "address3": "", "city": "San Francisco", "zip_code": "94117", "country": "US", "state": "CA", "display_address": ["560 Central Ave", "San Francisco, CA 94117"]}, "phone": "+14155253064", "display_phone": "(415) 525-3064", "distance": 1714.4118316415888}, {"id": "oi-jTQzuKRG_7q3u70LHDg", "alias": "moshi-moshi-san-francisco", "name": "Moshi Moshi", "image_url": "https://s3-media2.fl.yelpcdn.com/bphoto/-KmwCanMVfC2ubxKHlZAjA/o.jpg", "is_closed": false, "url": "https://www.yelp.com/biz/moshi-moshi-san-francisco?adjust_creative=Klanz-jboxl2XzqrjP6LLw&utm_campaign=yelp_api_v3&utm_medium=api_v3_business_search&utm_source=Klanz-jboxl2XzqrjP6LLw", "review_count": 766, "categories": [{"alias": "sushi", "title": "Sushi Bars"}, {"alias": "japanese", "title": "Japanese"}, {"alias": "cocktailbars", "title": "Cocktail Bars"}], "rating": 4.0, "coordinates": {"latitude": 37.76317650208631, "longitude": -122.38898548220352}, "transactions": ["pickup", "delivery"], "price": "$$", "location": {"address1": "2092 3rd St", "address2": "", "address3": "", "city": "San Francisco", "zip_code": "94107", "country": "US", "state": "CA", "display_address": ["2092 3rd St", "San Francisco, CA 94107"]}, "phone": "+14158618285", "display_phone": "(415) 861-8285", "distance": 4179.853617874307}, {"id": "x8KjU6JY64bXo60Tktu4PQ", "alias": "kiki-japanese-restaurant-san-francisco", "name": "Kiki Japanese Restaurant", "image_url": "https://s3-media2.fl.yelpcdn.com/bphoto/DGWlRX0H_oPM70f9iqg4Sw/o.jpg", "is_closed": false, "url": "https://www.yelp.com/biz/kiki-japanese-restaurant-san-francisco?adjust_creative=Klanz-jboxl2XzqrjP6LLw&utm_campaign=yelp_api_v3&utm_medium=api_v3_business_search&utm_source=Klanz-jboxl2XzqrjP6LLw", "review_count": 1013, "categories": [{"alias": "japanese", "title": "Japanese"}, {"alias": "sushi", "title": "Sushi Bars"}], "rating": 3.5, "coordinates": {"latitude": 37.764642, "longitude": -122.46647}, "transactions": ["delivery", "pickup"], "price": "$$", "location": {"address1": "1269 9th Ave", "address2": "", "address3": "", "city": "San Francisco", "zip_code": "94122", "country": "US", "state": "CA", "display_address": ["1269 9th Ave", "San Francisco, CA 94122"]}, "phone": "+14156615522", "display_phone": "(415) 661-5522", "distance": 2671.780701480108}, {"id": "8oVK6iM82dBTFLb10LYkBg", "alias": "doma-san-francisco-2", "name": "Doma", "image_url": "https://s3-media3.fl.yelpcdn.com/bphoto/FkevwCF8r48y2WhApGH_zg/o.jpg", "is_closed": false, "url": "https://www.yelp.com/biz/doma-san-francisco-2?adjust_creative=Klanz-jboxl2XzqrjP6LLw&utm_campaign=yelp_api_v3&utm_medium=api_v3_business_search&utm_source=Klanz-jboxl2XzqrjP6LLw", "review_count": 140, "categories": [{"alias": "japanese", "title": "Japanese"}, {"alias": "sushi", "title": "Sushi Bars"}], "rating": 4.5, "coordinates": {"latitude": 37.747497, "longitude": -122.410663}, "transactions": ["delivery"], "price": "$$$$", "location": {"address1": "433 Precita Ave", "address2": "", "address3": null, "city": "San Francisco", "zip_code": "94110", "country": "US", "state": "CA", "display_address": ["433 Precita Ave", "San Francisco, CA 94110"]}, "phone": "+14156484417", "display_phone": "(415) 648-4417", "distance": 2712.827310954169}, {"id": "C7t5S8hyMuMtloBAOhgWKA", "alias": "hinoya-curry-sf-san-francisco-3", "name": "Hinoya Curry SF", "image_url": "https://s3-media2.fl.yelpcdn.com/bphoto/VDWLfUxNtgn0HcuHBuyXpA/o.jpg", "is_closed": false, "url": "https://www.yelp.com/biz/hinoya-curry-sf-san-francisco-3?adjust_creative=Klanz-jboxl2XzqrjP6LLw&utm_campaign=yelp_api_v3&utm_medium=api_v3_business_search&utm_source=Klanz-jboxl2XzqrjP6LLw", "review_count": 144, "categories": [{"alias": "japacurry", "title": "Japanese Curry"}], "rating": 4.5, "coordinates": {"latitude": 37.800629656511354, "longitude": -122.43643971583887}, "transactions": [], "price": "$$", "location": {"address1": "3347 Fillmore", "address2": null, "address3": "", "city": "San Francisco", "zip_code": "94123", "country": "US", "state": "CA", "display_address": ["3347 Fillmore", "San Francisco, CA 94123"]}, "phone": "+14156605170", "display_phone": "(415) 660-5170", "distance": 4417.799245066491}, {"id": "imHjAJ9uuUK_PNkzT9kCag", "alias": "basa-seafood-express-san-francisco", "name": "Basa Seafood Express", "image_url": "https://s3-media4.fl.yelpcdn.com/bphoto/SV_BUHgxzaIlWE9aOeS1Cg/o.jpg", "is_closed": false, "url": "https://www.yelp.com/biz/basa-seafood-express-san-francisco?adjust_creative=Klanz-jboxl2XzqrjP6LLw&utm_campaign=yelp_api_v3&utm_medium=api_v3_business_search&utm_source=Klanz-jboxl2XzqrjP6LLw", "review_count": 830, "categories": [{"alias": "seafood", "title": "Seafood"}, {"alias": "sandwiches", "title": "Sandwiches"}, {"alias": "burgers", "title": "Burgers"}], "rating": 4.5, "coordinates": {"latitude": 37.75276, "longitude": -122.41338}, "transactions": ["pickup", "delivery"], "price": "$", "location": {"address1": "3064 24th St", "address2": "", "address3": "", "city": "San Francisco", "zip_code": "94110", "country": "US", "state": "CA", "display_address": ["3064 24th St", "San Francisco, CA 94110"]}, "phone": "+14155502388", "display_phone": "(415) 550-2388", "distance": 2222.594636885032}, {"id": "xalJwUiV9oMDCHCc6kZhqg", "alias": "ssal-san-francisco", "name": "SSAL", "image_url": "https://s3-media2.fl.yelpcdn.com/bphoto/r6a_K4ImxjPptB6A4daeJg/o.jpg", "is_closed": false, "url": "https://www.yelp.com/biz/ssal-san-francisco?adjust_creative=Klanz-jboxl2XzqrjP6LLw&utm_campaign=yelp_api_v3&utm_medium=api_v3_business_search&utm_source=Klanz-jboxl2XzqrjP6LLw", "review_count": 157, "categories": [{"alias": "korean", "title": "Korean"}], "rating": 4.5, "coordinates": {"latitude": 37.79728333, "longitude": -122.421945}, "transactions": ["delivery"], "price": "$$$$", "location": {"address1": "2226 Polk St", "address2": "", "address3": null, "city": "San Francisco", "zip_code": "94109", "country": "US", "state": "CA", "display_address": ["2226 Polk St", "San Francisco, CA 94109"]}, "phone": "+14158142704", "display_phone": "(415) 814-2704", "distance": 4250.389460185907}], "total": 1600, "region": {"center": {"longitude": -122.43644714355469, "latitude": 37.76089938976322}}}