{"businesses": [{"id": "mDM7-ho67ePJXd5TodtCOg", "alias": "acquerello-san-francisco", "name": "Acquerello", "image_url": "https://s3-media4.fl.yelpcdn.com/bphoto/-8zaekWtiI-d50ybEJBtEA/o.jpg", "is_closed": false, "url": "https://www.yelp.com/biz/acquerello-san-francisco?adjust_creative=Klanz-jboxl2XzqrjP6LLw&utm_campaign=yelp_api_v3&utm_medium=api_v3_business_search&utm_source=Klanz-jboxl2XzqrjP6LLw", "review_count": 1165, "categories": [{"alias": "italian", "title": "Italian"}, {"alias": "wine_bars", "title": "Wine Bars"}, {"alias": "venues", "title": "Venues & Event Spaces"}], "rating": 4.5, "coordinates": {"latitude": 37.79157, "longitude": -122.4213296}, "transactions": [], "price": "$$$$", "location": {"address1": "1722 Sacramento St", "address2": "", "address3": "", "city": "San Francisco", "zip_code": "94109", "country": "US", "state": "CA", "display_address": ["1722 Sacramento St", "San Francisco, CA 94109"]}, "phone": "+14155675432", "display_phone": "(415) 567-5432", "distance": 3654.5935261670274}, {"id": "onxj8QSgnRaipMEKFomcYg", "alias": "tokyo-express-san-francisco-7", "name": "Tokyo Express", "image_url": "https://s3-media1.fl.yelpcdn.com/bphoto/dGjQJg0UMqZwNdabm3RzRw/o.jpg", "is_closed": false, "url": "https://www.yelp.com/biz/tokyo-express-san-francisco-7?adjust_creative=Klanz-jboxl2XzqrjP6LLw&utm_campaign=yelp_api_v3&utm_medium=api_v3_business_search&utm_source=Klanz-jboxl2XzqrjP6LLw", "review_count": 238, "categories": [{"alias": "sushi", "title": "Sushi Bars"}, {"alias": "japanese", "title": "Japanese"}], "rating": 3.5, "coordinates": {"latitude": 37.79388, "longitude": -122.404}, "transactions": ["pickup"], "price": "$$", "location": {"address1": "660 Sacramento St", "address2": "", "address3": "", "city": "San Francisco", "zip_code": "94111", "country": "US", "state": "CA", "display_address": ["660 Sacramento St", "San Francisco, CA 94111"]}, "phone": "+14159563040", "display_phone": "(415) 956-3040", "distance": 4639.866713455236}, {"id": "J7_-faNq_Ag9qTOlDn81Pw", "alias": "starbelly-san-francisco", "name": "Starbelly", "image_url": "https://s3-media2.fl.yelpcdn.com/bphoto/G1SweY3VbKx_BqAws9RytA/o.jpg", "is_closed": false, "url": "https://www.yelp.com/biz/starbelly-san-francisco?adjust_creative=Klanz-jboxl2XzqrjP6LLw&utm_campaign=yelp_api_v3&utm_medium=api_v3_business_search&utm_source=Klanz-jboxl2XzqrjP6LLw", "review_count": 2001, "categories": [{"alias": "comfortfood", "title": "Comfort Food"}, {"alias": "cocktailbars", "title": "Cocktail Bars"}, {"alias": "wine_bars", "title": "Wine Bars"}], "rating": 4.0, "coordinates": {"latitude": 37.7640744, "longitude": -122.4325634}, "transactions": ["delivery", "pickup"], "price": "$$", "location": {"address1": "3583 16th St", "address2": "", "address3": "", "city": "San Francisco", "zip_code": "94114", "country": "US", "state": "CA", "display_address": ["3583 16th St", "San Francisco, CA 94114"]}, "phone": "+14152527500", "display_phone": "(415) 252-7500", "distance": 491.1178550023795}, {"id": "tpuKzQh5d6veDB-M9qU6Fw", "alias": "chouchou-french-bistro-san-francisco", "name": "ChouChou French Bistro", "image_url": "https://s3-media3.fl.yelpcdn.com/bphoto/Ia1De_uA77wXPjhBJzGkWQ/o.jpg", "is_closed": false, "url": "https://www.yelp.com/biz/chouchou-french-bistro-san-francisco?adjust_creative=Klanz-jboxl2XzqrjP6LLw&utm_campaign=yelp_api_v3&utm_medium=api_v3_business_search&utm_source=Klanz-jboxl2XzqrjP6LLw", "review_count": 1269, "categories": [{"alias": "french", "title": "French"}], "rating": 4.0, "coordinates": {"latitude": 37.74738, "longitude": -122.45952}, "transactions": ["delivery", "pickup"], "price": "$$$", "location": {"address1": "400 Dewey Blvd", "address2": "", "address3": "", "city": "San Francisco", "zip_code": "94116", "country": "US", "state": "CA", "display_address": ["400 Dewey Blvd", "San Francisco, CA 94116"]}, "phone": "+14152420960", "display_phone": "(415) 242-0960", "distance": 2511.148649391342}, {"id": "W7byRQtMwI-iDTzmMFpfUg", "alias": "gram-cafe-and-pancakes-san-francisco-3", "name": "Gram Cafe & Pancakes", "image_url": "https://s3-media2.fl.yelpcdn.com/bphoto/yRqBPFlANUJ-P6M-1eWqMA/o.jpg", "is_closed": false, "url": "https://www.yelp.com/biz/gram-cafe-and-pancakes-san-francisco-3?adjust_creative=Klanz-jboxl2XzqrjP6LLw&utm_campaign=yelp_api_v3&utm_medium=api_v3_business_search&utm_source=Klanz-jboxl2XzqrjP6LLw", "review_count": 755, "categories": [{"alias": "pancakes", "title": "Pancakes"}, {"alias": "japanese", "title": "Japanese"}, {"alias": "cafes", "title": "Cafes"}], "rating": 3.5, "coordinates": {"latitude": 37.72707425410887, "longitude": -122.47721004484404}, "transactions": ["delivery", "pickup"], "price": "$$", "location": {"address1": "3251 20th Ave", "address2": "Ste 172", "address3": null, "city": "San Francisco", "zip_code": "94132", "country": "US", "state": "CA", "display_address": ["3251 20th Ave", "Ste 172", "San Francisco, CA 94132"]}, "phone": "+16282566013", "display_phone": "(628) 256-6013", "distance": 5195.467046881582}, {"id": "g4vf4bYFhvSmkWZn3DMt-g", "alias": "alices-restaurant-san-francisco", "name": "Alice's Restaurant", "image_url": "https://s3-media1.fl.yelpcdn.com/bphoto/4UCPsfRsKMrvaWYe5j1nrQ/o.jpg", "is_closed": false, "url": "https://www.yelp.com/biz/alices-restaurant-san-francisco?adjust_creative=Klanz-jboxl2XzqrjP6LLw&utm_campaign=yelp_api_v3&utm_medium=api_v3_business_search&utm_source=Klanz-jboxl2XzqrjP6LLw", "review_count": 305, "categories": [{"alias": "chinese", "title": "Chinese"}], "rating": 4.0, "coordinates": {"latitude": 37.743741, "longitude": -122.428833}, "transactions": ["delivery"], "price": "$$", "location": {"address1": "1599 Sanchez St", "address2": "", "address3": "", "city": "San Francisco", "zip_code": "94131", "country": "US", "state": "CA", "display_address": ["1599 Sanchez St", "San Francisco, CA 94131"]}, "phone": "+14152828999", "display_phone": "(415) 282-8999", "distance": 2021.9531982795272}, {"id": "uS9eBMQ3GUX3YrajKxjoUg", "alias": "diamond-head-general-store-san-bruno-2", "name": "Diamond Head General Store", "image_url": "https://s3-media2.fl.yelpcdn.com/bphoto/Pjvo8Bv4Kwtsorny0oZdFA/o.jpg", "is_closed": false, "url": "https://www.yelp.com/biz/diamond-head-general-store-san-bruno-2?adjust_creative=Klanz-jboxl2XzqrjP6LLw&utm_campaign=yelp_api_v3&utm_medium=api_v3_business_search&utm_source=Klanz-jboxl2XzqrjP6LLw", "review_count": 89, "categories": [{"alias": "hawaiian", "title": "Hawaiian"}, {"alias": "gourmet", "title": "Specialty Food"}], "rating": 3.5, "coordinates": {"latitude": 37.6189636161314, "longitude": -122.4093622}, "transactions": [], "price": "$$", "location": {"address1": "260 El Camino Real", "address2": null, "address3": "", "city": "San Bruno", "zip_code": "94066", "country": "US", "state": "CA", "display_address": ["260 El Camino Real", "San Bruno, CA 94066"]}, "phone": "+16506364007", "display_phone": "(650) 636-4007", "distance": 15961.448857760794}, {"id": "pLBEfh2qKNa_9Z9V84XPRw", "alias": "hardwood-bar-and-smokery-san-francisco-2", "name": "Hardwood Bar & Smokery", "image_url": "https://s3-media2.fl.yelpcdn.com/bphoto/C1fkdzMnkNpEI6iw3UzOBw/o.jpg", "is_closed": false, "url": "https://www.yelp.com/biz/hardwood-bar-and-smokery-san-francisco-2?adjust_creative=Klanz-jboxl2XzqrjP6LLw&utm_campaign=yelp_api_v3&utm_medium=api_v3_business_search&utm_source=Klanz-jboxl2XzqrjP6LLw", "review_count": 129, "categories": [{"alias": "sportsbars", "title": "Sports Bars"}, {"alias": "bbq", "title": "Barbeque"}], "rating": 4.0, "coordinates": {"latitude": 37.77045, "longitude": -122.40499}, "transactions": ["delivery", "pickup"], "price": "$$", "location": {"address1": "680 8th St", "address2": "Ste 170", "address3": "", "city": "San Francisco", "zip_code": "94103", "country": "US", "state": "CA", "display_address": ["680 8th St", "Ste 170", "San Francisco, CA 94103"]}, "phone": "+14157962437", "display_phone": "(415) 796-2437", "distance": 2986.0661757741573}, {"id": "yHWWZ15n4H1Yk1t_Htc9QQ", "alias": "dak-chicken-san-francisco-2", "name": "DAK Chicken", "image_url": "https://s3-media1.fl.yelpcdn.com/bphoto/7wefW0slW1-D3EQDyEMoGw/o.jpg", "is_closed": false, "url": "https://www.yelp.com/biz/dak-chicken-san-francisco-2?adjust_creative=Klanz-jboxl2XzqrjP6LLw&utm_campaign=yelp_api_v3&utm_medium=api_v3_business_search&utm_source=Klanz-jboxl2XzqrjP6LLw", "review_count": 17, "categories": [{"alias": "korean", "title": "Korean"}, {"alias": "chicken_wings", "title": "Chicken Wings"}, {"alias": "chickenshop", "title": "Chicken Shop"}], "rating": 4.5, "coordinates": {"latitude": 37.76318, "longitude": -122.47999}, "transactions": [], "location": {"address1": "2045 Irving St", "address2": null, "address3": "", "city": "San Francisco", "zip_code": "94122", "country": "US", "state": "CA", "display_address": ["2045 Irving St", "San Francisco, CA 94122"]}, "phone": "+14157424328", "display_phone": "(415) 742-4328", "distance": 3846.853676242987}, {"id": "4iUPCRJn_fyUh626aV3BPQ", "alias": "saru-sushi-bar-russian-hill-san-francisco-3", "name": "Saru Sushi Bar - Russian hill", "image_url": "https://s3-media1.fl.yelpcdn.com/bphoto/ZFc20FI0TUdFNbUws4MR4A/o.jpg", "is_closed": false, "url": "https://www.yelp.com/biz/saru-sushi-bar-russian-hill-san-francisco-3?adjust_creative=Klanz-jboxl2XzqrjP6LLw&utm_campaign=yelp_api_v3&utm_medium=api_v3_business_search&utm_source=Klanz-jboxl2XzqrjP6LLw", "review_count": 21, "categories": [{"alias": "sushi", "title": "Sushi Bars"}, {"alias": "japanese", "title": "Japanese"}], "rating": 4.5, "coordinates": {"latitude": 37.797094, "longitude": -122.421849}, "transactions": [], "location": {"address1": "2206 Polk St", "address2": null, "address3": "", "city": "San Francisco", "zip_code": "94109", "country": "US", "state": "CA", "display_address": ["2206 Polk St", "San Francisco, CA 94109"]}, "phone": "+14158759798", "display_phone": "(415) 875-9798", "distance": 4227.3754953571015}, {"id": "-1FMp3a7QMqM2uit1ME_Fg", "alias": "kaoru-sushi-richmond", "name": "Kaoru Sushi", "image_url": "https://s3-media2.fl.yelpcdn.com/bphoto/Hg5TrVXETdMpsseuJNaJYg/o.jpg", "is_closed": false, "url": "https://www.yelp.com/biz/kaoru-sushi-richmond?adjust_creative=Klanz-jboxl2XzqrjP6LLw&utm_campaign=yelp_api_v3&utm_medium=api_v3_business_search&utm_source=Klanz-jboxl2XzqrjP6LLw", "review_count": 92, "categories": [{"alias": "japanese", "title": "Japanese"}, {"alias": "sushi", "title": "Sushi Bars"}], "rating": 4.0, "coordinates": {"latitude": 37.8994447078222, "longitude": -122.307218667655}, "transactions": ["delivery", "pickup"], "price": "$$", "location": {"address1": "3288 Pierce St", "address2": "Ste A 107", "address3": "", "city": "Richmond", "zip_code": "94804", "country": "US", "state": "CA", "display_address": ["3288 Pierce St", "Ste A 107", "Richmond, CA 94804"]}, "phone": "+15102805079", "display_phone": "(510) 280-5079", "distance": 19134.822947210985}, {"id": "757R7NRVii-MD5qGZO_uwQ", "alias": "fusion-poki-san-francisco", "name": "Fusion Poki", "image_url": "https://s3-media3.fl.yelpcdn.com/bphoto/NAfIw1Ua4o-EZbYdfzhtVA/o.jpg", "is_closed": false, "url": "https://www.yelp.com/biz/fusion-poki-san-francisco?adjust_creative=Klanz-jboxl2XzqrjP6LLw&utm_campaign=yelp_api_v3&utm_medium=api_v3_business_search&utm_source=Klanz-jboxl2XzqrjP6LLw", "review_count": 104, "categories": [{"alias": "poke", "title": "Poke"}], "rating": 3.5, "coordinates": {"latitude": 37.7962, "longitude": -122.42211}, "transactions": ["delivery", "pickup"], "price": "$$", "location": {"address1": "2123 Polk St", "address2": "", "address3": null, "city": "San Francisco", "zip_code": "94109", "country": "US", "state": "CA", "display_address": ["2123 Polk St", "San Francisco, CA 94109"]}, "phone": "+14156587950", "display_phone": "(415) 658-7950", "distance": 4137.262962345524}, {"id": "ut4SDYWbW8oRRxDXVDuplQ", "alias": "china-express-deli-san-francisco", "name": "China Express Deli", "image_url": "https://s3-media3.fl.yelpcdn.com/bphoto/zWCCTgf39zIOg16NN47jGg/o.jpg", "is_closed": false, "url": "https://www.yelp.com/biz/china-express-deli-san-francisco?adjust_creative=Klanz-jboxl2XzqrjP6LLw&utm_campaign=yelp_api_v3&utm_medium=api_v3_business_search&utm_source=Klanz-jboxl2XzqrjP6LLw", "review_count": 20, "categories": [{"alias": "chinese", "title": "Chinese"}, {"alias": "hotdogs", "title": "Fast Food"}, {"alias": "delis", "title": "Delis"}], "rating": 2.0, "coordinates": {"latitude": 37.7532673627138, "longitude": -122.418617159128}, "transactions": ["delivery"], "price": "$", "location": {"address1": "2732 Mission St", "address2": "", "address3": "", "city": "San Francisco", "zip_code": "94110", "country": "US", "state": "CA", "display_address": ["2732 Mission St", "San Francisco, CA 94110"]}, "phone": "+14158213375", "display_phone": "(415) 821-3375", "distance": 1773.4136305751022}, {"id": "KNjay-slya3gi7rw13ifOQ", "alias": "mums-home-of-shabu-shabu-san-francisco-2", "name": "Mums Home of Shabu Shabu", "image_url": "https://s3-media3.fl.yelpcdn.com/bphoto/MuSa3O8_22GXSgvt-TXjTg/o.jpg", "is_closed": false, "url": "https://www.yelp.com/biz/mums-home-of-shabu-shabu-san-francisco-2?adjust_creative=Klanz-jboxl2XzqrjP6LLw&utm_campaign=yelp_api_v3&utm_medium=api_v3_business_search&utm_source=Klanz-jboxl2XzqrjP6LLw", "review_count": 818, "categories": [{"alias": "japanese", "title": "Japanese"}, {"alias": "hotpot", "title": "Hot Pot"}, {"alias": "buffets", "title": "Buffets"}], "rating": 3.5, "coordinates": {"latitude": 37.78679, "longitude": -122.43032}, "transactions": ["delivery"], "price": "$$", "location": {"address1": "1800 Sutter St", "address2": "", "address3": "", "city": "San Francisco", "zip_code": "94115", "country": "US", "state": "CA", "display_address": ["1800 Sutter St", "San Francisco, CA 94115"]}, "phone": "+14159316986", "display_phone": "(415) 931-6986", "distance": 2921.5085936101495}, {"id": "znjP_ZGYsVTw3NIgsW1hjQ", "alias": "grumpy-cafe-san-francisco", "name": "Grumpy Cafe", "image_url": "https://s3-media1.fl.yelpcdn.com/bphoto/NtUrCaWBZLkNM2BVBRVbWQ/o.jpg", "is_closed": false, "url": "https://www.yelp.com/biz/grumpy-cafe-san-francisco?adjust_creative=Klanz-jboxl2XzqrjP6LLw&utm_campaign=yelp_api_v3&utm_medium=api_v3_business_search&utm_source=Klanz-jboxl2XzqrjP6LLw", "review_count": 33, "categories": [{"alias": "japanese", "title": "Japanese"}, {"alias": "korean", "title": "Korean"}, {"alias": "tradamerican", "title": "American (Traditional)"}], "rating": 4.0, "coordinates": {"latitude": 37.73978, "longitude": -122.40344}, "transactions": ["delivery"], "price": "$", "location": {"address1": "66 Dorman Ave", "address2": null, "address3": "", "city": "San Francisco", "zip_code": "94124", "country": "US", "state": "CA", "display_address": ["66 Dorman Ave", "San Francisco, CA 94124"]}, "phone": "+14152852461", "display_phone": "(415) 285-2461", "distance": 3727.5287346178393}, {"id": "dTWMVRcMVC4zynbFQC7A2A", "alias": "seven-hills-san-francisco", "name": "Seven Hills", "image_url": "https://s3-media3.fl.yelpcdn.com/bphoto/kVipy_NbGz5yCcfIwT9CQw/o.jpg", "is_closed": false, "url": "https://www.yelp.com/biz/seven-hills-san-francisco?adjust_creative=Klanz-jboxl2XzqrjP6LLw&utm_campaign=yelp_api_v3&utm_medium=api_v3_business_search&utm_source=Klanz-jboxl2XzqrjP6LLw", "review_count": 1130, "categories": [{"alias": "italian", "title": "Italian"}, {"alias": "seafood", "title": "Seafood"}, {"alias": "wine_bars", "title": "Wine Bars"}], "rating": 4.5, "coordinates": {"latitude": 37.7981712, "longitude": -122.4186984}, "transactions": [], "price": "$$$", "location": {"address1": "1896 Hyde St", "address2": null, "address3": "", "city": "San Francisco", "zip_code": "94109", "country": "US", "state": "CA", "display_address": ["1896 Hyde St", "San Francisco, CA 94109"]}, "phone": "+14157751550", "display_phone": "(415) 775-1550", "distance": 4428.257650944676}, {"id": "DP2HJpQ0lOrrY8efqB69aA", "alias": "boho-restaurant-san-francisco-2", "name": "Boho Restaurant", "image_url": "https://s3-media1.fl.yelpcdn.com/bphoto/M4DoPL3iVoJcYuyKHjzLdA/o.jpg", "is_closed": false, "url": "https://www.yelp.com/biz/boho-restaurant-san-francisco-2?adjust_creative=Klanz-jboxl2XzqrjP6LLw&utm_campaign=yelp_api_v3&utm_medium=api_v3_business_search&utm_source=Klanz-jboxl2XzqrjP6LLw", "review_count": 262, "categories": [{"alias": "newamerican", "title": "American (New)"}, {"alias": "breakfast_brunch", "title": "Breakfast & Brunch"}, {"alias": "cocktailbars", "title": "Cocktail Bars"}], "rating": 4.5, "coordinates": {"latitude": 37.800039, "longitude": -122.438105}, "transactions": ["delivery", "pickup"], "price": "$$", "location": {"address1": "3321 Steiner St", "address2": null, "address3": null, "city": "San Francisco", "zip_code": "94123", "country": "US", "state": "CA", "display_address": ["3321 Steiner St", "San Francisco, CA 94123"]}, "phone": "+14153747518", "display_phone": "(415) 374-7518", "distance": 4354.354374572017}, {"id": "SbBxCSx_R366QaTJYt9B1A", "alias": "baan-yaai-san-francisco", "name": "Baan Yaai", "image_url": "https://s3-media2.fl.yelpcdn.com/bphoto/vVDQZlioeJpL4nYdH-ieLg/o.jpg", "is_closed": false, "url": "https://www.yelp.com/biz/baan-yaai-san-francisco?adjust_creative=Klanz-jboxl2XzqrjP6LLw&utm_campaign=yelp_api_v3&utm_medium=api_v3_business_search&utm_source=Klanz-jboxl2XzqrjP6LLw", "review_count": 52, "categories": [{"alias": "thai", "title": "Thai"}, {"alias": "noodles", "title": "Noodles"}, {"alias": "chicken_wings", "title": "Chicken Wings"}], "rating": 4.5, "coordinates": {"latitude": 37.799676, "longitude": -122.438929}, "transactions": ["delivery", "pickup"], "price": "$$", "location": {"address1": "2274 Lombard St", "address2": null, "address3": "", "city": "San Francisco", "zip_code": "94123", "country": "US", "state": "CA", "display_address": ["2274 Lombard St", "San Francisco, CA 94123"]}, "phone": "+14152649082", "display_phone": "(415) 264-9082", "distance": 4317.000396161895}, {"id": "6JztpCqROvBCdc0PPvKKgg", "alias": "pho-saigon-south-san-francisco-6", "name": "Pho Saigon", "image_url": "https://s3-media2.fl.yelpcdn.com/bphoto/xRHb3yYj7VE7kDUZ_fIFng/o.jpg", "is_closed": false, "url": "https://www.yelp.com/biz/pho-saigon-south-san-francisco-6?adjust_creative=Klanz-jboxl2XzqrjP6LLw&utm_campaign=yelp_api_v3&utm_medium=api_v3_business_search&utm_source=Klanz-jboxl2XzqrjP6LLw", "review_count": 760, "categories": [{"alias": "vietnamese", "title": "Vietnamese"}], "rating": 2.5, "coordinates": {"latitude": 37.6445117679066, "longitude": -122.453340427818}, "transactions": ["delivery"], "price": "$$", "location": {"address1": "2288 Westborough Blvd", "address2": null, "address3": "", "city": "South San Francisco", "zip_code": "94080", "country": "US", "state": "CA", "display_address": ["2288 Westborough Blvd", "South San Francisco, CA 94080"]}, "phone": "+16508722471", "display_phone": "(650) 872-2471", "distance": 13026.757140158292}, {"id": "9Irn4OeTU8mj_BQ2HFQaww", "alias": "the-vault-garden-san-francisco-2", "name": "The Vault Garden", "image_url": "https://s3-media1.fl.yelpcdn.com/bphoto/2bG2hHiA6MO0P06spH-NLg/o.jpg", "is_closed": false, "url": "https://www.yelp.com/biz/the-vault-garden-san-francisco-2?adjust_creative=Klanz-jboxl2XzqrjP6LLw&utm_campaign=yelp_api_v3&utm_medium=api_v3_business_search&utm_source=Klanz-jboxl2XzqrjP6LLw", "review_count": 205, "categories": [{"alias": "tradamerican", "title": "American (Traditional)"}, {"alias": "cocktailbars", "title": "Cocktail Bars"}], "rating": 4.0, "coordinates": {"latitude": 37.79226, "longitude": -122.40348}, "transactions": ["delivery"], "price": "$$$", "location": {"address1": "555 California St", "address2": null, "address3": "", "city": "San Francisco", "zip_code": "94104", "country": "US", "state": "CA", "display_address": ["555 California St", "San Francisco, CA 94104"]}, "phone": "+14155084675", "display_phone": "(415) 508-4675", "distance": 4508.273054484868}, {"id": "6Ux8vMV2-jd6rRR_bnTvfg", "alias": "happy-lamb-hot-pot-san-francisco-2", "name": "Happy Lamb Hot Pot", "image_url": "https://s3-media2.fl.yelpcdn.com/bphoto/yfWN9B_SCIG0wa7wnhGqKg/o.jpg", "is_closed": false, "url": "https://www.yelp.com/biz/happy-lamb-hot-pot-san-francisco-2?adjust_creative=Klanz-jboxl2XzqrjP6LLw&utm_campaign=yelp_api_v3&utm_medium=api_v3_business_search&utm_source=Klanz-jboxl2XzqrjP6LLw", "review_count": 648, "categories": [{"alias": "hotpot", "title": "Hot Pot"}, {"alias": "chinese", "title": "Chinese"}], "rating": 4.0, "coordinates": {"latitude": 37.787367, "longitude": -122.410103}, "transactions": ["delivery", "pickup"], "price": "$$", "location": {"address1": "405 Mason St", "address2": "", "address3": "", "city": "San Francisco", "zip_code": "94102", "country": "US", "state": "CA", "display_address": ["405 Mason St", "San Francisco, CA 94102"]}, "phone": "+14156739919", "display_phone": "(415) 673-9919", "distance": 3744.7099479150047}, {"id": "R2dAQ9UgOJSnjE--uOkOSQ", "alias": "le-soleil-san-francisco", "name": "Le Soleil", "image_url": "https://s3-media4.fl.yelpcdn.com/bphoto/99X6pLgtW7XHm_8l380LAA/o.jpg", "is_closed": false, "url": "https://www.yelp.com/biz/le-soleil-san-francisco?adjust_creative=Klanz-jboxl2XzqrjP6LLw&utm_campaign=yelp_api_v3&utm_medium=api_v3_business_search&utm_source=Klanz-jboxl2XzqrjP6LLw", "review_count": 545, "categories": [{"alias": "vietnamese", "title": "Vietnamese"}], "rating": 4.0, "coordinates": {"latitude": 37.78297, "longitude": -122.46074}, "transactions": ["delivery", "pickup"], "price": "$$", "location": {"address1": "133 Clement St", "address2": "", "address3": "", "city": "San Francisco", "zip_code": "94118", "country": "US", "state": "CA", "display_address": ["133 Clement St", "San Francisco, CA 94118"]}, "phone": "+14156684848", "display_phone": "(415) 668-4848", "distance": 3249.0387248012053}, {"id": "_Biu9UkF2PRH6LOYZUVD3g", "alias": "sarku-japan-san-francisco", "name": "Sarku Japan", "image_url": "https://s3-media4.fl.yelpcdn.com/bphoto/4cp6TIXzM53J6y38Ekl_XQ/o.jpg", "is_closed": false, "url": "https://www.yelp.com/biz/sarku-japan-san-francisco?adjust_creative=Klanz-jboxl2XzqrjP6LLw&utm_campaign=yelp_api_v3&utm_medium=api_v3_business_search&utm_source=Klanz-jboxl2XzqrjP6LLw", "review_count": 160, "categories": [{"alias": "japanese", "title": "Japanese"}, {"alias": "hotdogs", "title": "Fast Food"}], "rating": 3.0, "coordinates": {"latitude": 37.783869, "longitude": -122.406916}, "transactions": ["delivery"], "price": "$$", "location": {"address1": "865 Market St", "address2": "Ste 289", "address3": "", "city": "San Francisco", "zip_code": "94103", "country": "US", "state": "CA", "display_address": ["865 Market St", "Ste 289", "San Francisco, CA 94103"]}, "phone": "+14157778696", "display_phone": "(415) 777-8696", "distance": 3641.5136143873865}, {"id": "Xdx2_n3nk9Td_aSe7E5ARQ", "alias": "rich-table-san-francisco", "name": "Rich Table", "image_url": "https://s3-media4.fl.yelpcdn.com/bphoto/rvIRMaMEDWyAQLqDgGOxBA/o.jpg", "is_closed": false, "url": "https://www.yelp.com/biz/rich-table-san-francisco?adjust_creative=Klanz-jboxl2XzqrjP6LLw&utm_campaign=yelp_api_v3&utm_medium=api_v3_business_search&utm_source=Klanz-jboxl2XzqrjP6LLw", "review_count": 1352, "categories": [{"alias": "newamerican", "title": "American (New)"}, {"alias": "cocktailbars", "title": "Cocktail Bars"}, {"alias": "wine_bars", "title": "Wine Bars"}], "rating": 4.0, "coordinates": {"latitude": 37.77485, "longitude": -122.42284}, "transactions": ["delivery"], "price": "$$$", "location": {"address1": "199 Gough St", "address2": null, "address3": "", "city": "San Francisco", "zip_code": "94102", "country": "US", "state": "CA", "display_address": ["199 Gough St", "San Francisco, CA 94102"]}, "phone": "+14153559085", "display_phone": "(415) 355-9085", "distance": 1961.4214691036389}, {"id": "vuJcJL8eJ_gomt865GnI_A", "alias": "mockingbird-oakland", "name": "Mockingbird", "image_url": "https://s3-media3.fl.yelpcdn.com/bphoto/e2LkfmWBCKgtRkxyxSWyZQ/o.jpg", "is_closed": false, "url": "https://www.yelp.com/biz/mockingbird-oakland?adjust_creative=Klanz-jboxl2XzqrjP6LLw&utm_campaign=yelp_api_v3&utm_medium=api_v3_business_search&utm_source=Klanz-jboxl2XzqrjP6LLw", "review_count": 621, "categories": [{"alias": "newamerican", "title": "American (New)"}, {"alias": "breakfast_brunch", "title": "Breakfast & Brunch"}, {"alias": "wine_bars", "title": "Wine Bars"}], "rating": 4.0, "coordinates": {"latitude": 37.80355, "longitude": -122.27067}, "transactions": ["delivery"], "price": "$$", "location": {"address1": "416 13th St", "address2": null, "address3": "", "city": "Oakland", "zip_code": "94612", "country": "US", "state": "CA", "display_address": ["416 13th St", "Oakland, CA 94612"]}, "phone": "+15102900331", "display_phone": "(510) 290-0331", "distance": 15311.114609237407}, {"id": "msESLp0PLBVBlbUnYbIj8w", "alias": "pagan-restaurant-san-francisco", "name": "Pagan Restaurant", "image_url": "https://s3-media1.fl.yelpcdn.com/bphoto/tbuOUCXEDP_Mx0tI5Zy3Dw/o.jpg", "is_closed": false, "url": "https://www.yelp.com/biz/pagan-restaurant-san-francisco?adjust_creative=Klanz-jboxl2XzqrjP6LLw&utm_campaign=yelp_api_v3&utm_medium=api_v3_business_search&utm_source=Klanz-jboxl2XzqrjP6LLw", "review_count": 552, "categories": [{"alias": "thai", "title": "Thai"}, {"alias": "burmese", "title": "Burmese"}], "rating": 4.0, "coordinates": {"latitude": 37.781458, "longitude": -122.493306}, "transactions": ["delivery"], "price": "$$", "location": {"address1": "3199 Clement St", "address2": "", "address3": "", "city": "San Francisco", "zip_code": "94121", "country": "US", "state": "CA", "display_address": ["3199 Clement St", "San Francisco, CA 94121"]}, "phone": "+14157512598", "display_phone": "(415) 751-2598", "distance": 5495.650035814325}, {"id": "WFgRFq_KxIs2fkYo1iD6Tg", "alias": "lers-ros-san-francisco-2", "name": "Lers Ros", "image_url": "https://s3-media2.fl.yelpcdn.com/bphoto/Ret1r2LD68ouKGpaVGpPtA/o.jpg", "is_closed": false, "url": "https://www.yelp.com/biz/lers-ros-san-francisco-2?adjust_creative=Klanz-jboxl2XzqrjP6LLw&utm_campaign=yelp_api_v3&utm_medium=api_v3_business_search&utm_source=Klanz-jboxl2XzqrjP6LLw", "review_count": 2254, "categories": [{"alias": "thai", "title": "Thai"}, {"alias": "wine_bars", "title": "Wine Bars"}], "rating": 4.0, "coordinates": {"latitude": 37.784703, "longitude": -122.417566}, "transactions": ["delivery", "pickup", "restaurant_reservation"], "price": "$$", "location": {"address1": "730 Larkin St", "address2": "", "address3": "", "city": "San Francisco", "zip_code": "94109", "country": "US", "state": "CA", "display_address": ["730 Larkin St", "San Francisco, CA 94109"]}, "phone": "+14159316917", "display_phone": "(415) 931-6917", "distance": 3121.1293030249976}, {"id": "8p0z-4uwxkWLRGv89IRyOg", "alias": "dong-bei-mama-san-francisco", "name": "Dong Bei Mama", "image_url": "https://s3-media1.fl.yelpcdn.com/bphoto/btcGGqEI_IyEe14xohGznQ/o.jpg", "is_closed": false, "url": "https://www.yelp.com/biz/dong-bei-mama-san-francisco?adjust_creative=Klanz-jboxl2XzqrjP6LLw&utm_campaign=yelp_api_v3&utm_medium=api_v3_business_search&utm_source=Klanz-jboxl2XzqrjP6LLw", "review_count": 434, "categories": [{"alias": "chinese", "title": "Chinese"}], "rating": 4.0, "coordinates": {"latitude": 37.78057316959765, "longitude": -122.47034882026904}, "transactions": ["delivery", "pickup"], "price": "$$", "location": {"address1": "4737 Geary Blvd", "address2": "", "address3": "", "city": "San Francisco", "zip_code": "94118", "country": "US", "state": "CA", "display_address": ["4737 Geary Blvd", "San Francisco, CA 94118"]}, "phone": "+14152214278", "display_phone": "(415) 221-4278", "distance": 3696.621883631139}, {"id": "EfoKeY9Jnd8l6mGGtnBrcg", "alias": "puerto-27-peruvian-kitchen-and-pisco-bar-pacifica", "name": "Puerto 27 Peruvian Kitchen & Pisco Bar", "image_url": "https://s3-media3.fl.yelpcdn.com/bphoto/2DPZ_R92kAOpDZby1OfTbg/o.jpg", "is_closed": false, "url": "https://www.yelp.com/biz/puerto-27-peruvian-kitchen-and-pisco-bar-pacifica?adjust_creative=Klanz-jboxl2XzqrjP6LLw&utm_campaign=yelp_api_v3&utm_medium=api_v3_business_search&utm_source=Klanz-jboxl2XzqrjP6LLw", "review_count": 1436, "categories": [{"alias": "peruvian", "title": "Peruvian"}, {"alias": "bars", "title": "Bars"}, {"alias": "breakfast_brunch", "title": "Breakfast & Brunch"}], "rating": 3.5, "coordinates": {"latitude": 37.5994639, "longitude": -122.4997514}, "transactions": ["delivery", "pickup"], "price": "$$$", "location": {"address1": "525 Crespi Dr", "address2": "", "address3": "", "city": "Pacifica", "zip_code": "94044", "country": "US", "state": "CA", "display_address": ["525 Crespi Dr", "Pacifica, CA 94044"]}, "phone": "+16507337343", "display_phone": "(650) 733-7343", "distance": 18795.389979648662}, {"id": "mWIsRlWrFsHFw4fb03HONQ", "alias": "dragon-river-restaurant-san-francisco", "name": "Dragon River Restaurant", "image_url": "https://s3-media1.fl.yelpcdn.com/bphoto/Pxvk_TDFP6tYjxQVYGdKdA/o.jpg", "is_closed": false, "url": "https://www.yelp.com/biz/dragon-river-restaurant-san-francisco?adjust_creative=Klanz-jboxl2XzqrjP6LLw&utm_campaign=yelp_api_v3&utm_medium=api_v3_business_search&utm_source=Klanz-jboxl2XzqrjP6LLw", "review_count": 143, "categories": [{"alias": "chinese", "title": "Chinese"}], "rating": 3.5, "coordinates": {"latitude": 37.78032, "longitude": -122.47357}, "transactions": ["pickup"], "price": "$$", "location": {"address1": "5045 Geary Blvd", "address2": "", "address3": "", "city": "San Francisco", "zip_code": "94118", "country": "US", "state": "CA", "display_address": ["5045 Geary Blvd", "San Francisco, CA 94118"]}, "phone": "+14153876698", "display_phone": "(415) 387-6698", "distance": 3911.8181608418104}, {"id": "zsBCkBlCp-anXtyC5NcNTg", "alias": "boiling-beijing-san-bruno-5", "name": "Boiling BeiJing", "image_url": "https://s3-media2.fl.yelpcdn.com/bphoto/UgsMngV5b23eSXvp5Gbi0A/o.jpg", "is_closed": false, "url": "https://www.yelp.com/biz/boiling-beijing-san-bruno-5?adjust_creative=Klanz-jboxl2XzqrjP6LLw&utm_campaign=yelp_api_v3&utm_medium=api_v3_business_search&utm_source=Klanz-jboxl2XzqrjP6LLw", "review_count": 598, "categories": [{"alias": "chinese", "title": "Chinese"}, {"alias": "hotpot", "title": "Hot Pot"}], "rating": 4.0, "coordinates": {"latitude": 37.62741, "longitude": -122.41154}, "transactions": ["delivery", "pickup"], "price": "$$", "location": {"address1": "649 San Mateo Ave", "address2": "", "address3": "", "city": "San Bruno", "zip_code": "94066", "country": "US", "state": "CA", "display_address": ["649 San Mateo Ave", "San Bruno, CA 94066"]}, "phone": "+16509523388", "display_phone": "(650) 952-3388", "distance": 15001.038629779288}, {"id": "4QVSr8skhPtFhAIE8pZBpQ", "alias": "rural-ramen-bar-san-francisco", "name": "Rural Ramen Bar", "image_url": "https://s3-media1.fl.yelpcdn.com/bphoto/Cq58DNyT2auuuRRBf5SryA/o.jpg", "is_closed": false, "url": "https://www.yelp.com/biz/rural-ramen-bar-san-francisco?adjust_creative=Klanz-jboxl2XzqrjP6LLw&utm_campaign=yelp_api_v3&utm_medium=api_v3_business_search&utm_source=Klanz-jboxl2XzqrjP6LLw", "review_count": 68, "categories": [{"alias": "ramen", "title": "Ramen"}, {"alias": "noodles", "title": "Noodles"}, {"alias": "asianfusion", "title": "Asian Fusion"}], "rating": 5.0, "coordinates": {"latitude": 37.79464485989286, "longitude": -122.4099663}, "transactions": ["delivery", "pickup"], "price": "$$", "location": {"address1": "1059 Powell St", "address2": null, "address3": "", "city": "San Francisco", "zip_code": "94108", "country": "US", "state": "CA", "display_address": ["1059 Powell St", "San Francisco, CA 94108"]}, "phone": "+14152749942", "display_phone": "(415) 274-9942", "distance": 4415.4737591587345}, {"id": "K97VJ3lEpwFG-4YLVOm7tg", "alias": "cafe-half-bistro-south-san-francisco-4", "name": "Cafe Half Bistro", "image_url": "https://s3-media1.fl.yelpcdn.com/bphoto/Ts4koFi5B2l3RCS10Qs-NA/o.jpg", "is_closed": false, "url": "https://www.yelp.com/biz/cafe-half-bistro-south-san-francisco-4?adjust_creative=Klanz-jboxl2XzqrjP6LLw&utm_campaign=yelp_api_v3&utm_medium=api_v3_business_search&utm_source=Klanz-jboxl2XzqrjP6LLw", "review_count": 59, "categories": [{"alias": "asianfusion", "title": "Asian Fusion"}, {"alias": "japanese", "title": "Japanese"}], "rating": 4.5, "coordinates": {"latitude": 37.6551811, "longitude": -122.4096021}, "transactions": ["delivery", "pickup"], "location": {"address1": "238 1/2 Grand Ave", "address2": null, "address3": "", "city": "South San Francisco", "zip_code": "94080", "country": "US", "state": "CA", "display_address": ["238 1/2 Grand Ave", "South San Francisco, CA 94080"]}, "phone": "+16508735478", "display_phone": "(650) 873-5478", "distance": 11995.745776386353}, {"id": "BOtmRIzTk1TFyrh3VXFXng", "alias": "sakura-restaurant-alameda", "name": "Sakura Restaurant", "image_url": "https://s3-media2.fl.yelpcdn.com/bphoto/2NZscbsQtSyL_i8KEr5-fQ/o.jpg", "is_closed": false, "url": "https://www.yelp.com/biz/sakura-restaurant-alameda?adjust_creative=Klanz-jboxl2XzqrjP6LLw&utm_campaign=yelp_api_v3&utm_medium=api_v3_business_search&utm_source=Klanz-jboxl2XzqrjP6LLw", "review_count": 279, "categories": [{"alias": "japanese", "title": "Japanese"}, {"alias": "sushi", "title": "Sushi Bars"}, {"alias": "vegetarian", "title": "Vegetarian"}], "rating": 3.5, "coordinates": {"latitude": 37.7649, "longitude": -122.2415}, "transactions": ["delivery"], "price": "$$", "location": {"address1": "2408 Santa Clara Ave", "address2": "", "address3": "", "city": "Alameda", "zip_code": "94501", "country": "US", "state": "CA", "display_address": ["2408 Santa Clara Ave", "Alameda, CA 94501"]}, "phone": "+15107499988", "display_phone": "(510) 749-9988", "distance": 17135.667157299784}, {"id": "HewtUWmKNTMmXeFGeeynRw", "alias": "jika-ramen-and-sushi-house-san-francisco", "name": "Jika Ramen & Sushi House", "image_url": "https://s3-media3.fl.yelpcdn.com/bphoto/IeZDYa35veTtBp_w3jz-7A/o.jpg", "is_closed": false, "url": "https://www.yelp.com/biz/jika-ramen-and-sushi-house-san-francisco?adjust_creative=Klanz-jboxl2XzqrjP6LLw&utm_campaign=yelp_api_v3&utm_medium=api_v3_business_search&utm_source=Klanz-jboxl2XzqrjP6LLw", "review_count": 178, "categories": [{"alias": "sushi", "title": "Sushi Bars"}, {"alias": "ramen", "title": "Ramen"}], "rating": 3.0, "coordinates": {"latitude": 37.78831882208734, "longitude": -122.44021097276098}, "transactions": ["delivery", "pickup"], "price": "$$", "location": {"address1": "2786 California St", "address2": null, "address3": "", "city": "San Francisco", "zip_code": "94115", "country": "US", "state": "CA", "display_address": ["2786 California St", "San Francisco, CA 94115"]}, "phone": "+14157702888", "display_phone": "(415) 770-2888", "distance": 3066.792337545625}, {"id": "kiRsScNQs_UdDV6jPyeCWg", "alias": "petit-crenn-san-francisco", "name": "Petit Crenn", "image_url": "https://s3-media2.fl.yelpcdn.com/bphoto/cXNwe9UeXFnYOZG_upSVpA/o.jpg", "is_closed": false, "url": "https://www.yelp.com/biz/petit-crenn-san-francisco?adjust_creative=Klanz-jboxl2XzqrjP6LLw&utm_campaign=yelp_api_v3&utm_medium=api_v3_business_search&utm_source=Klanz-jboxl2XzqrjP6LLw", "review_count": 437, "categories": [{"alias": "french", "title": "French"}], "rating": 4.0, "coordinates": {"latitude": 37.7762604, "longitude": -122.4264908}, "transactions": [], "price": "$$$$", "location": {"address1": "609 Hayes St", "address2": "", "address3": "", "city": "San Francisco", "zip_code": "94102", "country": "US", "state": "CA", "display_address": ["609 Hayes St", "San Francisco, CA 94102"]}, "phone": "+14158641744", "display_phone": "(415) 864-1744", "distance": 1917.7050234251262}, {"id": "idtdAc0ZmoO5HcO3EvQqkA", "alias": "alx-by-alexanders-steakhouse-san-francisco-2", "name": "ALX by Alexander's Steakhouse", "image_url": "https://s3-media1.fl.yelpcdn.com/bphoto/yNhgAbGzFzeCT-74qheHrA/o.jpg", "is_closed": false, "url": "https://www.yelp.com/biz/alx-by-alexanders-steakhouse-san-francisco-2?adjust_creative=Klanz-jboxl2XzqrjP6LLw&utm_campaign=yelp_api_v3&utm_medium=api_v3_business_search&utm_source=Klanz-jboxl2XzqrjP6LLw", "review_count": 167, "categories": [{"alias": "newamerican", "title": "American (New)"}, {"alias": "cocktailbars", "title": "Cocktail Bars"}, {"alias": "steak", "title": "Steakhouses"}], "rating": 3.5, "coordinates": {"latitude": 37.77933, "longitude": -122.395668}, "transactions": ["delivery"], "location": {"address1": "448 Brannan St", "address2": "", "address3": null, "city": "San Francisco", "zip_code": "94107", "country": "US", "state": "CA", "display_address": ["448 Brannan St", "San Francisco, CA 94107"]}, "phone": "+14154951111", "display_phone": "(415) 495-1111", "distance": 4128.869300968378}, {"id": "KEeh-4qYczsEyW6jJdFnaA", "alias": "go-sushi-japanese-restaurant-pacifica", "name": "Go Sushi Japanese Restaurant", "image_url": "https://s3-media1.fl.yelpcdn.com/bphoto/njAWExQH1qRwCTCWYkVUmw/o.jpg", "is_closed": false, "url": "https://www.yelp.com/biz/go-sushi-japanese-restaurant-pacifica?adjust_creative=Klanz-jboxl2XzqrjP6LLw&utm_campaign=yelp_api_v3&utm_medium=api_v3_business_search&utm_source=Klanz-jboxl2XzqrjP6LLw", "review_count": 458, "categories": [{"alias": "japanese", "title": "Japanese"}, {"alias": "sushi", "title": "Sushi Bars"}], "rating": 3.5, "coordinates": {"latitude": 37.6326649, "longitude": -122.4877529}, "transactions": ["delivery", "pickup"], "price": "$$", "location": {"address1": "190 Eureka Sq", "address2": null, "address3": "", "city": "Pacifica", "zip_code": "94044", "country": "US", "state": "CA", "display_address": ["190 Eureka Sq", "Pacifica, CA 94044"]}, "phone": "+16507389389", "display_phone": "(650) 738-9389", "distance": 14911.19039267871}, {"id": "z1vcsPf9EgBofmg5luEkAQ", "alias": "fiorella-clement-san-francisco-3", "name": "Fiorella -Clement", "image_url": "https://s3-media2.fl.yelpcdn.com/bphoto/3ZnuF9KMc6srDrxDkR4mww/o.jpg", "is_closed": false, "url": "https://www.yelp.com/biz/fiorella-clement-san-francisco-3?adjust_creative=Klanz-jboxl2XzqrjP6LLw&utm_campaign=yelp_api_v3&utm_medium=api_v3_business_search&utm_source=Klanz-jboxl2XzqrjP6LLw", "review_count": 524, "categories": [{"alias": "italian", "title": "Italian"}, {"alias": "pizza", "title": "Pizza"}, {"alias": "wine_bars", "title": "Wine Bars"}], "rating": 4.0, "coordinates": {"latitude": 37.7819188861214, "longitude": -122.484491206706}, "transactions": ["delivery", "pickup"], "price": "$$", "location": {"address1": "2339 Clement St", "address2": "", "address3": "", "city": "San Francisco", "zip_code": "94121", "country": "US", "state": "CA", "display_address": ["2339 Clement St", "San Francisco, CA 94121"]}, "phone": "+14153403049", "display_phone": "(415) 340-3049", "distance": 4826.504704131145}, {"id": "Z_X0WvSmh9DUxBD9xhet9Q", "alias": "sam-wo-restaurant-san-francisco-3", "name": "Sam Wo Restaurant", "image_url": "https://s3-media1.fl.yelpcdn.com/bphoto/DvRtrIbSljZLJ3ulyw9qIg/o.jpg", "is_closed": false, "url": "https://www.yelp.com/biz/sam-wo-restaurant-san-francisco-3?adjust_creative=Klanz-jboxl2XzqrjP6LLw&utm_campaign=yelp_api_v3&utm_medium=api_v3_business_search&utm_source=Klanz-jboxl2XzqrjP6LLw", "review_count": 1129, "categories": [{"alias": "chinese", "title": "Chinese"}], "rating": 4.0, "coordinates": {"latitude": 37.7942543029785, "longitude": -122.405113220215}, "transactions": ["delivery", "pickup"], "price": "$", "location": {"address1": "713 Clay St", "address2": "", "address3": "", "city": "San Francisco", "zip_code": "94108", "country": "US", "state": "CA", "display_address": ["713 Clay St", "San Francisco, CA 94108"]}, "phone": "+14159898898", "display_phone": "(415) 989-8898", "distance": 4618.182214394335}, {"id": "CulXUyVFIYqsMgGfp1G9cA", "alias": "ea-cafe-san-francisco", "name": "EA Cafe", "image_url": "https://s3-media3.fl.yelpcdn.com/bphoto/dr-fYvk0XLpA7fsfsiJkBg/o.jpg", "is_closed": false, "url": "https://www.yelp.com/biz/ea-cafe-san-francisco?adjust_creative=Klanz-jboxl2XzqrjP6LLw&utm_campaign=yelp_api_v3&utm_medium=api_v3_business_search&utm_source=Klanz-jboxl2XzqrjP6LLw", "review_count": 36, "categories": [{"alias": "poke", "title": "Poke"}, {"alias": "coffee", "title": "Coffee & Tea"}, {"alias": "icecream", "title": "Ice Cream & Frozen Yogurt"}], "rating": 4.5, "coordinates": {"latitude": 37.778643, "longitude": -122.3921012}, "transactions": ["delivery", "pickup"], "price": "$$", "location": {"address1": "735 3rd St", "address2": "", "address3": null, "city": "San Francisco", "zip_code": "94107", "country": "US", "state": "CA", "display_address": ["735 3rd St", "San Francisco, CA 94107"]}, "phone": "+14158729328", "display_phone": "(415) 872-9328", "distance": 4368.772854445893}, {"id": "PZCyRDzgDnWazgpyfKRIpQ", "alias": "stick-and-steam-millbrae-4", "name": "Stick & Steam", "image_url": "https://s3-media4.fl.yelpcdn.com/bphoto/CyEi6d4U1oE6W085fYmF-Q/o.jpg", "is_closed": false, "url": "https://www.yelp.com/biz/stick-and-steam-millbrae-4?adjust_creative=Klanz-jboxl2XzqrjP6LLw&utm_campaign=yelp_api_v3&utm_medium=api_v3_business_search&utm_source=Klanz-jboxl2XzqrjP6LLw", "review_count": 354, "categories": [{"alias": "chinese", "title": "Chinese"}, {"alias": "tapasmallplates", "title": "Tapas/Small Plates"}, {"alias": "noodles", "title": "Noodles"}], "rating": 4.0, "coordinates": {"latitude": 37.60033, "longitude": -122.38266}, "transactions": ["delivery", "pickup", "restaurant_reservation"], "price": "$$", "location": {"address1": "350 Adrian Rd", "address2": null, "address3": "", "city": "Millbrae", "zip_code": "94030", "country": "US", "state": "CA", "display_address": ["350 Adrian Rd", "Millbrae, CA 94030"]}, "phone": "+16502399240", "display_phone": "(650) 239-9240", "distance": 18491.14078600984}, {"id": "BmO--s9kL0EppabDgYVRPg", "alias": "guangdong-barbecue-tea-house-san-francisco", "name": "Guangdong Barbecue Tea House", "image_url": "https://s3-media1.fl.yelpcdn.com/bphoto/xgstWytNjQk8-ywqKRgUSw/o.jpg", "is_closed": false, "url": "https://www.yelp.com/biz/guangdong-barbecue-tea-house-san-francisco?adjust_creative=Klanz-jboxl2XzqrjP6LLw&utm_campaign=yelp_api_v3&utm_medium=api_v3_business_search&utm_source=Klanz-jboxl2XzqrjP6LLw", "review_count": 116, "categories": [{"alias": "cantonese", "title": "Cantonese"}, {"alias": "bbq", "title": "Barbeque"}], "rating": 3.0, "coordinates": {"latitude": 37.7633387, "longitude": -122.4813169}, "transactions": ["delivery"], "price": "$", "location": {"address1": "2191 Irving St", "address2": "", "address3": "", "city": "San Francisco", "zip_code": "94122", "country": "US", "state": "CA", "display_address": ["2191 Irving St", "San Francisco, CA 94122"]}, "phone": "+14157319948", "display_phone": "(415) 731-9948", "distance": 3953.6435231630126}, {"id": "NBdAqG4Kdqy0BrCrWa0xUg", "alias": "tsunami-panhandle-san-francisco-2", "name": "Tsunami Panhandle", "image_url": "https://s3-media1.fl.yelpcdn.com/bphoto/gbAd-x84xcLeiHfDjcWmXQ/o.jpg", "is_closed": false, "url": "https://www.yelp.com/biz/tsunami-panhandle-san-francisco-2?adjust_creative=Klanz-jboxl2XzqrjP6LLw&utm_campaign=yelp_api_v3&utm_medium=api_v3_business_search&utm_source=Klanz-jboxl2XzqrjP6LLw", "review_count": 914, "categories": [{"alias": "sushi", "title": "Sushi Bars"}, {"alias": "japanese", "title": "Japanese"}, {"alias": "bars", "title": "Bars"}], "rating": 3.5, "coordinates": {"latitude": 37.7769872, "longitude": -122.4385184}, "transactions": ["delivery"], "price": "$$$", "location": {"address1": "1306 Fulton St", "address2": "", "address3": "", "city": "San Francisco", "zip_code": "94117", "country": "US", "state": "CA", "display_address": ["1306 Fulton St", "San Francisco, CA 94117"]}, "phone": "+14155677664", "display_phone": "(415) 567-7664", "distance": 1798.1213778609413}, {"id": "AeMidC6u6o-oy9E0ZzfLPg", "alias": "golden-lotus-san-francisco", "name": "Golden Lotus", "image_url": "https://s3-media3.fl.yelpcdn.com/bphoto/_ewzU3wmSw3M3oT7mPVKeQ/o.jpg", "is_closed": false, "url": "https://www.yelp.com/biz/golden-lotus-san-francisco?adjust_creative=Klanz-jboxl2XzqrjP6LLw&utm_campaign=yelp_api_v3&utm_medium=api_v3_business_search&utm_source=Klanz-jboxl2XzqrjP6LLw", "review_count": 277, "categories": [{"alias": "vietnamese", "title": "Vietnamese"}, {"alias": "noodles", "title": "Noodles"}], "rating": 4.0, "coordinates": {"latitude": 37.7838416865229, "longitude": -122.417792251626}, "transactions": ["delivery", "pickup"], "price": "$", "location": {"address1": "631 Larkin St", "address2": "", "address3": "", "city": "San Francisco", "zip_code": "94109", "country": "US", "state": "CA", "display_address": ["631 Larkin St", "San Francisco, CA 94109"]}, "phone": "+14153451355", "display_phone": "(415) 345-1355", "distance": 3032.554967970085}, {"id": "cJ_JXuVHWUKvAMQvggMOJQ", "alias": "ai-grill-millbrae", "name": "Ai Grill", "image_url": "https://s3-media3.fl.yelpcdn.com/bphoto/CvNXft7CYMDiMYOuDRoMcQ/o.jpg", "is_closed": false, "url": "https://www.yelp.com/biz/ai-grill-millbrae?adjust_creative=Klanz-jboxl2XzqrjP6LLw&utm_campaign=yelp_api_v3&utm_medium=api_v3_business_search&utm_source=Klanz-jboxl2XzqrjP6LLw", "review_count": 16, "categories": [{"alias": "bbq", "title": "Barbeque"}, {"alias": "asianfusion", "title": "Asian Fusion"}, {"alias": "japanese", "title": "Japanese"}], "rating": 4.0, "coordinates": {"latitude": 37.6128512, "longitude": -122.40434988650519}, "transactions": [], "location": {"address1": "1621 El Camino Real", "address2": null, "address3": "", "city": "Millbrae", "zip_code": "94030", "country": "US", "state": "CA", "display_address": ["1621 El Camino Real", "Millbrae, CA 94030"]}, "phone": "+16506605606", "display_phone": "(650) 660-5606", "distance": 16702.723862899322}, {"id": "DeGdhZKXoTnyyFc8GC2BHg", "alias": "waterfront-restaurant-san-francisco-5", "name": "Waterfront Restaurant", "image_url": "https://s3-media3.fl.yelpcdn.com/bphoto/mmTLhmJ_0tsrGSq5p1_XJA/o.jpg", "is_closed": false, "url": "https://www.yelp.com/biz/waterfront-restaurant-san-francisco-5?adjust_creative=Klanz-jboxl2XzqrjP6LLw&utm_campaign=yelp_api_v3&utm_medium=api_v3_business_search&utm_source=Klanz-jboxl2XzqrjP6LLw", "review_count": 1274, "categories": [{"alias": "seafood", "title": "Seafood"}, {"alias": "tradamerican", "title": "American (Traditional)"}], "rating": 3.0, "coordinates": {"latitude": 37.7993774767812, "longitude": -122.397444471717}, "transactions": ["delivery"], "price": "$$$", "location": {"address1": "Pier 7 The Embarcadero", "address2": "", "address3": "", "city": "San Francisco", "zip_code": "94111", "country": "US", "state": "CA", "display_address": ["Pier 7 The Embarcadero", "San Francisco, CA 94111"]}, "phone": "+14153912696", "display_phone": "(415) 391-2696", "distance": 5482.290107314}, {"id": "EKLjQC4LH_WPFJPubtPfMQ", "alias": "leos-oyster-bar-san-francisco-2", "name": "Leo's Oyster Bar", "image_url": "https://s3-media1.fl.yelpcdn.com/bphoto/VTKdGE7TmHGvko6cp9bz1w/o.jpg", "is_closed": false, "url": "https://www.yelp.com/biz/leos-oyster-bar-san-francisco-2?adjust_creative=Klanz-jboxl2XzqrjP6LLw&utm_campaign=yelp_api_v3&utm_medium=api_v3_business_search&utm_source=Klanz-jboxl2XzqrjP6LLw", "review_count": 404, "categories": [{"alias": "bars", "title": "Bars"}, {"alias": "seafood", "title": "Seafood"}], "rating": 4.0, "coordinates": {"latitude": 37.793953606303745, "longitude": -122.40254382531735}, "transactions": ["delivery"], "price": "$$$", "location": {"address1": "568 Sacramento St", "address2": null, "address3": "", "city": "San Francisco", "zip_code": "94111", "country": "US", "state": "CA", "display_address": ["568 Sacramento St", "San Francisco, CA 94111"]}, "phone": "+12094598335", "display_phone": "(209) 459-8335", "distance": 4731.549473373393}, {"id": "RZKmlQqq8XN82VwcEgMhqQ", "alias": "kama-o-deli-san-francisco", "name": "Kama O Deli", "image_url": "https://s3-media4.fl.yelpcdn.com/bphoto/kuOuELX_obb5YiS9Qq1YRw/o.jpg", "is_closed": false, "url": "https://www.yelp.com/biz/kama-o-deli-san-francisco?adjust_creative=Klanz-jboxl2XzqrjP6LLw&utm_campaign=yelp_api_v3&utm_medium=api_v3_business_search&utm_source=Klanz-jboxl2XzqrjP6LLw", "review_count": 92, "categories": [{"alias": "delis", "title": "Delis"}, {"alias": "japanese", "title": "Japanese"}, {"alias": "sandwiches", "title": "Sandwiches"}], "rating": 4.0, "coordinates": {"latitude": 37.7801891062951, "longitude": -122.394493681462}, "transactions": ["delivery", "pickup"], "price": "$$", "location": {"address1": "590 3rd St", "address2": "", "address3": "", "city": "San Francisco", "zip_code": "94107", "country": "US", "state": "CA", "display_address": ["590 3rd St", "San Francisco, CA 94107"]}, "phone": "+14158729622", "display_phone": "(415) 872-9622", "distance": 4254.550914144858}, {"id": "3iXNme_P4_lGk4BVEkghRw", "alias": "k-town-food-hall-san-francisco", "name": "K-Town Food Hall", "image_url": "https://s3-media1.fl.yelpcdn.com/bphoto/0XQqcTyPIWQy30waVyhLZQ/o.jpg", "is_closed": false, "url": "https://www.yelp.com/biz/k-town-food-hall-san-francisco?adjust_creative=Klanz-jboxl2XzqrjP6LLw&utm_campaign=yelp_api_v3&utm_medium=api_v3_business_search&utm_source=Klanz-jboxl2XzqrjP6LLw", "review_count": 2, "categories": [{"alias": "food_court", "title": "Food Court"}, {"alias": "korean", "title": "Korean"}], "rating": 3.5, "coordinates": {"latitude": 37.71049, "longitude": -122.46913}, "transactions": [], "location": {"address1": "3995 Alemany Blvd", "address2": "Ste A", "address3": null, "city": "San Francisco", "zip_code": "94132", "country": "US", "state": "CA", "display_address": ["3995 Alemany Blvd", "Ste A", "San Francisco, CA 94132"]}, "phone": "", "display_phone": "", "distance": 6273.8973600670715}], "total": 1600, "region": {"center": {"longitude": -122.43644714355469, "latitude": 37.76089938976322}}}