{"businesses": [{"id": "W_2rcLj-vDAa7tUixhz0eQ", "alias": "one-waan-thai-san-francisco", "name": "One Waan Thai", "image_url": "https://s3-media4.fl.yelpcdn.com/bphoto/PRTJAQZVSggNFeav55NWqQ/o.jpg", "is_closed": false, "url": "https://www.yelp.com/biz/one-waan-thai-san-francisco?adjust_creative=Klanz-jboxl2XzqrjP6LLw&utm_campaign=yelp_api_v3&utm_medium=api_v3_business_search&utm_source=Klanz-jboxl2XzqrjP6LLw", "review_count": 284, "categories": [{"alias": "thai", "title": "Thai"}], "rating": 4.0, "coordinates": {"latitude": 37.73316, "longitude": -122.434448}, "transactions": ["pickup", "delivery"], "price": "$$", "location": {"address1": "2922 Diamond St", "address2": null, "address3": null, "city": "San Francisco", "zip_code": "94131", "country": "US", "state": "CA", "display_address": ["2922 Diamond St", "San Francisco, CA 94131"]}, "phone": "+14155866742", "display_phone": "(415) 586-6742", "distance": 3086.9879935614717}, {"id": "m-VeBviqKzECyVPxyiLqTg", "alias": "utzutzu-alameda", "name": "Utzutzu", "image_url": "https://s3-media3.fl.yelpcdn.com/bphoto/k0qqNH4qfUCiF-p_jXlN6w/o.jpg", "is_closed": false, "url": "https://www.yelp.com/biz/utzutzu-alameda?adjust_creative=Klanz-jboxl2XzqrjP6LLw&utm_campaign=yelp_api_v3&utm_medium=api_v3_business_search&utm_source=Klanz-jboxl2XzqrjP6LLw", "review_count": 80, "categories": [{"alias": "sushi", "title": "Sushi Bars"}, {"alias": "japanese", "title": "Japanese"}], "rating": 4.5, "coordinates": {"latitude": 37.76482, "longitude": -122.24197}, "transactions": [], "price": "$$$$", "location": {"address1": "1428 Park St", "address2": "", "address3": null, "city": "Alameda", "zip_code": "94501", "country": "US", "state": "CA", "display_address": ["1428 Park St", "Alameda, CA 94501"]}, "phone": "+15102638122", "display_phone": "(510) 263-8122", "distance": 17096.412139918302}, {"id": "GnxzYamcJRd5NG94wGxdcw", "alias": "parallel-37-san-francisco", "name": "Parallel 37", "image_url": "https://s3-media1.fl.yelpcdn.com/bphoto/3Wl88uPd42heTnkbdotcqA/o.jpg", "is_closed": false, "url": "https://www.yelp.com/biz/parallel-37-san-francisco?adjust_creative=Klanz-jboxl2XzqrjP6LLw&utm_campaign=yelp_api_v3&utm_medium=api_v3_business_search&utm_source=Klanz-jboxl2XzqrjP6LLw", "review_count": 227, "categories": [{"alias": "newamerican", "title": "American (New)"}, {"alias": "cocktailbars", "title": "Cocktail Bars"}], "rating": 4.0, "coordinates": {"latitude": 37.7920146869889, "longitude": -122.407165322754}, "transactions": ["delivery"], "price": "$$$$", "location": {"address1": "600 Stockton St", "address2": "The Ritz-Carlton, San Francisco", "address3": "", "city": "San Francisco", "zip_code": "94108", "country": "US", "state": "CA", "display_address": ["600 Stockton St", "The Ritz-Carlton, San Francisco", "San Francisco, CA 94108"]}, "phone": "+14157736168", "display_phone": "(415) 773-6168", "distance": 4312.053433993246}, {"id": "mhidYg8nX5gMNdkY96YdFQ", "alias": "torraku-ramen-lombard-san-francisco-2", "name": "Torraku Ramen - Lombard", "image_url": "https://s3-media1.fl.yelpcdn.com/bphoto/Xgvm-CBvUX1TAp_3EXqwVA/o.jpg", "is_closed": false, "url": "https://www.yelp.com/biz/torraku-ramen-lombard-san-francisco-2?adjust_creative=Klanz-jboxl2XzqrjP6LLw&utm_campaign=yelp_api_v3&utm_medium=api_v3_business_search&utm_source=Klanz-jboxl2XzqrjP6LLw", "review_count": 75, "categories": [{"alias": "ramen", "title": "Ramen"}], "rating": 4.5, "coordinates": {"latitude": 37.80087, "longitude": -122.42541}, "transactions": ["pickup", "delivery"], "price": "$$", "location": {"address1": "1449 Lombard St", "address2": null, "address3": "", "city": "San Francisco", "zip_code": "94123", "country": "US", "state": "CA", "display_address": ["1449 Lombard St", "San Francisco, CA 94123"]}, "phone": "+14159363641", "display_phone": "(415) 936-3641", "distance": 4548.911667027999}, {"id": "XZ1_66Wa4tumkbKfTI2dWA", "alias": "china-live-san-francisco", "name": "China Live", "image_url": "https://s3-media4.fl.yelpcdn.com/bphoto/vTiacfMNynZlRjC3lmx_8w/o.jpg", "is_closed": false, "url": "https://www.yelp.com/biz/china-live-san-francisco?adjust_creative=Klanz-jboxl2XzqrjP6LLw&utm_campaign=yelp_api_v3&utm_medium=api_v3_business_search&utm_source=Klanz-jboxl2XzqrjP6LLw", "review_count": 1399, "categories": [{"alias": "chinese", "title": "Chinese"}, {"alias": "cocktailbars", "title": "Cocktail Bars"}, {"alias": "asianfusion", "title": "Asian Fusion"}], "rating": 3.5, "coordinates": {"latitude": 37.7977636140901, "longitude": -122.407851420238}, "transactions": ["delivery", "pickup"], "price": "$$", "location": {"address1": "644 Broadway", "address2": "", "address3": "", "city": "San Francisco", "zip_code": "94133", "country": "US", "state": "CA", "display_address": ["644 Broadway", "San Francisco, CA 94133"]}, "phone": "+14157888188", "display_phone": "(415) 788-8188", "distance": 4808.186132300881}, {"id": "xlXnPitrO9Mjfq3aPAyNVQ", "alias": "delica-san-francisco", "name": "Delica", "image_url": "https://s3-media2.fl.yelpcdn.com/bphoto/q7ukUHkzjy1UsHujbo1_Yw/o.jpg", "is_closed": false, "url": "https://www.yelp.com/biz/delica-san-francisco?adjust_creative=Klanz-jboxl2XzqrjP6LLw&utm_campaign=yelp_api_v3&utm_medium=api_v3_business_search&utm_source=Klanz-jboxl2XzqrjP6LLw", "review_count": 1007, "categories": [{"alias": "japanese", "title": "Japanese"}, {"alias": "delis", "title": "Delis"}, {"alias": "sushi", "title": "Sushi Bars"}], "rating": 3.5, "coordinates": {"latitude": 37.7955703, "longitude": -122.3933208}, "transactions": ["delivery", "pickup"], "price": "$$", "location": {"address1": "1 Ferry Bldg", "address2": "Shop 45", "address3": "Ferry Building Marketplace", "city": "San Francisco", "zip_code": "94111", "country": "US", "state": "CA", "display_address": ["1 Ferry Bldg", "Shop 45", "Ferry Building Marketplace", "San Francisco, CA 94111"]}, "phone": "+14158340344", "display_phone": "(415) 834-0344", "distance": 5406.3592254558025}, {"id": "9gW2kzWOU98qm6xyar-fhA", "alias": "mokis-sushi-and-pacific-grill-san-francisco", "name": "Moki's Sushi & Pacific Grill", "image_url": "https://s3-media3.fl.yelpcdn.com/bphoto/d3mjeSibqGLXQZXk1fU3AQ/o.jpg", "is_closed": false, "url": "https://www.yelp.com/biz/mokis-sushi-and-pacific-grill-san-francisco?adjust_creative=Klanz-jboxl2XzqrjP6LLw&utm_campaign=yelp_api_v3&utm_medium=api_v3_business_search&utm_source=Klanz-jboxl2XzqrjP6LLw", "review_count": 479, "categories": [{"alias": "sushi", "title": "Sushi Bars"}, {"alias": "japanese", "title": "Japanese"}, {"alias": "hawaiian", "title": "Hawaiian"}], "rating": 4.0, "coordinates": {"latitude": 37.7391002, "longitude": -122.4155353}, "transactions": ["delivery"], "price": "$$", "location": {"address1": "615 Cortland Ave", "address2": "", "address3": "", "city": "San Francisco", "zip_code": "94110", "country": "US", "state": "CA", "display_address": ["615 Cortland Ave", "San Francisco, CA 94110"]}, "phone": "+14159709336", "display_phone": "(415) 970-9336", "distance": 3035.498062099399}, {"id": "JtHqMEpbq_qQzyAHN4CbRg", "alias": "katana-ya-ramen-restaurant-el-cerrito", "name": "Katana-Ya Ramen Restaurant", "image_url": "https://s3-media3.fl.yelpcdn.com/bphoto/xJgt3HJabZLZqKuqQIfkTA/o.jpg", "is_closed": false, "url": "https://www.yelp.com/biz/katana-ya-ramen-restaurant-el-cerrito?adjust_creative=Klanz-jboxl2XzqrjP6LLw&utm_campaign=yelp_api_v3&utm_medium=api_v3_business_search&utm_source=Klanz-jboxl2XzqrjP6LLw", "review_count": 401, "categories": [{"alias": "sushi", "title": "Sushi Bars"}, {"alias": "ramen", "title": "Ramen"}], "rating": 3.0, "coordinates": {"latitude": 37.910549, "longitude": -122.307812}, "transactions": ["pickup", "delivery"], "price": "$$", "location": {"address1": "10544 San Pablo Ave", "address2": "", "address3": "", "city": "El Cerrito", "zip_code": "94530", "country": "US", "state": "CA", "display_address": ["10544 San Pablo Ave", "El Cerrito, CA 94530"]}, "phone": "+15105281678", "display_phone": "(510) 528-1678", "distance": 20112.44100844806}, {"id": "wfhx1nEolvj5vD64WM0yOQ", "alias": "kamameshi-house-japanese-cuisine-daly-city-2", "name": "Kamameshi House Japanese Cuisine", "image_url": "https://s3-media4.fl.yelpcdn.com/bphoto/dTQTyEnG4m4w8IgbFopkGQ/o.jpg", "is_closed": false, "url": "https://www.yelp.com/biz/kamameshi-house-japanese-cuisine-daly-city-2?adjust_creative=Klanz-jboxl2XzqrjP6LLw&utm_campaign=yelp_api_v3&utm_medium=api_v3_business_search&utm_source=Klanz-jboxl2XzqrjP6LLw", "review_count": 193, "categories": [{"alias": "japanese", "title": "Japanese"}], "rating": 3.5, "coordinates": {"latitude": 37.649023, "longitude": -122.45365}, "transactions": ["delivery"], "price": "$$", "location": {"address1": "2085 Gellert Blvd", "address2": "Ste 6", "address3": "", "city": "Daly City", "zip_code": "94015", "country": "US", "state": "CA", "display_address": ["2085 Gellert Blvd", "Ste 6", "Daly City, CA 94015"]}, "phone": "+16509520444", "display_phone": "(650) 952-0444", "distance": 12531.792090063907}, {"id": "0ZLxNJ2yoEUn9azwzfODWw", "alias": "bar-bocce-sausalito", "name": "Bar Bocce", "image_url": "https://s3-media4.fl.yelpcdn.com/bphoto/NWEP6zDC2cp8IDnG1bANeQ/o.jpg", "is_closed": false, "url": "https://www.yelp.com/biz/bar-bocce-sausalito?adjust_creative=Klanz-jboxl2XzqrjP6LLw&utm_campaign=yelp_api_v3&utm_medium=api_v3_business_search&utm_source=Klanz-jboxl2XzqrjP6LLw", "review_count": 1097, "categories": [{"alias": "pizza", "title": "Pizza"}, {"alias": "tapasmallplates", "title": "Tapas/Small Plates"}, {"alias": "sandwiches", "title": "Sandwiches"}], "rating": 3.5, "coordinates": {"latitude": 37.8598, "longitude": -122.48521}, "transactions": ["delivery"], "price": "$$", "location": {"address1": "1250 Bridgeway", "address2": "", "address3": "", "city": "Sausalito", "zip_code": "94965", "country": "US", "state": "CA", "display_address": ["1250 Bridgeway", "Sausalito, CA 94965"]}, "phone": "+14153310555", "display_phone": "(415) 331-0555", "distance": 11764.973556038178}, {"id": "u6F-UdJLqiMNBPbk0tfUDg", "alias": "sushi-aoba-san-francisco", "name": "Sushi Aoba", "image_url": "https://s3-media2.fl.yelpcdn.com/bphoto/Qi1x4CWCiMwfsbLfqPj0Fw/o.jpg", "is_closed": false, "url": "https://www.yelp.com/biz/sushi-aoba-san-francisco?adjust_creative=Klanz-jboxl2XzqrjP6LLw&utm_campaign=yelp_api_v3&utm_medium=api_v3_business_search&utm_source=Klanz-jboxl2XzqrjP6LLw", "review_count": 11, "categories": [{"alias": "sushi", "title": "Sushi Bars"}, {"alias": "japanese", "title": "Japanese"}], "rating": 5.0, "coordinates": {"latitude": 37.78692, "longitude": -122.42824}, "transactions": [], "price": "$$$$", "location": {"address1": "1700 Laguna St", "address2": "", "address3": null, "city": "San Francisco", "zip_code": "94115", "country": "US", "state": "CA", "display_address": ["1700 Laguna St", "San Francisco, CA 94115"]}, "phone": "+14156587388", "display_phone": "(415) 658-7388", "distance": 2977.198581905559}, {"id": "dhTrfvdlpFE33USafJ3cjQ", "alias": "bluestem-restaurant-and-market-san-francisco", "name": "Bluestem Restaurant &  Market", "image_url": "https://s3-media4.fl.yelpcdn.com/bphoto/YtFfNMzj-f1w05nbuAcMxg/o.jpg", "is_closed": false, "url": "https://www.yelp.com/biz/bluestem-restaurant-and-market-san-francisco?adjust_creative=Klanz-jboxl2XzqrjP6LLw&utm_campaign=yelp_api_v3&utm_medium=api_v3_business_search&utm_source=Klanz-jboxl2XzqrjP6LLw", "review_count": 1708, "categories": [{"alias": "wine_bars", "title": "Wine Bars"}, {"alias": "gourmet", "title": "Specialty Food"}], "rating": 4.0, "coordinates": {"latitude": 37.785985, "longitude": -122.404921}, "transactions": ["delivery"], "price": "$$$", "location": {"address1": "One Yerba Buena Ln", "address2": "", "address3": "", "city": "San Francisco", "zip_code": "94103", "country": "US", "state": "CA", "display_address": ["One Yerba Buena Ln", "San Francisco, CA 94103"]}, "phone": "+14155471111", "display_phone": "(415) 547-1111", "distance": 3931.7529515124697}, {"id": "YZXz9PcG3SzkeCZL7M7DJA", "alias": "the-trident-sausalito", "name": "The Trident", "image_url": "https://s3-media4.fl.yelpcdn.com/bphoto/kjUBJvvPIE5kDvuV49CmmA/o.jpg", "is_closed": false, "url": "https://www.yelp.com/biz/the-trident-sausalito?adjust_creative=Klanz-jboxl2XzqrjP6LLw&utm_campaign=yelp_api_v3&utm_medium=api_v3_business_search&utm_source=Klanz-jboxl2XzqrjP6LLw", "review_count": 1033, "categories": [{"alias": "seafood", "title": "Seafood"}, {"alias": "tradamerican", "title": "American (Traditional)"}], "rating": 3.0, "coordinates": {"latitude": 37.85358676, "longitude": -122.47858335}, "transactions": ["pickup", "delivery"], "price": "$$", "location": {"address1": "558 Bridgeway", "address2": "", "address3": "", "city": "Sausalito", "zip_code": "94965", "country": "US", "state": "CA", "display_address": ["558 Bridgeway", "Sausalito, CA 94965"]}, "phone": "+14153313232", "display_phone": "(415) 331-3232", "distance": 10950.983332801132}, {"id": "YnsTKMwhnWpHW6QutlzPmQ", "alias": "hashi-gawa-alameda", "name": "Hashi Gawa", "image_url": "https://s3-media1.fl.yelpcdn.com/bphoto/H44ga3cYZtvqTLZ6WjiZ5w/o.jpg", "is_closed": false, "url": "https://www.yelp.com/biz/hashi-gawa-alameda?adjust_creative=Klanz-jboxl2XzqrjP6LLw&utm_campaign=yelp_api_v3&utm_medium=api_v3_business_search&utm_source=Klanz-jboxl2XzqrjP6LLw", "review_count": 122, "categories": [{"alias": "japanese", "title": "Japanese"}, {"alias": "sushi", "title": "Sushi Bars"}], "rating": 4.5, "coordinates": {"latitude": 37.76829, "longitude": -122.23317}, "transactions": [], "location": {"address1": "2661 Blanding Ave", "address2": null, "address3": "", "city": "Alameda", "zip_code": "94501", "country": "US", "state": "CA", "display_address": ["2661 Blanding Ave", "Alameda, CA 94501"]}, "phone": "+15102275187", "display_phone": "(510) 227-5187", "distance": 18028.785720826836}, {"id": "bGI_oq-DVPo2bWJZxDf9gw", "alias": "sai-jai-thai-restaurant-san-francisco", "name": "Sai Jai Thai Restaurant", "image_url": "https://s3-media4.fl.yelpcdn.com/bphoto/OvZnmAhRoKMj82jRfKT31Q/o.jpg", "is_closed": false, "url": "https://www.yelp.com/biz/sai-jai-thai-restaurant-san-francisco?adjust_creative=Klanz-jboxl2XzqrjP6LLw&utm_campaign=yelp_api_v3&utm_medium=api_v3_business_search&utm_source=Klanz-jboxl2XzqrjP6LLw", "review_count": 934, "categories": [{"alias": "thai", "title": "Thai"}, {"alias": "desserts", "title": "Desserts"}, {"alias": "seafood", "title": "Seafood"}], "rating": 4.0, "coordinates": {"latitude": 37.78495, "longitude": -122.41738}, "transactions": ["delivery"], "price": "$", "location": {"address1": "771 O'Farrell St", "address2": "", "address3": "", "city": "San Francisco", "zip_code": "94109", "country": "US", "state": "CA", "display_address": ["771 O'Farrell St", "San Francisco, CA 94109"]}, "phone": "+14156735774", "display_phone": "(415) 673-5774", "distance": 3166.43861105355}, {"id": "Je2KUIL7siL6UtqHmtOkPA", "alias": "kagawa-ya-udon-san-francisco", "name": "Kagawa-Ya Udon", "image_url": "https://s3-media2.fl.yelpcdn.com/bphoto/46ybmpL37Kjz94EpvKWvZg/o.jpg", "is_closed": false, "url": "https://www.yelp.com/biz/kagawa-ya-udon-san-francisco?adjust_creative=Klanz-jboxl2XzqrjP6LLw&utm_campaign=yelp_api_v3&utm_medium=api_v3_business_search&utm_source=Klanz-jboxl2XzqrjP6LLw", "review_count": 331, "categories": [{"alias": "japanese", "title": "Japanese"}, {"alias": "noodles", "title": "Noodles"}], "rating": 4.0, "coordinates": {"latitude": 37.7752315, "longitude": -122.4175278}, "transactions": ["delivery", "pickup"], "price": "$$", "location": {"address1": "1455 Market St", "address2": "Ste 3A", "address3": null, "city": "San Francisco", "zip_code": "94103", "country": "US", "state": "CA", "display_address": ["1455 Market St", "Ste 3A", "San Francisco, CA 94103"]}, "phone": "+14157030995", "display_phone": "(415) 703-0995", "distance": 2303.3208146176153}, {"id": "T4-pajwzL87-jKIr2NIwew", "alias": "nande-ya-san-francisco-3", "name": "Nande-Ya", "image_url": "https://s3-media1.fl.yelpcdn.com/bphoto/fMBBVzZpj-II-g4LUKaRyA/o.jpg", "is_closed": false, "url": "https://www.yelp.com/biz/nande-ya-san-francisco-3?adjust_creative=Klanz-jboxl2XzqrjP6LLw&utm_campaign=yelp_api_v3&utm_medium=api_v3_business_search&utm_source=Klanz-jboxl2XzqrjP6LLw", "review_count": 326, "categories": [{"alias": "japanese", "title": "Japanese"}], "rating": 2.5, "coordinates": {"latitude": 37.785176, "longitude": -122.430585}, "transactions": ["pickup", "delivery"], "price": "$$", "location": {"address1": "1737 Post St", "address2": "", "address3": null, "city": "San Francisco", "zip_code": "94115", "country": "US", "state": "CA", "display_address": ["1737 Post St", "San Francisco, CA 94115"]}, "phone": "+16284443580", "display_phone": "(628) 444-3580", "distance": 2748.165355187678}, {"id": "KKD4YiUXJ__ihFgUCJdo6Q", "alias": "kissako-tea-san-francisco-2", "name": "Kissako Tea", "image_url": "https://s3-media2.fl.yelpcdn.com/bphoto/s9AeiCrTfGWIwYf5lVUVbA/o.jpg", "is_closed": false, "url": "https://www.yelp.com/biz/kissako-tea-san-francisco-2?adjust_creative=Klanz-jboxl2XzqrjP6LLw&utm_campaign=yelp_api_v3&utm_medium=api_v3_business_search&utm_source=Klanz-jboxl2XzqrjP6LLw", "review_count": 342, "categories": [{"alias": "coffee", "title": "Coffee & Tea"}, {"alias": "desserts", "title": "Desserts"}, {"alias": "japanese", "title": "Japanese"}], "rating": 4.0, "coordinates": {"latitude": 37.78503930000001, "longitude": -122.4316478}, "transactions": ["delivery", "pickup"], "price": "$", "location": {"address1": "1581 Webster St", "address2": "Ste 195", "address3": "", "city": "San Francisco", "zip_code": "94115", "country": "US", "state": "CA", "display_address": ["1581 Webster St", "Ste 195", "San Francisco, CA 94115"]}, "phone": "+14155674988", "display_phone": "(415) 567-4988", "distance": 2717.1759329403035}, {"id": "u39mZEYojBiNic3lqKhPNw", "alias": "tacorea-san-francisco", "name": "Tacorea", "image_url": "https://s3-media4.fl.yelpcdn.com/bphoto/PQsEAnW8KP-PSjHpgMbjGw/o.jpg", "is_closed": false, "url": "https://www.yelp.com/biz/tacorea-san-francisco?adjust_creative=Klanz-jboxl2XzqrjP6LLw&utm_campaign=yelp_api_v3&utm_medium=api_v3_business_search&utm_source=Klanz-jboxl2XzqrjP6LLw", "review_count": 1826, "categories": [{"alias": "mexican", "title": "Mexican"}, {"alias": "korean", "title": "Korean"}, {"alias": "breakfast_brunch", "title": "Breakfast & Brunch"}], "rating": 4.5, "coordinates": {"latitude": 37.7897794, "longitude": -122.410717}, "transactions": [], "price": "$$", "location": {"address1": "809 Bush St", "address2": "", "address3": null, "city": "San Francisco", "zip_code": "94108", "country": "US", "state": "CA", "display_address": ["809 Bush St", "San Francisco, CA 94108"]}, "phone": "+14154848911", "display_phone": "(415) 484-8911", "distance": 3930.8433222931662}, {"id": "TlmEdE6d5oFYQaVq1vjCSQ", "alias": "izanami-south-san-francisco-3", "name": "Izanami", "image_url": "https://s3-media2.fl.yelpcdn.com/bphoto/bpDpNM1pHGwhJqokawxpEg/o.jpg", "is_closed": false, "url": "https://www.yelp.com/biz/izanami-south-san-francisco-3?adjust_creative=Klanz-jboxl2XzqrjP6LLw&utm_campaign=yelp_api_v3&utm_medium=api_v3_business_search&utm_source=Klanz-jboxl2XzqrjP6LLw", "review_count": 410, "categories": [{"alias": "sushi", "title": "Sushi Bars"}, {"alias": "ramen", "title": "Ramen"}], "rating": 3.5, "coordinates": {"latitude": 37.6549187, "longitude": -122.4098915}, "transactions": ["pickup", "delivery"], "price": "$$", "location": {"address1": "257 Grand Ave", "address2": null, "address3": "", "city": "South San Francisco", "zip_code": "94080", "country": "US", "state": "CA", "display_address": ["257 Grand Ave", "South San Francisco, CA 94080"]}, "phone": "+16506362267", "display_phone": "(650) 636-2267", "distance": 12013.821796898179}, {"id": "Qg212xDjeaClPSI9Rlfh-g", "alias": "restaurant-anzu-san-francisco-7", "name": "Restaurant Anzu", "image_url": "https://s3-media3.fl.yelpcdn.com/bphoto/YBypkYTkBl5XhjIKdSBAPg/o.jpg", "is_closed": false, "url": "https://www.yelp.com/biz/restaurant-anzu-san-francisco-7?adjust_creative=Klanz-jboxl2XzqrjP6LLw&utm_campaign=yelp_api_v3&utm_medium=api_v3_business_search&utm_source=Klanz-jboxl2XzqrjP6LLw", "review_count": 599, "categories": [{"alias": "japanese", "title": "Japanese"}, {"alias": "bars", "title": "Bars"}, {"alias": "newamerican", "title": "American (New)"}], "rating": 3.5, "coordinates": {"latitude": 37.78601, "longitude": -122.409296}, "transactions": ["delivery"], "price": "$$$", "location": {"address1": "222 Mason St", "address2": "", "address3": "", "city": "San Francisco", "zip_code": "94102", "country": "US", "state": "CA", "display_address": ["222 Mason St", "San Francisco, CA 94102"]}, "phone": "+14153941100", "display_phone": "(415) 394-1100", "distance": 3673.0169454641054}, {"id": "7xHM9hJH0INQhRtqUnTx6g", "alias": "pacific-plaza-cafe-san-francisco", "name": "Pacific Plaza Cafe", "image_url": "https://s3-media3.fl.yelpcdn.com/bphoto/pn9zG2-9N_XfTxxTfOhwtw/o.jpg", "is_closed": false, "url": "https://www.yelp.com/biz/pacific-plaza-cafe-san-francisco?adjust_creative=Klanz-jboxl2XzqrjP6LLw&utm_campaign=yelp_api_v3&utm_medium=api_v3_business_search&utm_source=Klanz-jboxl2XzqrjP6LLw", "review_count": 144, "categories": [{"alias": "sandwiches", "title": "Sandwiches"}, {"alias": "breakfast_brunch", "title": "Breakfast & Brunch"}, {"alias": "korean", "title": "Korean"}], "rating": 4.5, "coordinates": {"latitude": 37.7867441, "longitude": -122.4230907}, "transactions": ["delivery"], "price": "$", "location": {"address1": "1338 Franklin St", "address2": "", "address3": "", "city": "San Francisco", "zip_code": "94109", "country": "US", "state": "CA", "display_address": ["1338 Franklin St", "San Francisco, CA 94109"]}, "phone": "+14159288999", "display_phone": "(415) 928-8999", "distance": 3130.759326768291}, {"id": "iMsButW1ZqSssl_a9-UFXA", "alias": "grandehos-kamekyo-san-francisco-3", "name": "Grandehos Kamekyo", "image_url": "https://s3-media2.fl.yelpcdn.com/bphoto/N-ICfng0aOQixUXMMsmAVA/o.jpg", "is_closed": false, "url": "https://www.yelp.com/biz/grandehos-kamekyo-san-francisco-3?adjust_creative=Klanz-jboxl2XzqrjP6LLw&utm_campaign=yelp_api_v3&utm_medium=api_v3_business_search&utm_source=Klanz-jboxl2XzqrjP6LLw", "review_count": 495, "categories": [{"alias": "sushi", "title": "Sushi Bars"}, {"alias": "japanese", "title": "Japanese"}, {"alias": "korean", "title": "Korean"}], "rating": 4.0, "coordinates": {"latitude": 37.806178, "longitude": -122.420695}, "transactions": ["delivery", "pickup"], "price": "$$", "location": {"address1": "2721 Hyde St", "address2": "", "address3": "", "city": "San Francisco", "zip_code": "94109", "country": "US", "state": "CA", "display_address": ["2721 Hyde St", "San Francisco, CA 94109"]}, "phone": "+14156736828", "display_phone": "(415) 673-6828", "distance": 5221.588022437439}, {"id": "KhG-jWIr7-TJj3isz3ZIFQ", "alias": "my-tofu-house-san-francisco", "name": "My Tofu House", "image_url": "https://s3-media1.fl.yelpcdn.com/bphoto/S7JMyrYv3dsBmAqPtbj_qA/o.jpg", "is_closed": false, "url": "https://www.yelp.com/biz/my-tofu-house-san-francisco?adjust_creative=Klanz-jboxl2XzqrjP6LLw&utm_campaign=yelp_api_v3&utm_medium=api_v3_business_search&utm_source=Klanz-jboxl2XzqrjP6LLw", "review_count": 1686, "categories": [{"alias": "korean", "title": "Korean"}], "rating": 4.0, "coordinates": {"latitude": 37.7806563, "longitude": -122.4691286}, "transactions": ["delivery"], "price": "$$", "location": {"address1": "4627 Geary Blvd", "address2": "", "address3": "", "city": "San Francisco", "zip_code": "94118", "country": "US", "state": "CA", "display_address": ["4627 Geary Blvd", "San Francisco, CA 94118"]}, "phone": "+14157501818", "display_phone": "(415) 750-1818", "distance": 3616.331071494143}, {"id": "ZDvIMjJ-7I0561ckM4pAeA", "alias": "anchor-oyster-bar-san-francisco", "name": "Anchor Oyster Bar", "image_url": "https://s3-media3.fl.yelpcdn.com/bphoto/oKLPo1042ojJJC9OcCzAMw/o.jpg", "is_closed": false, "url": "https://www.yelp.com/biz/anchor-oyster-bar-san-francisco?adjust_creative=Klanz-jboxl2XzqrjP6LLw&utm_campaign=yelp_api_v3&utm_medium=api_v3_business_search&utm_source=Klanz-jboxl2XzqrjP6LLw", "review_count": 1562, "categories": [{"alias": "seafood", "title": "Seafood"}], "rating": 4.5, "coordinates": {"latitude": 37.759701649632525, "longitude": -122.43476121686464}, "transactions": ["pickup", "delivery"], "price": "$$", "location": {"address1": "579 Castro St", "address2": "", "address3": "", "city": "San Francisco", "zip_code": "94114", "country": "US", "state": "CA", "display_address": ["579 Castro St", "San Francisco, CA 94114"]}, "phone": "+14154313990", "display_phone": "(415) 431-3990", "distance": 199.25583602593704}, {"id": "m0ip9nECwVVjfjulwrKisQ", "alias": "15-romolo-san-francisco", "name": "15 Romolo", "image_url": "https://s3-media1.fl.yelpcdn.com/bphoto/aUvJW-733X-1CsFpb8VA_w/o.jpg", "is_closed": false, "url": "https://www.yelp.com/biz/15-romolo-san-francisco?adjust_creative=Klanz-jboxl2XzqrjP6LLw&utm_campaign=yelp_api_v3&utm_medium=api_v3_business_search&utm_source=Klanz-jboxl2XzqrjP6LLw", "review_count": 1076, "categories": [{"alias": "tapasmallplates", "title": "Tapas/Small Plates"}, {"alias": "cocktailbars", "title": "Cocktail Bars"}], "rating": 4.0, "coordinates": {"latitude": 37.798247282930475, "longitude": -122.40636704800524}, "transactions": ["delivery"], "price": "$$", "location": {"address1": "15 Romolo Pl", "address2": "", "address3": "", "city": "San Francisco", "zip_code": "94133", "country": "US", "state": "CA", "display_address": ["15 Romolo Pl", "San Francisco, CA 94133"]}, "phone": "+14153981359", "display_phone": "(415) 398-1359", "distance": 4922.919788692605}, {"id": "5ZZeBf0SohPwM2EtRf7kpg", "alias": "izumi-kaiten-sushi-san-francisco", "name": "Izumi Kaiten Sushi", "image_url": "https://s3-media1.fl.yelpcdn.com/bphoto/-sXzolTCuOd_u3EQLLvLPw/o.jpg", "is_closed": false, "url": "https://www.yelp.com/biz/izumi-kaiten-sushi-san-francisco?adjust_creative=Klanz-jboxl2XzqrjP6LLw&utm_campaign=yelp_api_v3&utm_medium=api_v3_business_search&utm_source=Klanz-jboxl2XzqrjP6LLw", "review_count": 149, "categories": [{"alias": "conveyorsushi", "title": "Conveyor Belt Sushi"}], "rating": 3.5, "coordinates": {"latitude": 37.785401815385164, "longitude": -122.43029751899604}, "transactions": ["pickup", "delivery"], "price": "$$", "location": {"address1": "1737 Post St", "address2": null, "address3": null, "city": "San Francisco", "zip_code": "94115", "country": "US", "state": "CA", "display_address": ["1737 Post St", "San Francisco, CA 94115"]}, "phone": "+14158729545", "display_phone": "(415) 872-9545", "distance": 2777.639569717166}, {"id": "ZX5XUU9z1nmoUyiuPtjSLg", "alias": "tawans-thai-food-san-francisco", "name": "Tawan's Thai Food", "image_url": "https://s3-media2.fl.yelpcdn.com/bphoto/kSghN49Do9qdJTXgDBMy3g/o.jpg", "is_closed": false, "url": "https://www.yelp.com/biz/tawans-thai-food-san-francisco?adjust_creative=Klanz-jboxl2XzqrjP6LLw&utm_campaign=yelp_api_v3&utm_medium=api_v3_business_search&utm_source=Klanz-jboxl2XzqrjP6LLw", "review_count": 407, "categories": [{"alias": "thai", "title": "Thai"}], "rating": 4.0, "coordinates": {"latitude": 37.7806, "longitude": -122.46658}, "transactions": ["pickup", "delivery"], "price": "$$", "location": {"address1": "4403 Geary Blvd", "address2": "", "address3": "", "city": "San Francisco", "zip_code": "94118", "country": "US", "state": "CA", "display_address": ["4403 Geary Blvd", "San Francisco, CA 94118"]}, "phone": "+14157515175", "display_phone": "(415) 751-5175", "distance": 3437.197909646417}, {"id": "ygJ1-bjAg3hI95N9zX9oqQ", "alias": "food-emporium-san-francisco", "name": "Food Emporium", "image_url": "https://s3-media1.fl.yelpcdn.com/bphoto/r-C3eAKV3mfWCZfx2CJkuw/o.jpg", "is_closed": false, "url": "https://www.yelp.com/biz/food-emporium-san-francisco?adjust_creative=Klanz-jboxl2XzqrjP6LLw&utm_campaign=yelp_api_v3&utm_medium=api_v3_business_search&utm_source=Klanz-jboxl2XzqrjP6LLw", "review_count": 303, "categories": [{"alias": "food_court", "title": "Food Court"}], "rating": 4.0, "coordinates": {"latitude": 37.783973, "longitude": -122.40717}, "transactions": [], "price": "$$", "location": {"address1": "865 Market St", "address2": "", "address3": "", "city": "San Francisco", "zip_code": "94103", "country": "US", "state": "CA", "display_address": ["865 Market St", "San Francisco, CA 94103"]}, "phone": "+14155126776", "display_phone": "(415) 512-6776", "distance": 3633.789000466373}, {"id": "saMhj8Co8zxIVGHHmKftqg", "alias": "panda-express-san-francisco-4", "name": "Panda Express", "image_url": "https://s3-media1.fl.yelpcdn.com/bphoto/o4xoxquKvFNmpQUUmIvF3w/o.jpg", "is_closed": false, "url": "https://www.yelp.com/biz/panda-express-san-francisco-4?adjust_creative=Klanz-jboxl2XzqrjP6LLw&utm_campaign=yelp_api_v3&utm_medium=api_v3_business_search&utm_source=Klanz-jboxl2XzqrjP6LLw", "review_count": 150, "categories": [{"alias": "chinese", "title": "Chinese"}, {"alias": "hotdogs", "title": "Fast Food"}], "rating": 2.5, "coordinates": {"latitude": 37.7830439060926, "longitude": -122.432602867484}, "transactions": ["pickup", "delivery"], "price": "$", "location": {"address1": "1480 Fillmore St.", "address2": "", "address3": "", "city": "San Francisco", "zip_code": "94115", "country": "US", "state": "CA", "display_address": ["1480 Fillmore St.", "San Francisco, CA 94115"]}, "phone": "+14152929993", "display_phone": "(415) 292-9993", "distance": 2499.947661701448}, {"id": "KkAVX3Wb7E3lP5F_f_8pXg", "alias": "liholiho-yacht-club-san-francisco-2", "name": "Liholiho Yacht Club", "image_url": "https://s3-media1.fl.yelpcdn.com/bphoto/DluAA2YbM8k6qRM_mwbiNw/o.jpg", "is_closed": false, "url": "https://www.yelp.com/biz/liholiho-yacht-club-san-francisco-2?adjust_creative=Klanz-jboxl2XzqrjP6LLw&utm_campaign=yelp_api_v3&utm_medium=api_v3_business_search&utm_source=Klanz-jboxl2XzqrjP6LLw", "review_count": 2507, "categories": [{"alias": "bars", "title": "Bars"}, {"alias": "newamerican", "title": "American (New)"}, {"alias": "seafood", "title": "Seafood"}], "rating": 4.5, "coordinates": {"latitude": 37.7882427074202, "longitude": -122.41460979599208}, "transactions": ["delivery"], "price": "$$$", "location": {"address1": "871 Sutter St", "address2": null, "address3": "", "city": "San Francisco", "zip_code": "94109", "country": "US", "state": "CA", "display_address": ["871 Sutter St", "San Francisco, CA 94109"]}, "phone": "+14154405446", "display_phone": "(415) 440-5446", "distance": 3595.554401991817}, {"id": "6UBR0qGpkOXaFAybTYl0eg", "alias": "yakiniku-shodai-san-francisco", "name": "Yakiniku Shodai", "image_url": "https://s3-media4.fl.yelpcdn.com/bphoto/Y1oZ2V4dR28WoraZ6-ITtg/o.jpg", "is_closed": false, "url": "https://www.yelp.com/biz/yakiniku-shodai-san-francisco?adjust_creative=Klanz-jboxl2XzqrjP6LLw&utm_campaign=yelp_api_v3&utm_medium=api_v3_business_search&utm_source=Klanz-jboxl2XzqrjP6LLw", "review_count": 3, "categories": [{"alias": "japanese", "title": "Japanese"}, {"alias": "bbq", "title": "Barbeque"}], "rating": 3.5, "coordinates": {"latitude": 37.77622440524734, "longitude": -122.41823863238096}, "transactions": [], "location": {"address1": "1420 Market St", "address2": "", "address3": null, "city": "San Francisco", "zip_code": "94102", "country": "US", "state": "CA", "display_address": ["1420 Market St", "San Francisco, CA 94102"]}, "phone": "+14157570201", "display_phone": "(415) 757-0201", "distance": 2337.826160207502}, {"id": "1MgaMxXgO5RQv7uP59pOvA", "alias": "common-sage-san-francisco-3", "name": "Common Sage", "image_url": "https://s3-media4.fl.yelpcdn.com/bphoto/-SRZ0jvn6SFluW2VedbKBQ/o.jpg", "is_closed": false, "url": "https://www.yelp.com/biz/common-sage-san-francisco-3?adjust_creative=Klanz-jboxl2XzqrjP6LLw&utm_campaign=yelp_api_v3&utm_medium=api_v3_business_search&utm_source=Klanz-jboxl2XzqrjP6LLw", "review_count": 242, "categories": [{"alias": "beer_and_wine", "title": "Beer, Wine & Spirits"}, {"alias": "ramen", "title": "Ramen"}, {"alias": "cafes", "title": "Cafes"}], "rating": 4.0, "coordinates": {"latitude": 37.7913965249709, "longitude": -122.420708946884}, "transactions": ["pickup", "delivery"], "price": "$$", "location": {"address1": "1552 Polk St", "address2": "", "address3": "", "city": "San Francisco", "zip_code": "94109", "country": "US", "state": "CA", "display_address": ["1552 Polk St", "San Francisco, CA 94109"]}, "phone": "+14155807178", "display_phone": "(415) 580-7178", "distance": 3662.3787732773812}, {"id": "8ed5eduh4zdLGn_y4cCLWA", "alias": "you-see-sushi-san-francisco", "name": "You See Sushi", "image_url": "https://s3-media1.fl.yelpcdn.com/bphoto/7130kRyzAummRB4QCKxwwA/o.jpg", "is_closed": false, "url": "https://www.yelp.com/biz/you-see-sushi-san-francisco?adjust_creative=Klanz-jboxl2XzqrjP6LLw&utm_campaign=yelp_api_v3&utm_medium=api_v3_business_search&utm_source=Klanz-jboxl2XzqrjP6LLw", "review_count": 318, "categories": [{"alias": "japanese", "title": "Japanese"}, {"alias": "sushi", "title": "Sushi Bars"}], "rating": 3.5, "coordinates": {"latitude": 37.76249, "longitude": -122.462642}, "transactions": ["delivery"], "price": "$$", "location": {"address1": "94 Judah St", "address2": "", "address3": "", "city": "San Francisco", "zip_code": "94122", "country": "US", "state": "CA", "display_address": ["94 Judah St", "San Francisco, CA 94122"]}, "phone": "+14156814010", "display_phone": "(415) 681-4010", "distance": 2309.485217064769}, {"id": "KRcMsXmeILmC8OXmcXOQgA", "alias": "picaro-san-francisco", "name": "Picaro", "image_url": "https://s3-media4.fl.yelpcdn.com/bphoto/EORFcsjf-ABSH5MQxawzew/o.jpg", "is_closed": false, "url": "https://www.yelp.com/biz/picaro-san-francisco?adjust_creative=Klanz-jboxl2XzqrjP6LLw&utm_campaign=yelp_api_v3&utm_medium=api_v3_business_search&utm_source=Klanz-jboxl2XzqrjP6LLw", "review_count": 1718, "categories": [{"alias": "spanish", "title": "Spanish"}, {"alias": "basque", "title": "Basque"}, {"alias": "tapas", "title": "Tapas Bars"}], "rating": 4.0, "coordinates": {"latitude": 37.765051, "longitude": -122.42246}, "transactions": ["pickup", "restaurant_reservation", "delivery"], "price": "$$", "location": {"address1": "3120 16th St", "address2": "", "address3": "", "city": "San Francisco", "zip_code": "94103", "country": "US", "state": "CA", "display_address": ["3120 16th St", "San Francisco, CA 94103"]}, "phone": "+14154314089", "display_phone": "(415) 431-4089", "distance": 1309.3084983212734}, {"id": "OgTQEP1iWn7BEEKdjpT0sA", "alias": "heavenly-cafe-san-francisco-3", "name": "Heavenly Cafe", "image_url": "https://s3-media2.fl.yelpcdn.com/bphoto/qf1EXX_xCIjE4R_f1XqL1Q/o.jpg", "is_closed": false, "url": "https://www.yelp.com/biz/heavenly-cafe-san-francisco-3?adjust_creative=Klanz-jboxl2XzqrjP6LLw&utm_campaign=yelp_api_v3&utm_medium=api_v3_business_search&utm_source=Klanz-jboxl2XzqrjP6LLw", "review_count": 64, "categories": [{"alias": "japanese", "title": "Japanese"}, {"alias": "korean", "title": "Korean"}, {"alias": "burgers", "title": "Burgers"}], "rating": 4.0, "coordinates": {"latitude": 37.74366, "longitude": -122.43993}, "transactions": ["pickup", "delivery"], "price": "$$", "location": {"address1": "5214 Diamond Heights Blvd", "address2": "", "address3": null, "city": "San Francisco", "zip_code": "94131", "country": "US", "state": "CA", "display_address": ["5214 Diamond Heights Blvd", "San Francisco, CA 94131"]}, "phone": "+14156587175", "display_phone": "(415) 658-7175", "distance": 1937.4890808930272}, {"id": "jON2lBVp77IT5l5AcCMjqw", "alias": "asian-box-san-francisco-4", "name": "Asian Box", "image_url": "https://s3-media1.fl.yelpcdn.com/bphoto/kE4mf4LSHMKL_4VsYywvmw/o.jpg", "is_closed": false, "url": "https://www.yelp.com/biz/asian-box-san-francisco-4?adjust_creative=Klanz-jboxl2XzqrjP6LLw&utm_campaign=yelp_api_v3&utm_medium=api_v3_business_search&utm_source=Klanz-jboxl2XzqrjP6LLw", "review_count": 233, "categories": [{"alias": "asianfusion", "title": "Asian Fusion"}], "rating": 4.5, "coordinates": {"latitude": 37.8005669, "longitude": -122.436793}, "transactions": ["pickup", "delivery"], "price": "$$", "location": {"address1": "2031 Chestnut St", "address2": "", "address3": null, "city": "San Francisco", "zip_code": "94123", "country": "US", "state": "CA", "display_address": ["2031 Chestnut St", "San Francisco, CA 94123"]}, "phone": "+14152883688", "display_phone": "(415) 288-3688", "distance": 4410.925725543849}, {"id": "d4IcZGC-gvms4f45oXor8A", "alias": "ramenwell-san-francisco-5", "name": "Ramenwell", "image_url": "https://s3-media1.fl.yelpcdn.com/bphoto/oNTSkYNL2FHmfXRaAxZ1zA/o.jpg", "is_closed": false, "url": "https://www.yelp.com/biz/ramenwell-san-francisco-5?adjust_creative=Klanz-jboxl2XzqrjP6LLw&utm_campaign=yelp_api_v3&utm_medium=api_v3_business_search&utm_source=Klanz-jboxl2XzqrjP6LLw", "review_count": 247, "categories": [{"alias": "ramen", "title": "Ramen"}, {"alias": "izakaya", "title": "Izakaya"}, {"alias": "hawaiian", "title": "Hawaiian"}], "rating": 4.5, "coordinates": {"latitude": 37.7619720328061, "longitude": -122.418856810102}, "transactions": ["pickup", "delivery"], "price": "$$", "location": {"address1": "3378 18th St", "address2": "", "address3": null, "city": "San Francisco", "zip_code": "94110", "country": "US", "state": "CA", "display_address": ["3378 18th St", "San Francisco, CA 94110"]}, "phone": "+14155897680", "display_phone": "(415) 589-7680", "distance": 1550.9062520020198}, {"id": "gn5poUrTw5grzKhwNy_3pg", "alias": "kushi-tsuru-san-francisco", "name": "Kushi Tsuru", "image_url": "https://s3-media4.fl.yelpcdn.com/bphoto/KEA6PjqnL19_LNJJ0d7e4g/o.jpg", "is_closed": false, "url": "https://www.yelp.com/biz/kushi-tsuru-san-francisco?adjust_creative=Klanz-jboxl2XzqrjP6LLw&utm_campaign=yelp_api_v3&utm_medium=api_v3_business_search&utm_source=Klanz-jboxl2XzqrjP6LLw", "review_count": 637, "categories": [{"alias": "japanese", "title": "Japanese"}], "rating": 3.0, "coordinates": {"latitude": 37.7851214006584, "longitude": -122.430713846696}, "transactions": ["pickup", "delivery"], "price": "$$", "location": {"address1": "1737 Post St", "address2": "Ste 380", "address3": "", "city": "San Francisco", "zip_code": "94115", "country": "US", "state": "CA", "display_address": ["1737 Post St", "Ste 380", "San Francisco, CA 94115"]}, "phone": "+14159229902", "display_phone": "(415) 922-9902", "distance": 2740.096848508757}, {"id": "JoONsDVCGLG71SaR51jwSA", "alias": "spiral-japanese-cuisine-daly-city", "name": "Spiral Japanese Cuisine", "image_url": "https://s3-media2.fl.yelpcdn.com/bphoto/ydt4FsiUvhHipkl5JqO8KQ/o.jpg", "is_closed": false, "url": "https://www.yelp.com/biz/spiral-japanese-cuisine-daly-city?adjust_creative=Klanz-jboxl2XzqrjP6LLw&utm_campaign=yelp_api_v3&utm_medium=api_v3_business_search&utm_source=Klanz-jboxl2XzqrjP6LLw", "review_count": 706, "categories": [{"alias": "sushi", "title": "Sushi Bars"}, {"alias": "ramen", "title": "Ramen"}, {"alias": "noodles", "title": "Noodles"}], "rating": 3.0, "coordinates": {"latitude": 37.6995409, "longitude": -122.4823033}, "transactions": ["delivery", "pickup"], "price": "$$", "location": {"address1": "515 Westlake Ctr", "address2": "", "address3": "", "city": "Daly City", "zip_code": "94015", "country": "US", "state": "CA", "display_address": ["515 Westlake Ctr", "Daly City, CA 94015"]}, "phone": "+16507582083", "display_phone": "(650) 758-2083", "distance": 7946.3791611705365}, {"id": "mnpBIXtI8f1_My6v7sXfYA", "alias": "mas-dimsum-and-cafe-san-francisco", "name": "Ma's Dimsum & Cafe", "image_url": "https://s3-media2.fl.yelpcdn.com/bphoto/KQ0877j0nk9a4VarmcPyFQ/o.jpg", "is_closed": false, "url": "https://www.yelp.com/biz/mas-dimsum-and-cafe-san-francisco?adjust_creative=Klanz-jboxl2XzqrjP6LLw&utm_campaign=yelp_api_v3&utm_medium=api_v3_business_search&utm_source=Klanz-jboxl2XzqrjP6LLw", "review_count": 67, "categories": [{"alias": "dimsum", "title": "Dim Sum"}], "rating": 4.0, "coordinates": {"latitude": 37.79665, "longitude": -122.4103}, "transactions": ["delivery"], "price": "$", "location": {"address1": "1315 Powell St", "address2": "", "address3": "", "city": "San Francisco", "zip_code": "94133", "country": "US", "state": "CA", "display_address": ["1315 Powell St", "San Francisco, CA 94133"]}, "phone": "+14157883532", "display_phone": "(415) 788-3532", "distance": 4593.025179982995}, {"id": "3cLA9tLm7zCfEpeRTAeVmw", "alias": "yoji-sushi-house-san-francisco-3", "name": "Yoji Sushi House", "image_url": "https://s3-media4.fl.yelpcdn.com/bphoto/n15Rson92bCHqvnDA2D4rA/o.jpg", "is_closed": false, "url": "https://www.yelp.com/biz/yoji-sushi-house-san-francisco-3?adjust_creative=Klanz-jboxl2XzqrjP6LLw&utm_campaign=yelp_api_v3&utm_medium=api_v3_business_search&utm_source=Klanz-jboxl2XzqrjP6LLw", "review_count": 320, "categories": [{"alias": "sushi", "title": "Sushi Bars"}, {"alias": "japanese", "title": "Japanese"}], "rating": 4.0, "coordinates": {"latitude": 37.74738, "longitude": -122.45952}, "transactions": ["pickup", "delivery"], "price": "$$", "location": {"address1": "406 Dewey Blvd", "address2": "", "address3": "", "city": "San Francisco", "zip_code": "94116", "country": "US", "state": "CA", "display_address": ["406 Dewey Blvd", "San Francisco, CA 94116"]}, "phone": "+14156810128", "display_phone": "(415) 681-0128", "distance": 2526.924354290505}, {"id": "eZzbySjPllBSU7LLDhvMoQ", "alias": "shogun-japanese-sushi-and-grill-oakland-3", "name": "Shogun Japanese Sushi & Grill", "image_url": "https://s3-media2.fl.yelpcdn.com/bphoto/N70wtDOr0BqEtZvtI83Phg/o.jpg", "is_closed": false, "url": "https://www.yelp.com/biz/shogun-japanese-sushi-and-grill-oakland-3?adjust_creative=Klanz-jboxl2XzqrjP6LLw&utm_campaign=yelp_api_v3&utm_medium=api_v3_business_search&utm_source=Klanz-jboxl2XzqrjP6LLw", "review_count": 436, "categories": [{"alias": "japanese", "title": "Japanese"}], "rating": 4.0, "coordinates": {"latitude": 37.8141354, "longitude": -122.2465529}, "transactions": ["delivery", "pickup"], "price": "$$", "location": {"address1": "3417 Grand Ave", "address2": "", "address3": "", "city": "Oakland", "zip_code": "94610", "country": "US", "state": "CA", "display_address": ["3417 Grand Ave", "Oakland, CA 94610"]}, "phone": "+15104998639", "display_phone": "(510) 499-8639", "distance": 17705.98325922905}, {"id": "oXjd7i1LAgeAWcMup0N1zg", "alias": "aburaya-japanese-fried-chicken-oakland-2", "name": "Aburaya Japanese Fried Chicken", "image_url": "https://s3-media4.fl.yelpcdn.com/bphoto/Wi8T9wybSihGmtOpv-YpHg/o.jpg", "is_closed": false, "url": "https://www.yelp.com/biz/aburaya-japanese-fried-chicken-oakland-2?adjust_creative=Klanz-jboxl2XzqrjP6LLw&utm_campaign=yelp_api_v3&utm_medium=api_v3_business_search&utm_source=Klanz-jboxl2XzqrjP6LLw", "review_count": 823, "categories": [{"alias": "izakaya", "title": "Izakaya"}], "rating": 4.0, "coordinates": {"latitude": 37.8059903, "longitude": -122.2676427}, "transactions": ["pickup", "delivery"], "price": "$$", "location": {"address1": "362 17th St", "address2": null, "address3": "", "city": "Oakland", "zip_code": "94612", "country": "US", "state": "CA", "display_address": ["362 17th St", "Oakland, CA 94612"]}, "phone": "+15105027743", "display_phone": "(510) 502-7743", "distance": 15663.342021742701}, {"id": "-6ePmBxodXoJ20lYJiFbeg", "alias": "yokohama-japanese-restaurant-alameda", "name": "Yokohama Japanese Restaurant", "image_url": "https://s3-media1.fl.yelpcdn.com/bphoto/ybOXu84DMHw2sgh4s0gJvA/o.jpg", "is_closed": false, "url": "https://www.yelp.com/biz/yokohama-japanese-restaurant-alameda?adjust_creative=Klanz-jboxl2XzqrjP6LLw&utm_campaign=yelp_api_v3&utm_medium=api_v3_business_search&utm_source=Klanz-jboxl2XzqrjP6LLw", "review_count": 262, "categories": [{"alias": "japanese", "title": "Japanese"}, {"alias": "sushi", "title": "Sushi Bars"}, {"alias": "desserts", "title": "Desserts"}], "rating": 4.0, "coordinates": {"latitude": 37.77218, "longitude": -122.277}, "transactions": ["delivery"], "price": "$$", "location": {"address1": "1427 Webster St", "address2": "", "address3": "", "city": "Alameda", "zip_code": "94501", "country": "US", "state": "CA", "display_address": ["1427 Webster St", "Alameda, CA 94501"]}, "phone": "+15105222945", "display_phone": "(510) 522-2945", "distance": 14066.253644371136}, {"id": "ZiTRspDPY9T_kh4tQDwDMQ", "alias": "pacific-cafe-san-francisco", "name": "Pacific Cafe", "image_url": "https://s3-media2.fl.yelpcdn.com/bphoto/1cXnFvCcvZ3SOPqeXxjmLQ/o.jpg", "is_closed": false, "url": "https://www.yelp.com/biz/pacific-cafe-san-francisco?adjust_creative=Klanz-jboxl2XzqrjP6LLw&utm_campaign=yelp_api_v3&utm_medium=api_v3_business_search&utm_source=Klanz-jboxl2XzqrjP6LLw", "review_count": 772, "categories": [{"alias": "seafood", "title": "Seafood"}], "rating": 4.0, "coordinates": {"latitude": 37.77994, "longitude": -122.49457}, "transactions": ["delivery"], "price": "$$", "location": {"address1": "7000 Geary Blvd", "address2": "", "address3": "", "city": "San Francisco", "zip_code": "94121", "country": "US", "state": "CA", "display_address": ["7000 Geary Blvd", "San Francisco, CA 94121"]}, "phone": "+14153877091", "display_phone": "(415) 387-7091", "distance": 5527.200004505452}, {"id": "Di4kb-1tnjP5OKFuV8qbUA", "alias": "cordon-bleu-san-francisco", "name": "Cordon Bleu", "image_url": "https://s3-media4.fl.yelpcdn.com/bphoto/Ltb4mT3eSOvKwKQ9Cc4vVw/o.jpg", "is_closed": false, "url": "https://www.yelp.com/biz/cordon-bleu-san-francisco?adjust_creative=Klanz-jboxl2XzqrjP6LLw&utm_campaign=yelp_api_v3&utm_medium=api_v3_business_search&utm_source=Klanz-jboxl2XzqrjP6LLw", "review_count": 1091, "categories": [{"alias": "vietnamese", "title": "Vietnamese"}, {"alias": "kebab", "title": "Kebab"}, {"alias": "hotdogs", "title": "Fast Food"}], "rating": 4.0, "coordinates": {"latitude": 37.7907203, "longitude": -122.4205111}, "transactions": ["delivery"], "price": "$$", "location": {"address1": "1574 California St", "address2": "", "address3": "", "city": "San Francisco", "zip_code": "94109", "country": "US", "state": "CA", "display_address": ["1574 California St", "San Francisco, CA 94109"]}, "phone": "+14156735637", "display_phone": "(415) 673-5637", "distance": 3632.9429926984826}, {"id": "9e2UrZrwbWsTyN3hWyS6Ig", "alias": "monsieur-benjamin-san-francisco", "name": "Monsieur Benjamin", "image_url": "https://s3-media4.fl.yelpcdn.com/bphoto/PPjVA55yqgwrx8e8uFuP2Q/o.jpg", "is_closed": false, "url": "https://www.yelp.com/biz/monsieur-benjamin-san-francisco?adjust_creative=Klanz-jboxl2XzqrjP6LLw&utm_campaign=yelp_api_v3&utm_medium=api_v3_business_search&utm_source=Klanz-jboxl2XzqrjP6LLw", "review_count": 1002, "categories": [{"alias": "french", "title": "French"}, {"alias": "bars", "title": "Bars"}, {"alias": "seafood", "title": "Seafood"}], "rating": 4.0, "coordinates": {"latitude": 37.777526602149, "longitude": -122.423157468438}, "transactions": ["delivery"], "price": "$$$", "location": {"address1": "451 Gough St", "address2": "", "address3": "", "city": "San Francisco", "zip_code": "94102", "country": "US", "state": "CA", "display_address": ["451 Gough St", "San Francisco, CA 94102"]}, "phone": "+14154032233", "display_phone": "(415) 403-2233", "distance": 2175.1366164344126}, {"id": "XYwR6R46p8KX3Pd9rzGWTA", "alias": "seafood-peddler-sausalito", "name": "Seafood Peddler", "image_url": "https://s3-media1.fl.yelpcdn.com/bphoto/0M4JM7DIpqN95X1Jd6tTGA/o.jpg", "is_closed": false, "url": "https://www.yelp.com/biz/seafood-peddler-sausalito?adjust_creative=Klanz-jboxl2XzqrjP6LLw&utm_campaign=yelp_api_v3&utm_medium=api_v3_business_search&utm_source=Klanz-jboxl2XzqrjP6LLw", "review_count": 571, "categories": [{"alias": "seafood", "title": "Seafood"}, {"alias": "newamerican", "title": "American (New)"}, {"alias": "italian", "title": "Italian"}], "rating": 3.5, "coordinates": {"latitude": 37.858948, "longitude": -122.483399}, "transactions": ["pickup", "delivery"], "price": "$$", "location": {"address1": "303 Johnson St", "address2": "", "address3": "", "city": "Sausalito", "zip_code": "94965", "country": "US", "state": "CA", "display_address": ["303 Johnson St", "Sausalito, CA 94965"]}, "phone": "+14153321492", "display_phone": "(415) 332-1492", "distance": 11656.648932529244}, {"id": "mYFhd8bVCpsdJFRh2tQeEw", "alias": "camp-bbq-san-francisco", "name": "Camp BBQ", "image_url": "https://s3-media2.fl.yelpcdn.com/bphoto/yVAbUuE0BqqPJ8WwgY7ouQ/o.jpg", "is_closed": false, "url": "https://www.yelp.com/biz/camp-bbq-san-francisco?adjust_creative=Klanz-jboxl2XzqrjP6LLw&utm_campaign=yelp_api_v3&utm_medium=api_v3_business_search&utm_source=Klanz-jboxl2XzqrjP6LLw", "review_count": 243, "categories": [{"alias": "japanese", "title": "Japanese"}, {"alias": "asianfusion", "title": "Asian Fusion"}, {"alias": "bbq", "title": "Barbeque"}], "rating": 4.0, "coordinates": {"latitude": 37.7814, "longitude": -122.46252}, "transactions": ["delivery"], "price": "$$", "location": {"address1": "4014 Geary Blvd", "address2": null, "address3": "", "city": "San Francisco", "zip_code": "94118", "country": "US", "state": "CA", "display_address": ["4014 Geary Blvd", "San Francisco, CA 94118"]}, "phone": "+14153871378", "display_phone": "(415) 387-1378", "distance": 3231.959783585555}], "total": 1600, "region": {"center": {"longitude": -122.43644714355469, "latitude": 37.76089938976322}}}