{"businesses": [{"id": "_KtkAiwyxHbkn9O6yEMvjA", "alias": "bun-mee-san-francisco", "name": "Bun Mee", "image_url": "https://s3-media3.fl.yelpcdn.com/bphoto/41KVjux7sAL7JM2lrTiV3g/o.jpg", "is_closed": false, "url": "https://www.yelp.com/biz/bun-mee-san-francisco?adjust_creative=Klanz-jboxl2XzqrjP6LLw&utm_campaign=yelp_api_v3&utm_medium=api_v3_business_search&utm_source=Klanz-jboxl2XzqrjP6LLw", "review_count": 940, "categories": [{"alias": "vietnamese", "title": "Vietnamese"}, {"alias": "sandwiches", "title": "Sandwiches"}], "rating": 3.5, "coordinates": {"latitude": 37.788177, "longitude": -122.433951}, "transactions": ["pickup", "delivery"], "price": "$$", "location": {"address1": "2015 Fillmore St", "address2": "", "address3": "", "city": "San Francisco", "zip_code": "94115", "country": "US", "state": "CA", "display_address": ["2015 Fillmore St", "San Francisco, CA 94115"]}, "phone": "+14158007696", "display_phone": "(415) 800-7696", "distance": 3041.0525006814823}, {"id": "UjeOgcv831QTChTP04-Uag", "alias": "marios-bohemian-cigar-store-cafe-san-francisco", "name": "Mario's Bohemian Cigar Store Cafe", "image_url": "https://s3-media2.fl.yelpcdn.com/bphoto/yecSCx7esqQn-kyq8Nl4sQ/o.jpg", "is_closed": false, "url": "https://www.yelp.com/biz/marios-bohemian-cigar-store-cafe-san-francisco?adjust_creative=Klanz-jboxl2XzqrjP6LLw&utm_campaign=yelp_api_v3&utm_medium=api_v3_business_search&utm_source=Klanz-jboxl2XzqrjP6LLw", "review_count": 616, "categories": [{"alias": "italian", "title": "Italian"}, {"alias": "bars", "title": "Bars"}], "rating": 4.0, "coordinates": {"latitude": 37.80021, "longitude": -122.40979}, "transactions": ["pickup", "delivery"], "price": "$$", "location": {"address1": "566 Columbus Ave", "address2": "", "address3": "", "city": "San Francisco", "zip_code": "94133", "country": "US", "state": "CA", "display_address": ["566 Columbus Ave", "San Francisco, CA 94133"]}, "phone": "+14153620536", "display_phone": "(415) 362-0536", "distance": 4963.675018970815}, {"id": "kkjixtFkj3RHgcEhgoPl4g", "alias": "zut-on-fourth-berkeley-2", "name": "Zut On Fourth", "image_url": "https://s3-media1.fl.yelpcdn.com/bphoto/BLZM5647HfA09W9oRLiihw/o.jpg", "is_closed": false, "url": "https://www.yelp.com/biz/zut-on-fourth-berkeley-2?adjust_creative=Klanz-jboxl2XzqrjP6LLw&utm_campaign=yelp_api_v3&utm_medium=api_v3_business_search&utm_source=Klanz-jboxl2XzqrjP6LLw", "review_count": 321, "categories": [{"alias": "mediterranean", "title": "Mediterranean"}], "rating": 3.5, "coordinates": {"latitude": 37.8696899, "longitude": -122.3007202}, "transactions": [], "price": "$$", "location": {"address1": "1820 4th St", "address2": "", "address3": "", "city": "Berkeley", "zip_code": "94710", "country": "US", "state": "CA", "display_address": ["1820 4th St", "Berkeley, CA 94710"]}, "phone": "+15106440444", "display_phone": "(510) 644-0444", "distance": 16987.790786977228}, {"id": "_wwK7GNlzZFoZNyQRygu_w", "alias": "lucca-food-deli-and-wine-shop-san-francisco", "name": "Lucca Food Deli & Wine Shop", "image_url": "https://s3-media2.fl.yelpcdn.com/bphoto/YzRmhCLn59Cut3kWM66AmA/o.jpg", "is_closed": false, "url": "https://www.yelp.com/biz/lucca-food-deli-and-wine-shop-san-francisco?adjust_creative=Klanz-jboxl2XzqrjP6LLw&utm_campaign=yelp_api_v3&utm_medium=api_v3_business_search&utm_source=Klanz-jboxl2XzqrjP6LLw", "review_count": 248, "categories": [{"alias": "beer_and_wine", "title": "Beer, Wine & Spirits"}, {"alias": "delis", "title": "Delis"}, {"alias": "sandwiches", "title": "Sandwiches"}], "rating": 4.0, "coordinates": {"latitude": 37.7633653, "longitude": -122.4782002}, "transactions": ["delivery", "pickup"], "price": "$", "location": {"address1": "1899 Irving St", "address2": "", "address3": "", "city": "San Francisco", "zip_code": "94122", "country": "US", "state": "CA", "display_address": ["1899 Irving St", "San Francisco, CA 94122"]}, "phone": "+14156643870", "display_phone": "(415) 664-3870", "distance": 3666.7623589197833}, {"id": "w-F9xOVAQaiLINR5VWhOfQ", "alias": "duboce-park-cafe-san-francisco", "name": "Duboce Park Cafe", "image_url": "https://s3-media4.fl.yelpcdn.com/bphoto/ENESpz9GE5kTFy2-YIT5UA/o.jpg", "is_closed": false, "url": "https://www.yelp.com/biz/duboce-park-cafe-san-francisco?adjust_creative=Klanz-jboxl2XzqrjP6LLw&utm_campaign=yelp_api_v3&utm_medium=api_v3_business_search&utm_source=Klanz-jboxl2XzqrjP6LLw", "review_count": 507, "categories": [{"alias": "coffee", "title": "Coffee & Tea"}, {"alias": "sandwiches", "title": "Sandwiches"}, {"alias": "breakfast_brunch", "title": "Breakfast & Brunch"}], "rating": 3.5, "coordinates": {"latitude": 37.76921727055019, "longitude": -122.4315338931033}, "transactions": ["pickup", "delivery"], "price": "$$", "location": {"address1": "2 Sanchez St", "address2": null, "address3": "", "city": "San Francisco", "zip_code": "94114", "country": "US", "state": "CA", "display_address": ["2 Sanchez St", "San Francisco, CA 94114"]}, "phone": "+14156211108", "display_phone": "(415) 621-1108", "distance": 1020.772554246446}, {"id": "wpTZ-2NfM09up7RlSYpFPw", "alias": "deli-23-san-francisco-2", "name": "Deli 23", "image_url": "https://s3-media2.fl.yelpcdn.com/bphoto/iCv9W0xyqqV6xcg_l2VolQ/o.jpg", "is_closed": false, "url": "https://www.yelp.com/biz/deli-23-san-francisco-2?adjust_creative=Klanz-jboxl2XzqrjP6LLw&utm_campaign=yelp_api_v3&utm_medium=api_v3_business_search&utm_source=Klanz-jboxl2XzqrjP6LLw", "review_count": 94, "categories": [{"alias": "delis", "title": "Delis"}], "rating": 4.0, "coordinates": {"latitude": 37.75429, "longitude": -122.40416}, "transactions": ["delivery", "pickup"], "price": "$", "location": {"address1": "2449 23rd St", "address2": "", "address3": "", "city": "San Francisco", "zip_code": "94110", "country": "US", "state": "CA", "display_address": ["2449 23rd St", "San Francisco, CA 94110"]}, "phone": "+14156423500", "display_phone": "(415) 642-3500", "distance": 2917.8013116978673}, {"id": "TaAC3o8tXtjAZRhkiK8Weg", "alias": "tap-haus-berkeley", "name": "Tap Haus", "image_url": "https://s3-media3.fl.yelpcdn.com/bphoto/s_izlVdrayipzU9YtEsUqw/o.jpg", "is_closed": false, "url": "https://www.yelp.com/biz/tap-haus-berkeley?adjust_creative=Klanz-jboxl2XzqrjP6LLw&utm_campaign=yelp_api_v3&utm_medium=api_v3_business_search&utm_source=Klanz-jboxl2XzqrjP6LLw", "review_count": 142, "categories": [{"alias": "cocktailbars", "title": "Cocktail Bars"}, {"alias": "beerbar", "title": "Beer Bar"}, {"alias": "sandwiches", "title": "Sandwiches"}], "rating": 3.5, "coordinates": {"latitude": 37.8678736756068, "longitude": -122.258263640106}, "transactions": ["delivery"], "price": "$$", "location": {"address1": "2518 Durant Ave", "address2": "Ste C", "address3": "", "city": "Berkeley", "zip_code": "94704", "country": "US", "state": "CA", "display_address": ["2518 Durant Ave", "Ste C", "Berkeley, CA 94704"]}, "phone": "+15102805000", "display_phone": "(510) 280-5000", "distance": 19659.262153960553}, {"id": "Lq-o2PjfCp87XOOZC-N6Dw", "alias": "goat-hill-pizza-san-francisco-6", "name": "Goat Hill Pizza", "image_url": "https://s3-media2.fl.yelpcdn.com/bphoto/fSWXWBYJMh88b1P3rIaaZg/o.jpg", "is_closed": false, "url": "https://www.yelp.com/biz/goat-hill-pizza-san-francisco-6?adjust_creative=Klanz-jboxl2XzqrjP6LLw&utm_campaign=yelp_api_v3&utm_medium=api_v3_business_search&utm_source=Klanz-jboxl2XzqrjP6LLw", "review_count": 256, "categories": [{"alias": "pizza", "title": "Pizza"}, {"alias": "italian", "title": "Italian"}, {"alias": "sandwiches", "title": "Sandwiches"}], "rating": 3.5, "coordinates": {"latitude": 37.73929, "longitude": -122.46797}, "transactions": ["pickup", "delivery"], "price": "$", "location": {"address1": "170 W Portal Ave", "address2": "", "address3": "", "city": "San Francisco", "zip_code": "94127", "country": "US", "state": "CA", "display_address": ["170 W Portal Ave", "San Francisco, CA 94127"]}, "phone": "+14152424628", "display_phone": "(415) 242-4628", "distance": 3667.8107674966805}, {"id": "MTIqLOBdISaon4G22qb5Lg", "alias": "thorough-bread-and-pastry-san-francisco", "name": "Thorough Bread & Pastry", "image_url": "https://s3-media4.fl.yelpcdn.com/bphoto/Ta4ENSE5w1MsLyqjkpAwcA/o.jpg", "is_closed": false, "url": "https://www.yelp.com/biz/thorough-bread-and-pastry-san-francisco?adjust_creative=Klanz-jboxl2XzqrjP6LLw&utm_campaign=yelp_api_v3&utm_medium=api_v3_business_search&utm_source=Klanz-jboxl2XzqrjP6LLw", "review_count": 893, "categories": [{"alias": "sandwiches", "title": "Sandwiches"}, {"alias": "coffee", "title": "Coffee & Tea"}, {"alias": "cakeshop", "title": "Patisserie/Cake Shop"}], "rating": 4.5, "coordinates": {"latitude": 37.7665123809431, "longitude": -122.429034858942}, "transactions": ["delivery"], "price": "$", "location": {"address1": "248 Church St", "address2": "", "address3": "", "city": "San Francisco", "zip_code": "94114", "country": "US", "state": "CA", "display_address": ["248 Church St", "San Francisco, CA 94114"]}, "phone": "+14155580690", "display_phone": "(415) 558-0690", "distance": 902.2696814780753}, {"id": "Qg212xDjeaClPSI9Rlfh-g", "alias": "restaurant-anzu-san-francisco-7", "name": "Restaurant Anzu", "image_url": "https://s3-media3.fl.yelpcdn.com/bphoto/YBypkYTkBl5XhjIKdSBAPg/o.jpg", "is_closed": false, "url": "https://www.yelp.com/biz/restaurant-anzu-san-francisco-7?adjust_creative=Klanz-jboxl2XzqrjP6LLw&utm_campaign=yelp_api_v3&utm_medium=api_v3_business_search&utm_source=Klanz-jboxl2XzqrjP6LLw", "review_count": 599, "categories": [{"alias": "japanese", "title": "Japanese"}, {"alias": "bars", "title": "Bars"}, {"alias": "newamerican", "title": "American (New)"}], "rating": 3.5, "coordinates": {"latitude": 37.78601, "longitude": -122.409296}, "transactions": ["delivery"], "price": "$$$", "location": {"address1": "222 Mason St", "address2": "", "address3": "", "city": "San Francisco", "zip_code": "94102", "country": "US", "state": "CA", "display_address": ["222 Mason St", "San Francisco, CA 94102"]}, "phone": "+14153941100", "display_phone": "(415) 394-1100", "distance": 3673.0169454641054}, {"id": "jolNy90N8IrYpDWeTmCNVA", "alias": "flatiron-wines-and-spirits-san-francisco-2", "name": "Flatiron Wines & Spirits", "image_url": "https://s3-media1.fl.yelpcdn.com/bphoto/xcNYM8ySkyQe9h71WBvNzQ/o.jpg", "is_closed": false, "url": "https://www.yelp.com/biz/flatiron-wines-and-spirits-san-francisco-2?adjust_creative=Klanz-jboxl2XzqrjP6LLw&utm_campaign=yelp_api_v3&utm_medium=api_v3_business_search&utm_source=Klanz-jboxl2XzqrjP6LLw", "review_count": 79, "categories": [{"alias": "beer_and_wine", "title": "Beer, Wine & Spirits"}, {"alias": "wine_bars", "title": "Wine Bars"}, {"alias": "winetastingroom", "title": "Wine Tasting Room"}], "rating": 4.5, "coordinates": {"latitude": 37.7880811852175, "longitude": -122.401352307271}, "transactions": [], "price": "$$", "location": {"address1": "2 New Montgomery St", "address2": "", "address3": "", "city": "San Francisco", "zip_code": "94105", "country": "US", "state": "CA", "display_address": ["2 New Montgomery St", "San Francisco, CA 94105"]}, "phone": "+14157801405", "display_phone": "(415) 780-1405", "distance": 4318.531801791469}, {"id": "rNlaOtShl_o_2KE7x8DJzw", "alias": "town-tavern-alameda-2", "name": "Town Tavern", "image_url": "https://s3-media1.fl.yelpcdn.com/bphoto/eNrmiplaU0n3GA9PoT4KYw/o.jpg", "is_closed": false, "url": "https://www.yelp.com/biz/town-tavern-alameda-2?adjust_creative=Klanz-jboxl2XzqrjP6LLw&utm_campaign=yelp_api_v3&utm_medium=api_v3_business_search&utm_source=Klanz-jboxl2XzqrjP6LLw", "review_count": 112, "categories": [{"alias": "bars", "title": "Bars"}], "rating": 4.5, "coordinates": {"latitude": 37.7652600555322, "longitude": -122.242149934173}, "transactions": ["delivery"], "price": "$$", "location": {"address1": "1437 Park St", "address2": "", "address3": null, "city": "Alameda", "zip_code": "94501", "country": "US", "state": "CA", "display_address": ["1437 Park St", "Alameda, CA 94501"]}, "phone": "+15105231041", "display_phone": "(510) 523-1041", "distance": 17086.580109629136}, {"id": "ClL-QEflsWyrUA9ybj5vSg", "alias": "izzys-san-francisco-san-francisco", "name": "Izzy's - San Francisco", "image_url": "https://s3-media4.fl.yelpcdn.com/bphoto/yAUxrNcWOhOv8-LDIA6BAA/o.jpg", "is_closed": false, "url": "https://www.yelp.com/biz/izzys-san-francisco-san-francisco?adjust_creative=Klanz-jboxl2XzqrjP6LLw&utm_campaign=yelp_api_v3&utm_medium=api_v3_business_search&utm_source=Klanz-jboxl2XzqrjP6LLw", "review_count": 1189, "categories": [{"alias": "steak", "title": "Steakhouses"}, {"alias": "burgers", "title": "Burgers"}, {"alias": "cocktailbars", "title": "Cocktail Bars"}], "rating": 3.5, "coordinates": {"latitude": 37.800365, "longitude": -122.438046}, "transactions": ["pickup", "delivery"], "price": "$$$", "location": {"address1": "3345 Steiner St", "address2": "", "address3": "", "city": "San Francisco", "zip_code": "94123", "country": "US", "state": "CA", "display_address": ["3345 Steiner St", "San Francisco, CA 94123"]}, "phone": "+14155630487", "display_phone": "(415) 563-0487", "distance": 4390.619799739186}, {"id": "mi8ADETT7WJfssSTld7OmA", "alias": "the-boardroom-san-francisco", "name": "The Boardroom", "image_url": "https://s3-media3.fl.yelpcdn.com/bphoto/B0P-oTuLvdgfqE0OR1rKiA/o.jpg", "is_closed": false, "url": "https://www.yelp.com/biz/the-boardroom-san-francisco?adjust_creative=Klanz-jboxl2XzqrjP6LLw&utm_campaign=yelp_api_v3&utm_medium=api_v3_business_search&utm_source=Klanz-jboxl2XzqrjP6LLw", "review_count": 446, "categories": [{"alias": "sportsbars", "title": "Sports Bars"}, {"alias": "tradamerican", "title": "American (Traditional)"}], "rating": 4.0, "coordinates": {"latitude": 37.799449867735134, "longitude": -122.41057109492886}, "transactions": ["delivery", "pickup"], "price": "$$", "location": {"address1": "1600 Powell St", "address2": null, "address3": "", "city": "San Francisco", "zip_code": "94133", "country": "US", "state": "CA", "display_address": ["1600 Powell St", "San Francisco, CA 94133"]}, "phone": "+14159828898", "display_phone": "(415) 982-8898", "distance": 4852.486009255334}, {"id": "iMsG5QXTsH4DL3P1IyaXDg", "alias": "dough-san-francisco", "name": "Dough", "image_url": "https://s3-media4.fl.yelpcdn.com/bphoto/EnOLWf09VDVyPpa5n1TVpA/o.jpg", "is_closed": false, "url": "https://www.yelp.com/biz/dough-san-francisco?adjust_creative=Klanz-jboxl2XzqrjP6LLw&utm_campaign=yelp_api_v3&utm_medium=api_v3_business_search&utm_source=Klanz-jboxl2XzqrjP6LLw", "review_count": 73, "categories": [{"alias": "donuts", "title": "Donuts"}, {"alias": "pizza", "title": "Pizza"}], "rating": 4.5, "coordinates": {"latitude": 37.775703939968864, "longitude": -122.41816754110529}, "transactions": ["pickup", "delivery"], "location": {"address1": "1455 Market St", "address2": null, "address3": "", "city": "San Francisco", "zip_code": "94103", "country": "US", "state": "CA", "display_address": ["1455 Market St", "San Francisco, CA 94103"]}, "phone": "+14158640888", "display_phone": "(415) 864-0888", "distance": 2300.3481594498794}, {"id": "rXH090XO_2FblnmnMOgVxQ", "alias": "venice-gourmet-sausalito", "name": "Venice Gourmet", "image_url": "https://s3-media3.fl.yelpcdn.com/bphoto/lb7M38sgsT4V6wr_ZU0Z5g/o.jpg", "is_closed": false, "url": "https://www.yelp.com/biz/venice-gourmet-sausalito?adjust_creative=Klanz-jboxl2XzqrjP6LLw&utm_campaign=yelp_api_v3&utm_medium=api_v3_business_search&utm_source=Klanz-jboxl2XzqrjP6LLw", "review_count": 239, "categories": [{"alias": "delis", "title": "Delis"}], "rating": 4.0, "coordinates": {"latitude": 37.854717, "longitude": -122.479103}, "transactions": ["pickup", "delivery"], "price": "$$", "location": {"address1": "625 Bridgeway", "address2": "", "address3": "", "city": "Sausalito", "zip_code": "94965", "country": "US", "state": "CA", "display_address": ["625 Bridgeway", "Sausalito, CA 94965"]}, "phone": "+14153323544", "display_phone": "(415) 332-3544", "distance": 11083.313160496862}, {"id": "9KJ8krUQiNmc53ZfB7OmCw", "alias": "chef-pelle-creative-catering-and-cuisine-san-francisco", "name": "Chef Pelle Creative Catering and Cuisine", "image_url": "https://s3-media2.fl.yelpcdn.com/bphoto/e9eoXmze66nf0jkXXSRbWQ/o.jpg", "is_closed": false, "url": "https://www.yelp.com/biz/chef-pelle-creative-catering-and-cuisine-san-francisco?adjust_creative=Klanz-jboxl2XzqrjP6LLw&utm_campaign=yelp_api_v3&utm_medium=api_v3_business_search&utm_source=Klanz-jboxl2XzqrjP6LLw", "review_count": 28, "categories": [{"alias": "catering", "title": "Caterers"}], "rating": 4.5, "coordinates": {"latitude": 37.7703742980957, "longitude": -122.443626403809}, "transactions": [], "location": {"address1": "", "address2": "", "address3": "", "city": "San Francisco", "zip_code": "94117", "country": "US", "state": "CA", "display_address": ["San Francisco, CA 94117"]}, "phone": "+14153102329", "display_phone": "(415) 310-2329", "distance": 1369.5388481527077}, {"id": "Y-9BkxtSP_X1PzzWMSgcKQ", "alias": "nook-san-francisco", "name": "Nook", "image_url": "https://s3-media2.fl.yelpcdn.com/bphoto/yKE5dIwdT9O_47uOpQLD8A/o.jpg", "is_closed": false, "url": "https://www.yelp.com/biz/nook-san-francisco?adjust_creative=Klanz-jboxl2XzqrjP6LLw&utm_campaign=yelp_api_v3&utm_medium=api_v3_business_search&utm_source=Klanz-jboxl2XzqrjP6LLw", "review_count": 722, "categories": [{"alias": "coffee", "title": "Coffee & Tea"}, {"alias": "wine_bars", "title": "Wine Bars"}, {"alias": "sandwiches", "title": "Sandwiches"}], "rating": 4.0, "coordinates": {"latitude": 37.79473, "longitude": -122.41798}, "transactions": ["delivery"], "price": "$$", "location": {"address1": "1500 Hyde St", "address2": "", "address3": "", "city": "San Francisco", "zip_code": "94109", "country": "US", "state": "CA", "display_address": ["1500 Hyde St", "San Francisco, CA 94109"]}, "phone": "+14154474100", "display_phone": "(415) 447-4100", "distance": 4098.7186293945615}, {"id": "cwFeD_oqUarKPzzoi6KjUg", "alias": "angel-cafe-and-deli-san-francisco", "name": "Angel Cafe & Deli", "image_url": "https://s3-media3.fl.yelpcdn.com/bphoto/MLJ3ti6YZ8Q0U3xICcQszA/o.jpg", "is_closed": false, "url": "https://www.yelp.com/biz/angel-cafe-and-deli-san-francisco?adjust_creative=Klanz-jboxl2XzqrjP6LLw&utm_campaign=yelp_api_v3&utm_medium=api_v3_business_search&utm_source=Klanz-jboxl2XzqrjP6LLw", "review_count": 280, "categories": [{"alias": "coffee", "title": "Coffee & Tea"}, {"alias": "sandwiches", "title": "Sandwiches"}], "rating": 4.5, "coordinates": {"latitude": 37.78666, "longitude": -122.41509}, "transactions": ["delivery", "pickup"], "price": "$", "location": {"address1": "700 Geary St", "address2": "", "address3": "", "city": "San Francisco", "zip_code": "94109", "country": "US", "state": "CA", "display_address": ["700 Geary St", "San Francisco, CA 94109"]}, "phone": "+14159313467", "display_phone": "(415) 931-3467", "distance": 3425.7530947633372}, {"id": "IaoASpyObkjuaD9l8UdyAw", "alias": "the-pasta-slut-san-francisco", "name": "The Pasta Slut", "image_url": "https://s3-media4.fl.yelpcdn.com/bphoto/wJe5LJfi8Dr5MjdJUU9DOg/o.jpg", "is_closed": false, "url": "https://www.yelp.com/biz/the-pasta-slut-san-francisco?adjust_creative=Klanz-jboxl2XzqrjP6LLw&utm_campaign=yelp_api_v3&utm_medium=api_v3_business_search&utm_source=Klanz-jboxl2XzqrjP6LLw", "review_count": 8, "categories": [{"alias": "salad", "title": "Salad"}, {"alias": "fooddeliveryservices", "title": "Food Delivery Services"}, {"alias": "pastashops", "title": "Pasta Shops"}], "rating": 1.5, "coordinates": {"latitude": 37.79251480102539, "longitude": -122.41991424560547}, "transactions": [], "location": {"address1": null, "address2": null, "address3": null, "city": "San Francisco", "zip_code": "94109", "country": "US", "state": "CA", "display_address": ["San Francisco, CA 94109"]}, "phone": "+14154404410", "display_phone": "(415) 440-4410", "distance": 3809.170736003649}, {"id": "iToTydlu7-NuR_i7yFzV0A", "alias": "pasquales-pizza-san-francisco", "name": "Pasquale's Pizza", "image_url": "https://s3-media1.fl.yelpcdn.com/bphoto/Jzc1BFwAuPv1Z9CeYWDjgA/o.jpg", "is_closed": false, "url": "https://www.yelp.com/biz/pasquales-pizza-san-francisco?adjust_creative=Klanz-jboxl2XzqrjP6LLw&utm_campaign=yelp_api_v3&utm_medium=api_v3_business_search&utm_source=Klanz-jboxl2XzqrjP6LLw", "review_count": 145, "categories": [{"alias": "pizza", "title": "Pizza"}, {"alias": "italian", "title": "Italian"}], "rating": 3.5, "coordinates": {"latitude": 37.73567, "longitude": -122.50269}, "transactions": ["delivery"], "price": "$$", "location": {"address1": "2640 Sloat Blvd", "address2": "", "address3": "", "city": "San Francisco", "zip_code": "94116", "country": "US", "state": "CA", "display_address": ["2640 Sloat Blvd", "San Francisco, CA 94116"]}, "phone": "+14155667772", "display_phone": "(415) 566-7772", "distance": 6471.267124311497}, {"id": "7qgsnMg99OtH9cVHiYqLvg", "alias": "pacifica-brewery-pacifica", "name": "Pacifica Brewery", "image_url": "https://s3-media2.fl.yelpcdn.com/bphoto/nRCZJ5ODJ0oWvdbll3YHLQ/o.jpg", "is_closed": false, "url": "https://www.yelp.com/biz/pacifica-brewery-pacifica?adjust_creative=Klanz-jboxl2XzqrjP6LLw&utm_campaign=yelp_api_v3&utm_medium=api_v3_business_search&utm_source=Klanz-jboxl2XzqrjP6LLw", "review_count": 370, "categories": [{"alias": "breweries", "title": "Breweries"}, {"alias": "newamerican", "title": "American (New)"}, {"alias": "breakfast_brunch", "title": "Breakfast & Brunch"}], "rating": 4.0, "coordinates": {"latitude": 37.60661, "longitude": -122.49738}, "transactions": [], "price": "$$", "location": {"address1": "4627 CA-1", "address2": "", "address3": null, "city": "Pacifica", "zip_code": "94044", "country": "US", "state": "CA", "display_address": ["4627 CA-1", "Pacifica, CA 94044"]}, "phone": "+16507355311", "display_phone": "(650) 735-5311", "distance": 17954.114761231383}, {"id": "WhTpALYvB4ZBMcT8fFVLvw", "alias": "holy-gelato-san-francisco", "name": "Holy Gelato!", "image_url": "https://s3-media2.fl.yelpcdn.com/bphoto/MiNFmR2UdeU6sQCyoc0raQ/o.jpg", "is_closed": false, "url": "https://www.yelp.com/biz/holy-gelato-san-francisco?adjust_creative=Klanz-jboxl2XzqrjP6LLw&utm_campaign=yelp_api_v3&utm_medium=api_v3_business_search&utm_source=Klanz-jboxl2XzqrjP6LLw", "review_count": 1085, "categories": [{"alias": "gelato", "title": "Gelato"}, {"alias": "acaibowls", "title": "Acai Bowls"}, {"alias": "juicebars", "title": "Juice Bars & Smoothies"}], "rating": 4.5, "coordinates": {"latitude": 37.762392, "longitude": -122.465941}, "transactions": ["pickup", "delivery"], "price": "$$", "location": {"address1": "1392 9th Ave", "address2": "", "address3": "", "city": "San Francisco", "zip_code": "94122", "country": "US", "state": "CA", "display_address": ["1392 9th Ave", "San Francisco, CA 94122"]}, "phone": "+14156813061", "display_phone": "(415) 681-3061", "distance": 2599.6011676204334}, {"id": "DCGxo7L7KjGqOXm9oKStlw", "alias": "vegan-picnic-san-francisco-2", "name": "Vegan Picnic", "image_url": "https://s3-media2.fl.yelpcdn.com/bphoto/PNKWimR0vBdkxih8iSa_2A/o.jpg", "is_closed": false, "url": "https://www.yelp.com/biz/vegan-picnic-san-francisco-2?adjust_creative=Klanz-jboxl2XzqrjP6LLw&utm_campaign=yelp_api_v3&utm_medium=api_v3_business_search&utm_source=Klanz-jboxl2XzqrjP6LLw", "review_count": 88, "categories": [{"alias": "delis", "title": "Delis"}, {"alias": "vegan", "title": "Vegan"}, {"alias": "comfortfood", "title": "Comfort Food"}], "rating": 4.0, "coordinates": {"latitude": 37.78892, "longitude": -122.42062}, "transactions": ["pickup", "delivery"], "price": "$$", "location": {"address1": "1323 Polk St", "address2": "", "address3": null, "city": "San Francisco", "zip_code": "94109", "country": "US", "state": "CA", "display_address": ["1323 Polk St", "San Francisco, CA 94109"]}, "phone": "+14155086736", "display_phone": "(415) 508-6736", "distance": 3428.3197076611073}, {"id": "BC5aw6Kdt6pxz02du20DyA", "alias": "kitava-san-francisco", "name": "Kitava", "image_url": "https://s3-media3.fl.yelpcdn.com/bphoto/gt_Tk_FGBeAV72yG3HBlgQ/o.jpg", "is_closed": false, "url": "https://www.yelp.com/biz/kitava-san-francisco?adjust_creative=Klanz-jboxl2XzqrjP6LLw&utm_campaign=yelp_api_v3&utm_medium=api_v3_business_search&utm_source=Klanz-jboxl2XzqrjP6LLw", "review_count": 545, "categories": [{"alias": "gluten_free", "title": "Gluten-Free"}, {"alias": "newamerican", "title": "American (New)"}], "rating": 4.5, "coordinates": {"latitude": 37.76483, "longitude": -122.4193}, "transactions": ["pickup", "delivery"], "price": "$$", "location": {"address1": "2011 Mission St", "address2": "", "address3": null, "city": "San Francisco", "zip_code": "94110", "country": "US", "state": "CA", "display_address": ["2011 Mission St", "San Francisco, CA 94110"]}, "phone": "+14157801661", "display_phone": "(415) 780-1661", "distance": 1553.809186923076}, {"id": "i299ETJX1agXf6VS9fEZOg", "alias": "harper-and-rye-san-francisco", "name": "Harper & Rye", "image_url": "https://s3-media2.fl.yelpcdn.com/bphoto/GRWNskujj0kqt7vqbeGX2Q/o.jpg", "is_closed": false, "url": "https://www.yelp.com/biz/harper-and-rye-san-francisco?adjust_creative=Klanz-jboxl2XzqrjP6LLw&utm_campaign=yelp_api_v3&utm_medium=api_v3_business_search&utm_source=Klanz-jboxl2XzqrjP6LLw", "review_count": 234, "categories": [{"alias": "cocktailbars", "title": "Cocktail Bars"}, {"alias": "venues", "title": "Venues & Event Spaces"}], "rating": 3.5, "coordinates": {"latitude": 37.792229, "longitude": -122.4212291}, "transactions": [], "price": "$$", "location": {"address1": "1695 Polk St", "address2": "", "address3": "", "city": "San Francisco", "zip_code": "94109", "country": "US", "state": "CA", "display_address": ["1695 Polk St", "San Francisco, CA 94109"]}, "phone": "+14155627493", "display_phone": "(415) 562-7493", "distance": 3731.6212863259398}, {"id": "iaKZgEBfD4Ak4OR2vNKFrg", "alias": "wipeout-bar-and-grill-san-francisco-2", "name": "Wipeout Bar & Grill", "image_url": "https://s3-media2.fl.yelpcdn.com/bphoto/WC-_k5fR9ufQdBL3ATE26A/o.jpg", "is_closed": false, "url": "https://www.yelp.com/biz/wipeout-bar-and-grill-san-francisco-2?adjust_creative=Klanz-jboxl2XzqrjP6LLw&utm_campaign=yelp_api_v3&utm_medium=api_v3_business_search&utm_source=Klanz-jboxl2XzqrjP6LLw", "review_count": 1526, "categories": [{"alias": "burgers", "title": "Burgers"}, {"alias": "beerbar", "title": "Beer Bar"}, {"alias": "pizza", "title": "Pizza"}], "rating": 3.5, "coordinates": {"latitude": 37.8089998891953, "longitude": -122.410252690316}, "transactions": ["restaurant_reservation"], "price": "$$", "location": {"address1": "The Embarcadero", "address2": "Ste A02", "address3": "", "city": "San Francisco", "zip_code": "94133", "country": "US", "state": "CA", "display_address": ["The Embarcadero", "Ste A02", "San Francisco, CA 94133"]}, "phone": "+14159865966", "display_phone": "(415) 986-5966", "distance": 5822.857302445291}, {"id": "3K82F5PA3OSU8-LzWDfgHg", "alias": "wild-side-west-san-francisco", "name": "Wild Side West", "image_url": "https://s3-media1.fl.yelpcdn.com/bphoto/FRp0jEhSiCP55UnsecIR9w/o.jpg", "is_closed": false, "url": "https://www.yelp.com/biz/wild-side-west-san-francisco?adjust_creative=Klanz-jboxl2XzqrjP6LLw&utm_campaign=yelp_api_v3&utm_medium=api_v3_business_search&utm_source=Klanz-jboxl2XzqrjP6LLw", "review_count": 276, "categories": [{"alias": "gaybars", "title": "Gay Bars"}, {"alias": "divebars", "title": "Dive Bars"}, {"alias": "pianobars", "title": "Piano Bars"}], "rating": 4.0, "coordinates": {"latitude": 37.7388877868652, "longitude": -122.417175292969}, "transactions": [], "price": "$", "location": {"address1": "424 Cortland Ave", "address2": "", "address3": "", "city": "San Francisco", "zip_code": "94110", "country": "US", "state": "CA", "display_address": ["424 Cortland Ave", "San Francisco, CA 94110"]}, "phone": "+14156473099", "display_phone": "(415) 647-3099", "distance": 2965.607969989909}, {"id": "OVLexCW4wdYDUc_Oc4NfVw", "alias": "opa-cafe-san-francisco", "name": "opa cafe", "image_url": "https://s3-media1.fl.yelpcdn.com/bphoto/lqtU7NgVSBTGY_5s44wbeQ/o.jpg", "is_closed": false, "url": "https://www.yelp.com/biz/opa-cafe-san-francisco?adjust_creative=Klanz-jboxl2XzqrjP6LLw&utm_campaign=yelp_api_v3&utm_medium=api_v3_business_search&utm_source=Klanz-jboxl2XzqrjP6LLw", "review_count": 411, "categories": [{"alias": "mediterranean", "title": "Mediterranean"}, {"alias": "sandwiches", "title": "Sandwiches"}, {"alias": "salad", "title": "Salad"}], "rating": 4.5, "coordinates": {"latitude": 37.783969, "longitude": -122.441505}, "transactions": ["delivery", "pickup"], "price": "$", "location": {"address1": "2401 Post St", "address2": null, "address3": "", "city": "San Francisco", "zip_code": "94115", "country": "US", "state": "CA", "display_address": ["2401 Post St", "San Francisco, CA 94115"]}, "phone": "+14159137745", "display_phone": "(415) 913-7745", "distance": 2603.393571229183}, {"id": "tHJQH4je6TrwJxotjHtP_g", "alias": "cafe-dolci-san-francisco", "name": "Cafe Dolci", "image_url": "https://s3-media3.fl.yelpcdn.com/bphoto/1kFipQ6Mu6IB0CpYKzD_NQ/o.jpg", "is_closed": false, "url": "https://www.yelp.com/biz/cafe-dolci-san-francisco?adjust_creative=Klanz-jboxl2XzqrjP6LLw&utm_campaign=yelp_api_v3&utm_medium=api_v3_business_search&utm_source=Klanz-jboxl2XzqrjP6LLw", "review_count": 437, "categories": [{"alias": "coffee", "title": "Coffee & Tea"}, {"alias": "vietnamese", "title": "Vietnamese"}, {"alias": "sandwiches", "title": "Sandwiches"}], "rating": 4.0, "coordinates": {"latitude": 37.7874, "longitude": -122.40434}, "transactions": ["pickup", "delivery"], "price": "$", "location": {"address1": "740 Market St", "address2": "", "address3": "", "city": "San Francisco", "zip_code": "94102", "country": "US", "state": "CA", "display_address": ["740 Market St", "San Francisco, CA 94102"]}, "phone": "+14157570192", "display_phone": "(415) 757-0192", "distance": 4051.66577241215}, {"id": "54iy2DqZfGgZWgADciELHg", "alias": "tony-niks-cafe-san-francisco", "name": "Tony Nik's Cafe", "image_url": "https://s3-media1.fl.yelpcdn.com/bphoto/K1v0cZKTQoZX-xRjwe_vfQ/o.jpg", "is_closed": false, "url": "https://www.yelp.com/biz/tony-niks-cafe-san-francisco?adjust_creative=Klanz-jboxl2XzqrjP6LLw&utm_campaign=yelp_api_v3&utm_medium=api_v3_business_search&utm_source=Klanz-jboxl2XzqrjP6LLw", "review_count": 298, "categories": [{"alias": "lounges", "title": "Lounges"}], "rating": 4.0, "coordinates": {"latitude": 37.8000297546387, "longitude": -122.408882141113}, "transactions": [], "price": "$$", "location": {"address1": "1534 Stockton St", "address2": "", "address3": "", "city": "San Francisco", "zip_code": "94133", "country": "US", "state": "CA", "display_address": ["1534 Stockton St", "San Francisco, CA 94133"]}, "phone": "+14156930990", "display_phone": "(415) 693-0990", "distance": 4981.214050233453}, {"id": "u2qFhVAiH3kQIGhEW6PmMA", "alias": "zushi-puzzle-san-francisco-2", "name": "Zushi Puzzle", "image_url": "https://s3-media4.fl.yelpcdn.com/bphoto/nzhq4mRnQeibqZAh37q_rQ/o.jpg", "is_closed": false, "url": "https://www.yelp.com/biz/zushi-puzzle-san-francisco-2?adjust_creative=Klanz-jboxl2XzqrjP6LLw&utm_campaign=yelp_api_v3&utm_medium=api_v3_business_search&utm_source=Klanz-jboxl2XzqrjP6LLw", "review_count": 1357, "categories": [{"alias": "sushi", "title": "Sushi Bars"}, {"alias": "japanese", "title": "Japanese"}, {"alias": "salad", "title": "Salad"}], "rating": 4.0, "coordinates": {"latitude": 37.80052, "longitude": -122.43308}, "transactions": ["delivery"], "price": "$$$", "location": {"address1": "1910 Lombard St", "address2": "", "address3": "", "city": "San Francisco", "zip_code": "94123", "country": "US", "state": "CA", "display_address": ["1910 Lombard St", "San Francisco, CA 94123"]}, "phone": "+14159319319", "display_phone": "(415) 931-9319", "distance": 4400.161669890425}, {"id": "p1c1DhOH4C8scoLlagE5Bg", "alias": "the-european-san-francisco", "name": "The European", "image_url": "https://s3-media4.fl.yelpcdn.com/bphoto/GhGDhbCQvTR8SbeNedXCeQ/o.jpg", "is_closed": false, "url": "https://www.yelp.com/biz/the-european-san-francisco?adjust_creative=Klanz-jboxl2XzqrjP6LLw&utm_campaign=yelp_api_v3&utm_medium=api_v3_business_search&utm_source=Klanz-jboxl2XzqrjP6LLw", "review_count": 140, "categories": [{"alias": "cocktailbars", "title": "Cocktail Bars"}, {"alias": "lounges", "title": "Lounges"}, {"alias": "tapas", "title": "Tapas Bars"}], "rating": 4.0, "coordinates": {"latitude": 37.78714, "longitude": -122.41133}, "transactions": [], "price": "$$", "location": {"address1": "490 Geary St", "address2": "", "address3": "", "city": "San Francisco", "zip_code": "94102", "country": "US", "state": "CA", "display_address": ["490 Geary St", "San Francisco, CA 94102"]}, "phone": "+14153452301", "display_phone": "(415) 345-2301", "distance": 3653.825239447351}, {"id": "lyFzzkaq7NZ_qW1a68KT6Q", "alias": "alhamra-san-francisco-5", "name": "Alhamra", "image_url": "https://s3-media1.fl.yelpcdn.com/bphoto/wU0BKDFINquW_I02oDcR0Q/o.jpg", "is_closed": false, "url": "https://www.yelp.com/biz/alhamra-san-francisco-5?adjust_creative=Klanz-jboxl2XzqrjP6LLw&utm_campaign=yelp_api_v3&utm_medium=api_v3_business_search&utm_source=Klanz-jboxl2XzqrjP6LLw", "review_count": 523, "categories": [{"alias": "indpak", "title": "Indian"}, {"alias": "pakistani", "title": "Pakistani"}, {"alias": "pizza", "title": "Pizza"}], "rating": 3.5, "coordinates": {"latitude": 37.76468, "longitude": -122.42132}, "transactions": ["delivery", "pickup"], "price": "$", "location": {"address1": "3083 16th St", "address2": "", "address3": "", "city": "San Francisco", "zip_code": "94103", "country": "US", "state": "CA", "display_address": ["3083 16th St", "San Francisco, CA 94103"]}, "phone": "+14156213935", "display_phone": "(415) 621-3935", "distance": 1389.710287142593}, {"id": "UVHUFlMM0oV21cBwPyTVSw", "alias": "swiss-louis-san-francisco-3", "name": "Swiss Louis", "image_url": "https://s3-media4.fl.yelpcdn.com/bphoto/wkocJWTBmChoc6IjyZL29w/o.jpg", "is_closed": false, "url": "https://www.yelp.com/biz/swiss-louis-san-francisco-3?adjust_creative=Klanz-jboxl2XzqrjP6LLw&utm_campaign=yelp_api_v3&utm_medium=api_v3_business_search&utm_source=Klanz-jboxl2XzqrjP6LLw", "review_count": 646, "categories": [{"alias": "italian", "title": "Italian"}, {"alias": "seafood", "title": "Seafood"}, {"alias": "pizza", "title": "Pizza"}], "rating": 3.0, "coordinates": {"latitude": 37.8101696245898, "longitude": -122.410655021667}, "transactions": ["delivery"], "price": "$$", "location": {"address1": "39 Pier", "address2": "Ste 160", "address3": "", "city": "San Francisco", "zip_code": "94133", "country": "US", "state": "CA", "display_address": ["39 Pier", "Ste 160", "San Francisco, CA 94133"]}, "phone": "+14154212913", "display_phone": "(415) 421-2913", "distance": 5928.939689846563}, {"id": "gQ3Z7Iw6dyC5NF8vRzJA4A", "alias": "anh-restaurant-and-bar-richmond-2", "name": "Anh Restaurant & Bar", "image_url": "https://s3-media4.fl.yelpcdn.com/bphoto/93M-R07oB0L7atRNvB5Ufg/o.jpg", "is_closed": false, "url": "https://www.yelp.com/biz/anh-restaurant-and-bar-richmond-2?adjust_creative=Klanz-jboxl2XzqrjP6LLw&utm_campaign=yelp_api_v3&utm_medium=api_v3_business_search&utm_source=Klanz-jboxl2XzqrjP6LLw", "review_count": 336, "categories": [{"alias": "vietnamese", "title": "Vietnamese"}, {"alias": "salad", "title": "Salad"}, {"alias": "cocktailbars", "title": "Cocktail Bars"}], "rating": 4.0, "coordinates": {"latitude": 37.9152758870656, "longitude": -122.349639144616}, "transactions": ["delivery"], "price": "$$", "location": {"address1": "1950 Esplanade Dr", "address2": null, "address3": "", "city": "Richmond", "zip_code": "94804", "country": "US", "state": "CA", "display_address": ["1950 Esplanade Dr", "Richmond, CA 94804"]}, "phone": "+15106805292", "display_phone": "(510) 680-5292", "distance": 18713.186779099262}, {"id": "mxklgb9anKRXLhHMWN2qcw", "alias": "radio-habana-social-club-san-francisco-3", "name": "Radio Habana Social Club", "image_url": "https://s3-media4.fl.yelpcdn.com/bphoto/nrUlYyaUBscrpxF-zotX9g/o.jpg", "is_closed": false, "url": "https://www.yelp.com/biz/radio-habana-social-club-san-francisco-3?adjust_creative=Klanz-jboxl2XzqrjP6LLw&utm_campaign=yelp_api_v3&utm_medium=api_v3_business_search&utm_source=Klanz-jboxl2XzqrjP6LLw", "review_count": 210, "categories": [{"alias": "cuban", "title": "Cuban"}, {"alias": "bars", "title": "Bars"}], "rating": 4.0, "coordinates": {"latitude": 37.75515, "longitude": -122.42065}, "transactions": ["delivery"], "price": "$$", "location": {"address1": "1109 Valencia St", "address2": "", "address3": "", "city": "San Francisco", "zip_code": "94110", "country": "US", "state": "CA", "display_address": ["1109 Valencia St", "San Francisco, CA 94110"]}, "phone": "", "display_phone": "", "distance": 1517.308766448234}, {"id": "mCrM-IdYiFoPazM-WzG0_A", "alias": "subway-restaurants-berkeley-5", "name": "Subway Restaurants", "image_url": "https://s3-media4.fl.yelpcdn.com/bphoto/evRXPeCEGYvyafHBoLRSaQ/o.jpg", "is_closed": false, "url": "https://www.yelp.com/biz/subway-restaurants-berkeley-5?adjust_creative=Klanz-jboxl2XzqrjP6LLw&utm_campaign=yelp_api_v3&utm_medium=api_v3_business_search&utm_source=Klanz-jboxl2XzqrjP6LLw", "review_count": 47, "categories": [{"alias": "sandwiches", "title": "Sandwiches"}], "rating": 2.0, "coordinates": {"latitude": 37.87139, "longitude": -122.26796}, "transactions": ["pickup", "delivery"], "price": "$", "location": {"address1": "92 Shattuck Sq", "address2": "Ste 6", "address3": "", "city": "Berkeley", "zip_code": "94704", "country": "US", "state": "CA", "display_address": ["92 Shattuck Sq", "Ste 6", "Berkeley, CA 94704"]}, "phone": "+15106490224", "display_phone": "(510) 649-0224", "distance": 19237.89874917429}, {"id": "SLPahSbiIA7pbjpRXbIfhw", "alias": "speedys-pizza-and-grill-south-san-francisco", "name": "Speedy's Pizza And Grill", "image_url": "https://s3-media2.fl.yelpcdn.com/bphoto/GSrgXLbcCxIjIoGX-Gm76Q/o.jpg", "is_closed": false, "url": "https://www.yelp.com/biz/speedys-pizza-and-grill-south-san-francisco?adjust_creative=Klanz-jboxl2XzqrjP6LLw&utm_campaign=yelp_api_v3&utm_medium=api_v3_business_search&utm_source=Klanz-jboxl2XzqrjP6LLw", "review_count": 110, "categories": [{"alias": "pizza", "title": "Pizza"}, {"alias": "italian", "title": "Italian"}, {"alias": "burgers", "title": "Burgers"}], "rating": 4.5, "coordinates": {"latitude": 37.649896, "longitude": -122.430765}, "transactions": ["pickup", "delivery"], "price": "$$", "location": {"address1": "687 El Camino Real", "address2": "", "address3": null, "city": "South San Francisco", "zip_code": "94080", "country": "US", "state": "CA", "display_address": ["687 El Camino Real", "South San Francisco, CA 94080"]}, "phone": "+16508711200", "display_phone": "(650) 871-1200", "distance": 12353.57537333569}, {"id": "YbZc6dPaievdwiOfYL4-bg", "alias": "ham-and-cheese-deli-san-francisco", "name": "Ham & Cheese Deli", "image_url": "https://s3-media4.fl.yelpcdn.com/bphoto/53dJqhy_umjPFMDDQTjrYg/o.jpg", "is_closed": false, "url": "https://www.yelp.com/biz/ham-and-cheese-deli-san-francisco?adjust_creative=Klanz-jboxl2XzqrjP6LLw&utm_campaign=yelp_api_v3&utm_medium=api_v3_business_search&utm_source=Klanz-jboxl2XzqrjP6LLw", "review_count": 63, "categories": [{"alias": "sandwiches", "title": "Sandwiches"}, {"alias": "breakfast_brunch", "title": "Breakfast & Brunch"}, {"alias": "delis", "title": "Delis"}], "rating": 5.0, "coordinates": {"latitude": 37.78417121138233, "longitude": -122.4765764052936}, "transactions": ["pickup", "delivery"], "price": "$$", "location": {"address1": "5501 California St", "address2": "", "address3": null, "city": "San Francisco", "zip_code": "94121", "country": "US", "state": "CA", "display_address": ["5501 California St", "San Francisco, CA 94121"]}, "phone": "+14155929782", "display_phone": "(415) 592-9782", "distance": 4374.556562206708}, {"id": "zYUgm_qOcly8mhLdTSFnKw", "alias": "palermo-ii-delicatessen-san-francisco", "name": "Palermo II Delicatessen", "image_url": "https://s3-media2.fl.yelpcdn.com/bphoto/Ytqyd4Pd8v84H86RaH2FVQ/o.jpg", "is_closed": false, "url": "https://www.yelp.com/biz/palermo-ii-delicatessen-san-francisco?adjust_creative=Klanz-jboxl2XzqrjP6LLw&utm_campaign=yelp_api_v3&utm_medium=api_v3_business_search&utm_source=Klanz-jboxl2XzqrjP6LLw", "review_count": 93, "categories": [{"alias": "delis", "title": "Delis"}, {"alias": "sandwiches", "title": "Sandwiches"}, {"alias": "italian", "title": "Italian"}], "rating": 5.0, "coordinates": {"latitude": 37.79894, "longitude": -122.4086}, "transactions": ["pickup", "delivery"], "price": "$$", "location": {"address1": "658 Vallejo St", "address2": null, "address3": "", "city": "San Francisco", "zip_code": "94133", "country": "US", "state": "CA", "display_address": ["658 Vallejo St", "San Francisco, CA 94133"]}, "phone": "+14159370161", "display_phone": "(415) 937-0161", "distance": 4872.355674274952}, {"id": "ygJ1-bjAg3hI95N9zX9oqQ", "alias": "food-emporium-san-francisco", "name": "Food Emporium", "image_url": "https://s3-media1.fl.yelpcdn.com/bphoto/r-C3eAKV3mfWCZfx2CJkuw/o.jpg", "is_closed": false, "url": "https://www.yelp.com/biz/food-emporium-san-francisco?adjust_creative=Klanz-jboxl2XzqrjP6LLw&utm_campaign=yelp_api_v3&utm_medium=api_v3_business_search&utm_source=Klanz-jboxl2XzqrjP6LLw", "review_count": 303, "categories": [{"alias": "food_court", "title": "Food Court"}], "rating": 4.0, "coordinates": {"latitude": 37.783973, "longitude": -122.40717}, "transactions": [], "price": "$$", "location": {"address1": "865 Market St", "address2": "", "address3": "", "city": "San Francisco", "zip_code": "94103", "country": "US", "state": "CA", "display_address": ["865 Market St", "San Francisco, CA 94103"]}, "phone": "+14155126776", "display_phone": "(415) 512-6776", "distance": 3633.789000466373}, {"id": "gXoME8vDSz271nbDQiztMA", "alias": "sky-cafe-south-san-francisco", "name": "Sky Cafe", "image_url": "https://s3-media2.fl.yelpcdn.com/bphoto/GP2Q93Ygufu6Uevr6SzWjg/o.jpg", "is_closed": false, "url": "https://www.yelp.com/biz/sky-cafe-south-san-francisco?adjust_creative=Klanz-jboxl2XzqrjP6LLw&utm_campaign=yelp_api_v3&utm_medium=api_v3_business_search&utm_source=Klanz-jboxl2XzqrjP6LLw", "review_count": 79, "categories": [{"alias": "vegan", "title": "Vegan"}, {"alias": "newamerican", "title": "American (New)"}, {"alias": "asianfusion", "title": "Asian Fusion"}], "rating": 5.0, "coordinates": {"latitude": 37.6548187, "longitude": -122.4092408}, "transactions": [], "price": "$$", "location": {"address1": "223 Grand Ave", "address2": "", "address3": null, "city": "South San Francisco", "zip_code": "94134", "country": "US", "state": "CA", "display_address": ["223 Grand Ave", "South San Francisco, CA 94134"]}, "phone": "+16509898588", "display_phone": "(650) 989-8588", "distance": 12030.265001157071}, {"id": "8-dlf_D8jBSYVSZKjQLkBw", "alias": "redwood-room-san-francisco", "name": "Redwood Room", "image_url": "https://s3-media1.fl.yelpcdn.com/bphoto/nv0TWoSWl6MOS8to3dWSwA/o.jpg", "is_closed": false, "url": "https://www.yelp.com/biz/redwood-room-san-francisco?adjust_creative=Klanz-jboxl2XzqrjP6LLw&utm_campaign=yelp_api_v3&utm_medium=api_v3_business_search&utm_source=Klanz-jboxl2XzqrjP6LLw", "review_count": 789, "categories": [{"alias": "lounges", "title": "Lounges"}], "rating": 3.5, "coordinates": {"latitude": 37.7867, "longitude": -122.4111}, "transactions": ["delivery"], "price": "$$$", "location": {"address1": "495 Geary St", "address2": null, "address3": null, "city": "San Francisco", "zip_code": "94102", "country": "US", "state": "CA", "display_address": ["495 Geary St", "San Francisco, CA 94102"]}, "phone": "+14159292372", "display_phone": "(415) 929-2372", "distance": 3627.954250139455}, {"id": "jToTQStksqPPbcinvUqhlA", "alias": "shakewell-oakland", "name": "Shakewell", "image_url": "https://s3-media3.fl.yelpcdn.com/bphoto/VlJ0xziaXK_vu67ryJ4OAA/o.jpg", "is_closed": false, "url": "https://www.yelp.com/biz/shakewell-oakland?adjust_creative=Klanz-jboxl2XzqrjP6LLw&utm_campaign=yelp_api_v3&utm_medium=api_v3_business_search&utm_source=Klanz-jboxl2XzqrjP6LLw", "review_count": 918, "categories": [{"alias": "bars", "title": "Bars"}, {"alias": "mediterranean", "title": "Mediterranean"}, {"alias": "spanish", "title": "Spanish"}], "rating": 4.0, "coordinates": {"latitude": 37.8113694419706, "longitude": -122.24299026164636}, "transactions": ["pickup", "delivery"], "price": "$$", "location": {"address1": "3407 Lakeshore Ave", "address2": "", "address3": "", "city": "Oakland", "zip_code": "94610", "country": "US", "state": "CA", "display_address": ["3407 Lakeshore Ave", "Oakland, CA 94610"]}, "phone": "+15102510329", "display_phone": "(510) 251-0329", "distance": 17902.863312115445}, {"id": "aO_98F0hBu9f6T7YOsFwrA", "alias": "marrakech-moroccan-restaurant-bar-and-hookah-lounge-san-francisco", "name": "Marrakech Moroccan Restaurant, Bar, & Hookah Lounge", "image_url": "https://s3-media3.fl.yelpcdn.com/bphoto/fqCwPLCdHsDsYs0JIVHpTg/o.jpg", "is_closed": false, "url": "https://www.yelp.com/biz/marrakech-moroccan-restaurant-bar-and-hookah-lounge-san-francisco?adjust_creative=Klanz-jboxl2XzqrjP6LLw&utm_campaign=yelp_api_v3&utm_medium=api_v3_business_search&utm_source=Klanz-jboxl2XzqrjP6LLw", "review_count": 554, "categories": [{"alias": "moroccan", "title": "Moroccan"}, {"alias": "hookah_bars", "title": "Hookah Bars"}, {"alias": "mediterranean", "title": "Mediterranean"}], "rating": 3.5, "coordinates": {"latitude": 37.7859083923886, "longitude": -122.411802889031}, "transactions": ["pickup", "delivery"], "price": "$$", "location": {"address1": "419 O'Farrell St", "address2": "", "address3": "", "city": "San Francisco", "zip_code": "94102", "country": "US", "state": "CA", "display_address": ["419 O'Farrell St", "San Francisco, CA 94102"]}, "phone": "+14157766717", "display_phone": "(415) 776-6717", "distance": 3516.8022759629725}, {"id": "Wk1-orX62HlLxyIO0yHp-A", "alias": "the-salad-place-san-francisco-4", "name": "The Salad Place", "image_url": "https://s3-media2.fl.yelpcdn.com/bphoto/f-2x_o9LUQtqrYiWdF9Otg/o.jpg", "is_closed": false, "url": "https://www.yelp.com/biz/the-salad-place-san-francisco-4?adjust_creative=Klanz-jboxl2XzqrjP6LLw&utm_campaign=yelp_api_v3&utm_medium=api_v3_business_search&utm_source=Klanz-jboxl2XzqrjP6LLw", "review_count": 231, "categories": [{"alias": "tradamerican", "title": "American (Traditional)"}, {"alias": "salad", "title": "Salad"}, {"alias": "breakfast_brunch", "title": "Breakfast & Brunch"}], "rating": 4.5, "coordinates": {"latitude": 37.72278, "longitude": -122.43554}, "transactions": ["delivery", "pickup"], "price": "$", "location": {"address1": "400 London St", "address2": null, "address3": "", "city": "San Francisco", "zip_code": "94112", "country": "US", "state": "CA", "display_address": ["400 London St", "San Francisco, CA 94112"]}, "phone": "+14153334030", "display_phone": "(415) 333-4030", "distance": 4238.867337500185}, {"id": "kEhq0qT_JFxgeh-pCS4lPA", "alias": "the-sentinel-san-francisco", "name": "The Sentinel", "image_url": "https://s3-media1.fl.yelpcdn.com/bphoto/VctZOoSLiQ1P-g_cHa49QQ/o.jpg", "is_closed": false, "url": "https://www.yelp.com/biz/the-sentinel-san-francisco?adjust_creative=Klanz-jboxl2XzqrjP6LLw&utm_campaign=yelp_api_v3&utm_medium=api_v3_business_search&utm_source=Klanz-jboxl2XzqrjP6LLw", "review_count": 1283, "categories": [{"alias": "sandwiches", "title": "Sandwiches"}], "rating": 4.0, "coordinates": {"latitude": 37.7882977785009, "longitude": -122.401372356986}, "transactions": ["pickup"], "price": "$", "location": {"address1": "37 New Montgomery St", "address2": "", "address3": "", "city": "San Francisco", "zip_code": "94105", "country": "US", "state": "CA", "display_address": ["37 New Montgomery St", "San Francisco, CA 94105"]}, "phone": "+14157698109", "display_phone": "(415) 769-8109", "distance": 4334.165193205864}, {"id": "D9Ati4R4cRoitMFTtzBudQ", "alias": "naples-pizzarella-san-francisco", "name": "Naples Pizzarella", "image_url": "https://s3-media2.fl.yelpcdn.com/bphoto/8Zxu_qn5Zdbb5DWKEzQu5w/o.jpg", "is_closed": false, "url": "https://www.yelp.com/biz/naples-pizzarella-san-francisco?adjust_creative=Klanz-jboxl2XzqrjP6LLw&utm_campaign=yelp_api_v3&utm_medium=api_v3_business_search&utm_source=Klanz-jboxl2XzqrjP6LLw", "review_count": 100, "categories": [{"alias": "pizza", "title": "Pizza"}, {"alias": "seafood", "title": "Seafood"}, {"alias": "sandwiches", "title": "Sandwiches"}], "rating": 2.5, "coordinates": {"latitude": 37.7141, "longitude": -122.43664}, "transactions": ["pickup", "delivery"], "price": "$", "location": {"address1": "1192 Geneva Ave", "address2": "", "address3": "", "city": "San Francisco", "zip_code": "94112", "country": "US", "state": "CA", "display_address": ["1192 Geneva Ave", "San Francisco, CA 94112"]}, "phone": "+14159887354", "display_phone": "(415) 988-7354", "distance": 5198.33996944238}, {"id": "WFgRFq_KxIs2fkYo1iD6Tg", "alias": "lers-ros-san-francisco-2", "name": "Lers Ros", "image_url": "https://s3-media2.fl.yelpcdn.com/bphoto/Ret1r2LD68ouKGpaVGpPtA/o.jpg", "is_closed": false, "url": "https://www.yelp.com/biz/lers-ros-san-francisco-2?adjust_creative=Klanz-jboxl2XzqrjP6LLw&utm_campaign=yelp_api_v3&utm_medium=api_v3_business_search&utm_source=Klanz-jboxl2XzqrjP6LLw", "review_count": 2254, "categories": [{"alias": "thai", "title": "Thai"}, {"alias": "wine_bars", "title": "Wine Bars"}], "rating": 4.0, "coordinates": {"latitude": 37.784703, "longitude": -122.417566}, "transactions": ["pickup", "delivery", "restaurant_reservation"], "price": "$$", "location": {"address1": "730 Larkin St", "address2": "", "address3": "", "city": "San Francisco", "zip_code": "94109", "country": "US", "state": "CA", "display_address": ["730 Larkin St", "San Francisco, CA 94109"]}, "phone": "+14159316917", "display_phone": "(415) 931-6917", "distance": 3121.1293030249976}], "total": 1800, "region": {"center": {"longitude": -122.43644714355469, "latitude": 37.76089938976322}}}