{"businesses": [{"id": "Qbr2JG96K6d31NqqAUxf9g", "alias": "la-mar-cebicher\u00eda-peruana-san-francisco-4", "name": "La Mar Cebicher\u00eda Peruana", "image_url": "https://s3-media4.fl.yelpcdn.com/bphoto/hI4L8cMY1JY_UKq7ZYBpTw/o.jpg", "is_closed": false, "url": "https://www.yelp.com/biz/la-mar-cebicher%C3%ADa-peruana-san-francisco-4?adjust_creative=Klanz-jboxl2XzqrjP6LLw&utm_campaign=yelp_api_v3&utm_medium=api_v3_business_search&utm_source=Klanz-jboxl2XzqrjP6LLw", "review_count": 4032, "categories": [{"alias": "latin", "title": "Latin American"}, {"alias": "seafood", "title": "Seafood"}, {"alias": "peruvian", "title": "Peruvian"}], "rating": 4.0, "coordinates": {"latitude": 37.7974182368553, "longitude": -122.395129846558}, "transactions": ["delivery", "pickup"], "price": "$$$", "location": {"address1": "Pier 1 1/2 The Embarcadero", "address2": "Ste 100", "address3": "", "city": "San Francisco", "zip_code": "94111", "country": "US", "state": "CA", "display_address": ["Pier 1 1/2 The Embarcadero", "Ste 100", "San Francisco, CA 94111"]}, "phone": "+14153978880", "display_phone": "(415) 397-8880", "distance": 5447.477112361181}, {"id": "KoZtPdlNO2jMJ7Zc7I9JVg", "alias": "jupiter-berkeley", "name": "Jupiter", "image_url": "https://s3-media4.fl.yelpcdn.com/bphoto/WshCmaPRNJUBw58V_yT6TQ/o.jpg", "is_closed": false, "url": "https://www.yelp.com/biz/jupiter-berkeley?adjust_creative=Klanz-jboxl2XzqrjP6LLw&utm_campaign=yelp_api_v3&utm_medium=api_v3_business_search&utm_source=Klanz-jboxl2XzqrjP6LLw", "review_count": 3293, "categories": [{"alias": "pizza", "title": "Pizza"}, {"alias": "breweries", "title": "Breweries"}, {"alias": "chicken_wings", "title": "Chicken Wings"}], "rating": 4.0, "coordinates": {"latitude": 37.869817, "longitude": -122.267597}, "transactions": ["delivery"], "price": "$$", "location": {"address1": "2181 Shattuck Ave", "address2": "", "address3": "", "city": "Berkeley", "zip_code": "94704", "country": "US", "state": "CA", "display_address": ["2181 Shattuck Ave", "Berkeley, CA 94704"]}, "phone": "+15108438277", "display_phone": "(510) 843-8277", "distance": 19148.742516612678}, {"id": "Xdx2_n3nk9Td_aSe7E5ARQ", "alias": "rich-table-san-francisco", "name": "Rich Table", "image_url": "https://s3-media4.fl.yelpcdn.com/bphoto/rvIRMaMEDWyAQLqDgGOxBA/o.jpg", "is_closed": false, "url": "https://www.yelp.com/biz/rich-table-san-francisco?adjust_creative=Klanz-jboxl2XzqrjP6LLw&utm_campaign=yelp_api_v3&utm_medium=api_v3_business_search&utm_source=Klanz-jboxl2XzqrjP6LLw", "review_count": 1352, "categories": [{"alias": "newamerican", "title": "American (New)"}, {"alias": "cocktailbars", "title": "Cocktail Bars"}, {"alias": "wine_bars", "title": "Wine Bars"}], "rating": 4.0, "coordinates": {"latitude": 37.77485, "longitude": -122.42284}, "transactions": ["delivery"], "price": "$$$", "location": {"address1": "199 Gough St", "address2": null, "address3": "", "city": "San Francisco", "zip_code": "94102", "country": "US", "state": "CA", "display_address": ["199 Gough St", "San Francisco, CA 94102"]}, "phone": "+14153559085", "display_phone": "(415) 355-9085", "distance": 1961.4214691036389}, {"id": "a5wWyNSVNW5Pd0_uRF6OwQ", "alias": "west-coast-cafe-san-bruno", "name": "West Coast Cafe", "image_url": "https://s3-media1.fl.yelpcdn.com/bphoto/rxrpaMHRTryyNwIjYY5xdA/o.jpg", "is_closed": false, "url": "https://www.yelp.com/biz/west-coast-cafe-san-bruno?adjust_creative=Klanz-jboxl2XzqrjP6LLw&utm_campaign=yelp_api_v3&utm_medium=api_v3_business_search&utm_source=Klanz-jboxl2XzqrjP6LLw", "review_count": 327, "categories": [{"alias": "italian", "title": "Italian"}, {"alias": "coffee", "title": "Coffee & Tea"}], "rating": 4.0, "coordinates": {"latitude": 37.623477, "longitude": -122.410937}, "transactions": ["delivery"], "price": "$$", "location": {"address1": "466 San Mateo Ave", "address2": null, "address3": "", "city": "San Bruno", "zip_code": "94066", "country": "US", "state": "CA", "display_address": ["466 San Mateo Ave", "San Bruno, CA 94066"]}, "phone": "+16505881912", "display_phone": "(650) 588-1912", "distance": 15444.634557689451}, {"id": "iXjbvsGyhGttLRaV6shP1g", "alias": "credo-san-francisco", "name": "Credo", "image_url": "https://s3-media2.fl.yelpcdn.com/bphoto/d2VgkaGA_qWkJ1Z6ugbibA/o.jpg", "is_closed": false, "url": "https://www.yelp.com/biz/credo-san-francisco?adjust_creative=Klanz-jboxl2XzqrjP6LLw&utm_campaign=yelp_api_v3&utm_medium=api_v3_business_search&utm_source=Klanz-jboxl2XzqrjP6LLw", "review_count": 887, "categories": [{"alias": "italian", "title": "Italian"}], "rating": 4.0, "coordinates": {"latitude": 37.79217, "longitude": -122.40202}, "transactions": ["delivery", "pickup"], "price": "$$$", "location": {"address1": "360 Pine St", "address2": "", "address3": "", "city": "San Francisco", "zip_code": "94104", "country": "US", "state": "CA", "display_address": ["360 Pine St", "San Francisco, CA 94104"]}, "phone": "+14156930360", "display_phone": "(415) 693-0360", "distance": 4606.040252816923}, {"id": "IdxPbp0WPdmBhYysGRhxCQ", "alias": "nicks-restaurant-pacifica", "name": "Nick's Seashore Restaurant", "image_url": "https://s3-media2.fl.yelpcdn.com/bphoto/v1RCZ3FOMdbag8ShJRvByg/o.jpg", "is_closed": false, "url": "https://www.yelp.com/biz/nicks-restaurant-pacifica?adjust_creative=Klanz-jboxl2XzqrjP6LLw&utm_campaign=yelp_api_v3&utm_medium=api_v3_business_search&utm_source=Klanz-jboxl2XzqrjP6LLw", "review_count": 1354, "categories": [{"alias": "seafood", "title": "Seafood"}, {"alias": "lounges", "title": "Lounges"}], "rating": 3.5, "coordinates": {"latitude": 37.60909624258056, "longitude": -122.49694831165662}, "transactions": ["delivery", "pickup"], "price": "$$", "location": {"address1": "100 Rockaway Beach Ave", "address2": "", "address3": "", "city": "Pacifica", "zip_code": "94044", "country": "US", "state": "CA", "display_address": ["100 Rockaway Beach Ave", "Pacifica, CA 94044"]}, "phone": "+16503593900", "display_phone": "(650) 359-3900", "distance": 17699.422473542738}, {"id": "7kp4bobus_2hVlj5Hlv73A", "alias": "fiorella-polk-san-francisco", "name": "Fiorella -Polk", "image_url": "https://s3-media3.fl.yelpcdn.com/bphoto/WO3IR2agEqHFZHd__kvBJg/o.jpg", "is_closed": false, "url": "https://www.yelp.com/biz/fiorella-polk-san-francisco?adjust_creative=Klanz-jboxl2XzqrjP6LLw&utm_campaign=yelp_api_v3&utm_medium=api_v3_business_search&utm_source=Klanz-jboxl2XzqrjP6LLw", "review_count": 167, "categories": [{"alias": "pizza", "title": "Pizza"}, {"alias": "italian", "title": "Italian"}], "rating": 3.5, "coordinates": {"latitude": 37.79749, "longitude": -122.4218}, "transactions": ["delivery", "pickup"], "price": "$$", "location": {"address1": "2238 Polk St", "address2": null, "address3": "", "city": "San Francisco", "zip_code": "94109", "country": "US", "state": "CA", "display_address": ["2238 Polk St", "San Francisco, CA 94109"]}, "phone": "+14158297097", "display_phone": "(415) 829-7097", "distance": 4260.9219705293635}, {"id": "iVOrpINZYBTqqAGpaVFZOQ", "alias": "barbara-pinseria-and-cocktail-bar-san-francisco", "name": "Barbara Pinseria & Cocktail Bar", "image_url": "https://s3-media2.fl.yelpcdn.com/bphoto/LM8J07O_52q9WiU0FXshbg/o.jpg", "is_closed": false, "url": "https://www.yelp.com/biz/barbara-pinseria-and-cocktail-bar-san-francisco?adjust_creative=Klanz-jboxl2XzqrjP6LLw&utm_campaign=yelp_api_v3&utm_medium=api_v3_business_search&utm_source=Klanz-jboxl2XzqrjP6LLw", "review_count": 252, "categories": [{"alias": "cocktailbars", "title": "Cocktail Bars"}, {"alias": "italian", "title": "Italian"}, {"alias": "pizza", "title": "Pizza"}], "rating": 4.0, "coordinates": {"latitude": 37.7990091, "longitude": -122.4085804}, "transactions": ["delivery", "pickup", "restaurant_reservation"], "price": "$$", "location": {"address1": "431 Columbus Ave", "address2": "", "address3": null, "city": "San Francisco", "zip_code": "94133", "country": "US", "state": "CA", "display_address": ["431 Columbus Ave", "San Francisco, CA 94133"]}, "phone": "+14154453009", "display_phone": "(415) 445-3009", "distance": 4893.531501203155}, {"id": "EziYeY5tc3CVRLPXF-_McA", "alias": "da-flora-a-venetian-osteria-san-francisco", "name": "Da Flora-A Venetian Osteria", "image_url": "https://s3-media2.fl.yelpcdn.com/bphoto/NZaMXrwbi80aYNy5Mumh5Q/o.jpg", "is_closed": false, "url": "https://www.yelp.com/biz/da-flora-a-venetian-osteria-san-francisco?adjust_creative=Klanz-jboxl2XzqrjP6LLw&utm_campaign=yelp_api_v3&utm_medium=api_v3_business_search&utm_source=Klanz-jboxl2XzqrjP6LLw", "review_count": 319, "categories": [{"alias": "italian", "title": "Italian"}], "rating": 4.0, "coordinates": {"latitude": 37.8012275695801, "longitude": -122.411804199219}, "transactions": ["delivery"], "price": "$$$", "location": {"address1": "701 Columbus Ave", "address2": "", "address3": "", "city": "San Francisco", "zip_code": "94133", "country": "US", "state": "CA", "display_address": ["701 Columbus Ave", "San Francisco, CA 94133"]}, "phone": "+14159814664", "display_phone": "(415) 981-4664", "distance": 4979.291362882333}, {"id": "HECB3khkUffaD2zWCngLuw", "alias": "el-techo-san-francisco", "name": "El Techo", "image_url": "https://s3-media1.fl.yelpcdn.com/bphoto/YZZvDAXqRriZ4eWS6KIg1g/o.jpg", "is_closed": false, "url": "https://www.yelp.com/biz/el-techo-san-francisco?adjust_creative=Klanz-jboxl2XzqrjP6LLw&utm_campaign=yelp_api_v3&utm_medium=api_v3_business_search&utm_source=Klanz-jboxl2XzqrjP6LLw", "review_count": 2314, "categories": [{"alias": "latin", "title": "Latin American"}, {"alias": "cocktailbars", "title": "Cocktail Bars"}, {"alias": "breakfast_brunch", "title": "Breakfast & Brunch"}], "rating": 4.0, "coordinates": {"latitude": 37.75661, "longitude": -122.41927}, "transactions": ["restaurant_reservation"], "price": "$$", "location": {"address1": "2516 Mission St", "address2": "", "address3": "", "city": "San Francisco", "zip_code": "94110", "country": "US", "state": "CA", "display_address": ["2516 Mission St", "San Francisco, CA 94110"]}, "phone": "+14155506970", "display_phone": "(415) 550-6970", "distance": 1597.1825896380203}, {"id": "R72SULYnkuGiqZm8baqvVg", "alias": "heroic-italian-berkeley-2", "name": "Heroic Italian", "image_url": "https://s3-media2.fl.yelpcdn.com/bphoto/ebCCZ_RS3Cjkc1js9UCqFw/o.jpg", "is_closed": false, "url": "https://www.yelp.com/biz/heroic-italian-berkeley-2?adjust_creative=Klanz-jboxl2XzqrjP6LLw&utm_campaign=yelp_api_v3&utm_medium=api_v3_business_search&utm_source=Klanz-jboxl2XzqrjP6LLw", "review_count": 24, "categories": [{"alias": "italian", "title": "Italian"}, {"alias": "sandwiches", "title": "Sandwiches"}, {"alias": "salad", "title": "Salad"}], "rating": 5.0, "coordinates": {"latitude": 37.86782, "longitude": -122.26943}, "transactions": [], "location": {"address1": "2020 Kittredge St", "address2": "", "address3": null, "city": "Berkeley", "zip_code": "94704", "country": "US", "state": "CA", "display_address": ["2020 Kittredge St", "Berkeley, CA 94704"]}, "phone": "+16502245999", "display_phone": "(650) 224-5999", "distance": 18885.58816742101}, {"id": "AE7SGNX5msum5p-5kI2vaQ", "alias": "enoteca-molinari-oakland", "name": "Enoteca Molinari", "image_url": "https://s3-media1.fl.yelpcdn.com/bphoto/aW5itEu1Sv1oUOm3kmEBXA/o.jpg", "is_closed": false, "url": "https://www.yelp.com/biz/enoteca-molinari-oakland?adjust_creative=Klanz-jboxl2XzqrjP6LLw&utm_campaign=yelp_api_v3&utm_medium=api_v3_business_search&utm_source=Klanz-jboxl2XzqrjP6LLw", "review_count": 212, "categories": [{"alias": "italian", "title": "Italian"}, {"alias": "wine_bars", "title": "Wine Bars"}], "rating": 4.0, "coordinates": {"latitude": 37.84199, "longitude": -122.2512}, "transactions": ["delivery"], "price": "$$", "location": {"address1": "5474 College Ave", "address2": null, "address3": null, "city": "Oakland", "zip_code": "94618", "country": "US", "state": "CA", "display_address": ["5474 College Ave", "Oakland, CA 94618"]}, "phone": "+15104284078", "display_phone": "(510) 428-4078", "distance": 18607.504273527597}, {"id": "VyvrQn7j_YfsxKkFl7T3ww", "alias": "pasquales-pizza-san-francisco-2", "name": "Pasquale's Pizza", "image_url": "https://s3-media3.fl.yelpcdn.com/bphoto/3LZehLXPouP7ZAj23jNgzQ/o.jpg", "is_closed": false, "url": "https://www.yelp.com/biz/pasquales-pizza-san-francisco-2?adjust_creative=Klanz-jboxl2XzqrjP6LLw&utm_campaign=yelp_api_v3&utm_medium=api_v3_business_search&utm_source=Klanz-jboxl2XzqrjP6LLw", "review_count": 1026, "categories": [{"alias": "pizza", "title": "Pizza"}, {"alias": "italian", "title": "Italian"}], "rating": 3.5, "coordinates": {"latitude": 37.76422, "longitude": -122.46552}, "transactions": ["delivery"], "price": "$$", "location": {"address1": "700 Irving St", "address2": "", "address3": "", "city": "San Francisco", "zip_code": "94122", "country": "US", "state": "CA", "display_address": ["700 Irving St", "San Francisco, CA 94122"]}, "phone": "+14156612140", "display_phone": "(415) 661-2140", "distance": 2578.1457271078766}, {"id": "GjdLppkFQODOiV4DQZ5EyA", "alias": "victors-pizzeria-and-italian-restaurant-san-francisco", "name": "Victor's Pizzeria & Italian Restaurant", "image_url": "https://s3-media4.fl.yelpcdn.com/bphoto/lAdI5WGgAyyw3oCapR6NDA/o.jpg", "is_closed": false, "url": "https://www.yelp.com/biz/victors-pizzeria-and-italian-restaurant-san-francisco?adjust_creative=Klanz-jboxl2XzqrjP6LLw&utm_campaign=yelp_api_v3&utm_medium=api_v3_business_search&utm_source=Klanz-jboxl2XzqrjP6LLw", "review_count": 1040, "categories": [{"alias": "pizza", "title": "Pizza"}, {"alias": "italian", "title": "Italian"}], "rating": 4.0, "coordinates": {"latitude": 37.78991, "longitude": -122.42073}, "transactions": ["delivery", "pickup"], "price": "$$", "location": {"address1": "1411 Polk St", "address2": "", "address3": "", "city": "San Francisco", "zip_code": "94109", "country": "US", "state": "CA", "display_address": ["1411 Polk St", "San Francisco, CA 94109"]}, "phone": "+14158851660", "display_phone": "(415) 885-1660", "distance": 3503.900040002547}, {"id": "i_OkjtKWm02Upc-PlcUrrg", "alias": "firefly-restaurant-san-francisco-4", "name": "Firefly Restaurant", "image_url": "https://s3-media1.fl.yelpcdn.com/bphoto/MkZ_6t3-TaKPALuZCQfYGg/o.jpg", "is_closed": false, "url": "https://www.yelp.com/biz/firefly-restaurant-san-francisco-4?adjust_creative=Klanz-jboxl2XzqrjP6LLw&utm_campaign=yelp_api_v3&utm_medium=api_v3_business_search&utm_source=Klanz-jboxl2XzqrjP6LLw", "review_count": 1482, "categories": [{"alias": "newamerican", "title": "American (New)"}, {"alias": "desserts", "title": "Desserts"}, {"alias": "soup", "title": "Soup"}], "rating": 4.0, "coordinates": {"latitude": 37.751206, "longitude": -122.438189}, "transactions": ["delivery"], "price": "$$$", "location": {"address1": "4288 24th St", "address2": "", "address3": "", "city": "San Francisco", "zip_code": "94114", "country": "US", "state": "CA", "display_address": ["4288 24th St", "San Francisco, CA 94114"]}, "phone": "+14158217652", "display_phone": "(415) 821-7652", "distance": 1088.6781106661263}, {"id": "gNK0I5bJo8Rw-yB8FmvQBA", "alias": "angler-san-francisco", "name": "Angler", "image_url": "https://s3-media1.fl.yelpcdn.com/bphoto/-ATwhMtUpAnWrC8x0YN1Ew/o.jpg", "is_closed": false, "url": "https://www.yelp.com/biz/angler-san-francisco?adjust_creative=Klanz-jboxl2XzqrjP6LLw&utm_campaign=yelp_api_v3&utm_medium=api_v3_business_search&utm_source=Klanz-jboxl2XzqrjP6LLw", "review_count": 403, "categories": [{"alias": "seafood", "title": "Seafood"}, {"alias": "steak", "title": "Steakhouses"}], "rating": 3.5, "coordinates": {"latitude": 37.79307, "longitude": -122.39212}, "transactions": ["delivery"], "price": "$$$$", "location": {"address1": "132 The Embarcadero", "address2": "", "address3": null, "city": "San Francisco", "zip_code": "94105", "country": "US", "state": "CA", "display_address": ["132 The Embarcadero", "San Francisco, CA 94105"]}, "phone": "+14158729442", "display_phone": "(415) 872-9442", "distance": 5266.5358080537935}, {"id": "t6wzJXlR5jKBNnvYQ_3tmQ", "alias": "giannis-north-beach-san-francisco-2", "name": "Gianni's North Beach", "image_url": "https://s3-media3.fl.yelpcdn.com/bphoto/tuM666qBiyeCU48-c_wM4A/o.jpg", "is_closed": false, "url": "https://www.yelp.com/biz/giannis-north-beach-san-francisco-2?adjust_creative=Klanz-jboxl2XzqrjP6LLw&utm_campaign=yelp_api_v3&utm_medium=api_v3_business_search&utm_source=Klanz-jboxl2XzqrjP6LLw", "review_count": 7, "categories": [{"alias": "catering", "title": "Caterers"}, {"alias": "personalchefs", "title": "Personal Chefs"}], "rating": 5.0, "coordinates": {"latitude": 37.801426, "longitude": -122.4097386}, "transactions": [], "location": {"address1": "666 Filbert St", "address2": null, "address3": "", "city": "San Francisco", "zip_code": "94133", "country": "US", "state": "CA", "display_address": ["666 Filbert St", "San Francisco, CA 94133"]}, "phone": "+16502419462", "display_phone": "(650) 241-9462", "distance": 5081.0153332971195}, {"id": "HWWXRD3KWJRB-WBuXX9RKQ", "alias": "capannina-san-francisco", "name": "Capannina", "image_url": "https://s3-media2.fl.yelpcdn.com/bphoto/CAOW7HPd9cL6ybBaprlskA/o.jpg", "is_closed": false, "url": "https://www.yelp.com/biz/capannina-san-francisco?adjust_creative=Klanz-jboxl2XzqrjP6LLw&utm_campaign=yelp_api_v3&utm_medium=api_v3_business_search&utm_source=Klanz-jboxl2XzqrjP6LLw", "review_count": 833, "categories": [{"alias": "italian", "title": "Italian"}], "rating": 4.0, "coordinates": {"latitude": 37.7978485037922, "longitude": -122.42916753235}, "transactions": ["delivery"], "price": "$$$", "location": {"address1": "1809 Union St", "address2": "", "address3": "", "city": "San Francisco", "zip_code": "94123", "country": "US", "state": "CA", "display_address": ["1809 Union St", "San Francisco, CA 94123"]}, "phone": "+14154098001", "display_phone": "(415) 409-8001", "distance": 4153.174449310591}, {"id": "IJk76B-pTta_klpAZcpQdA", "alias": "lous-cafe-san-francisco", "name": "Lou's Cafe", "image_url": "https://s3-media1.fl.yelpcdn.com/bphoto/UgwBr0vhX6fSNT_ILMeJvg/o.jpg", "is_closed": false, "url": "https://www.yelp.com/biz/lous-cafe-san-francisco?adjust_creative=Klanz-jboxl2XzqrjP6LLw&utm_campaign=yelp_api_v3&utm_medium=api_v3_business_search&utm_source=Klanz-jboxl2XzqrjP6LLw", "review_count": 1690, "categories": [{"alias": "coffee", "title": "Coffee & Tea"}, {"alias": "sandwiches", "title": "Sandwiches"}, {"alias": "salad", "title": "Salad"}], "rating": 4.5, "coordinates": {"latitude": 37.78045, "longitude": -122.47329246476227}, "transactions": ["delivery", "pickup"], "price": "$", "location": {"address1": "5017 Geary Blvd", "address2": "", "address3": "", "city": "San Francisco", "zip_code": "94118", "country": "US", "state": "CA", "display_address": ["5017 Geary Blvd", "San Francisco, CA 94118"]}, "phone": "+14153794429", "display_phone": "(415) 379-4429", "distance": 3900.538753851329}, {"id": "527usXXrlHi46bs54IFRTQ", "alias": "crepevine-restaurants-san-francisco", "name": "Crepevine Restaurants", "image_url": "https://s3-media3.fl.yelpcdn.com/bphoto/aHbzo2vP4W7bnsQJJDy5aQ/o.jpg", "is_closed": false, "url": "https://www.yelp.com/biz/crepevine-restaurants-san-francisco?adjust_creative=Klanz-jboxl2XzqrjP6LLw&utm_campaign=yelp_api_v3&utm_medium=api_v3_business_search&utm_source=Klanz-jboxl2XzqrjP6LLw", "review_count": 1654, "categories": [{"alias": "creperies", "title": "Creperies"}, {"alias": "breakfast_brunch", "title": "Breakfast & Brunch"}, {"alias": "newamerican", "title": "American (New)"}], "rating": 4.0, "coordinates": {"latitude": 37.76435, "longitude": -122.46467}, "transactions": ["delivery", "pickup"], "price": "$$", "location": {"address1": "624 Irving St", "address2": "", "address3": "", "city": "San Francisco", "zip_code": "94122", "country": "US", "state": "CA", "display_address": ["624 Irving St", "San Francisco, CA 94122"]}, "phone": "+14156815858", "display_phone": "(415) 681-5858", "distance": 2509.754214169448}, {"id": "RidAKsznqdoeg8Vbg5aaHw", "alias": "lale-san-francisco-2", "name": "LaLe", "image_url": "https://s3-media2.fl.yelpcdn.com/bphoto/9_Q-F1Lc6eEGyAvfB4s7fw/o.jpg", "is_closed": false, "url": "https://www.yelp.com/biz/lale-san-francisco-2?adjust_creative=Klanz-jboxl2XzqrjP6LLw&utm_campaign=yelp_api_v3&utm_medium=api_v3_business_search&utm_source=Klanz-jboxl2XzqrjP6LLw", "review_count": 537, "categories": [{"alias": "breakfast_brunch", "title": "Breakfast & Brunch"}, {"alias": "mediterranean", "title": "Mediterranean"}, {"alias": "tapasmallplates", "title": "Tapas/Small Plates"}], "rating": 4.0, "coordinates": {"latitude": 37.763813, "longitude": -122.465797}, "transactions": ["delivery", "pickup"], "price": "$$", "location": {"address1": "731 Irving St", "address2": null, "address3": "", "city": "San Francisco", "zip_code": "94122", "country": "US", "state": "CA", "display_address": ["731 Irving St", "San Francisco, CA 94122"]}, "phone": "+14155668814", "display_phone": "(415) 566-8814", "distance": 2601.618391527339}, {"id": "gwuCZV_4nIwevDenicG8tw", "alias": "heirloom-cafe-san-francisco", "name": "Heirloom Cafe", "image_url": "https://s3-media1.fl.yelpcdn.com/bphoto/Wkm_NTsvo4DQKfvBszBurA/o.jpg", "is_closed": false, "url": "https://www.yelp.com/biz/heirloom-cafe-san-francisco?adjust_creative=Klanz-jboxl2XzqrjP6LLw&utm_campaign=yelp_api_v3&utm_medium=api_v3_business_search&utm_source=Klanz-jboxl2XzqrjP6LLw", "review_count": 506, "categories": [{"alias": "newamerican", "title": "American (New)"}, {"alias": "french", "title": "French"}, {"alias": "wine_bars", "title": "Wine Bars"}], "rating": 4.0, "coordinates": {"latitude": 37.757116, "longitude": -122.414812}, "transactions": ["delivery"], "price": "$$$", "location": {"address1": "2500 Folsom St", "address2": "", "address3": "", "city": "San Francisco", "zip_code": "94110", "country": "US", "state": "CA", "display_address": ["2500 Folsom St", "San Francisco, CA 94110"]}, "phone": "+14158212500", "display_phone": "(415) 821-2500", "distance": 1947.9138934576406}, {"id": "tpuKzQh5d6veDB-M9qU6Fw", "alias": "chouchou-french-bistro-san-francisco", "name": "ChouChou French Bistro", "image_url": "https://s3-media3.fl.yelpcdn.com/bphoto/Ia1De_uA77wXPjhBJzGkWQ/o.jpg", "is_closed": false, "url": "https://www.yelp.com/biz/chouchou-french-bistro-san-francisco?adjust_creative=Klanz-jboxl2XzqrjP6LLw&utm_campaign=yelp_api_v3&utm_medium=api_v3_business_search&utm_source=Klanz-jboxl2XzqrjP6LLw", "review_count": 1269, "categories": [{"alias": "french", "title": "French"}], "rating": 4.0, "coordinates": {"latitude": 37.74738, "longitude": -122.45952}, "transactions": ["delivery", "pickup"], "price": "$$$", "location": {"address1": "400 Dewey Blvd", "address2": "", "address3": "", "city": "San Francisco", "zip_code": "94116", "country": "US", "state": "CA", "display_address": ["400 Dewey Blvd", "San Francisco, CA 94116"]}, "phone": "+14152420960", "display_phone": "(415) 242-0960", "distance": 2511.148649391342}, {"id": "hGTU8p-L_DzXtxiMKACLrA", "alias": "the-spinnaker-sausalito", "name": "The Spinnaker", "image_url": "https://s3-media2.fl.yelpcdn.com/bphoto/0WspweCr0RgjGikzZzPeFA/o.jpg", "is_closed": false, "url": "https://www.yelp.com/biz/the-spinnaker-sausalito?adjust_creative=Klanz-jboxl2XzqrjP6LLw&utm_campaign=yelp_api_v3&utm_medium=api_v3_business_search&utm_source=Klanz-jboxl2XzqrjP6LLw", "review_count": 1114, "categories": [{"alias": "breakfast_brunch", "title": "Breakfast & Brunch"}, {"alias": "wine_bars", "title": "Wine Bars"}, {"alias": "desserts", "title": "Desserts"}], "rating": 3.0, "coordinates": {"latitude": 37.85893542340574, "longitude": -122.47816907975907}, "transactions": ["delivery"], "price": "$$$", "location": {"address1": "100 Spinnaker Dr", "address2": "", "address3": "", "city": "Sausalito", "zip_code": "94965", "country": "US", "state": "CA", "display_address": ["100 Spinnaker Dr", "Sausalito, CA 94965"]}, "phone": "+14153321500", "display_phone": "(415) 332-1500", "distance": 11500.779645975268}, {"id": "bX9oEDq6qvQuuf6sxbfwVw", "alias": "kezar-pizzetta-san-francisco-2", "name": "Kezar Pizzetta", "image_url": "https://s3-media1.fl.yelpcdn.com/bphoto/obtKIEkvhYdH1SS_M0LG4g/o.jpg", "is_closed": false, "url": "https://www.yelp.com/biz/kezar-pizzetta-san-francisco-2?adjust_creative=Klanz-jboxl2XzqrjP6LLw&utm_campaign=yelp_api_v3&utm_medium=api_v3_business_search&utm_source=Klanz-jboxl2XzqrjP6LLw", "review_count": 179, "categories": [{"alias": "pizza", "title": "Pizza"}], "rating": 4.0, "coordinates": {"latitude": 37.7657496362728, "longitude": -122.457202844106}, "transactions": ["delivery", "pickup"], "price": "$$", "location": {"address1": "775 Frederick St", "address2": "", "address3": "", "city": "San Francisco", "zip_code": "94117", "country": "US", "state": "CA", "display_address": ["775 Frederick St", "San Francisco, CA 94117"]}, "phone": "+14156657700", "display_phone": "(415) 665-7700", "distance": 1902.5661012837033}, {"id": "xO2V0wkXP3Na-mWhLo1ZxQ", "alias": "cocotte-san-francisco", "name": "Cocotte", "image_url": "https://s3-media2.fl.yelpcdn.com/bphoto/D2DIWhNuZ9jKRM4GyKAHXA/o.jpg", "is_closed": false, "url": "https://www.yelp.com/biz/cocotte-san-francisco?adjust_creative=Klanz-jboxl2XzqrjP6LLw&utm_campaign=yelp_api_v3&utm_medium=api_v3_business_search&utm_source=Klanz-jboxl2XzqrjP6LLw", "review_count": 583, "categories": [{"alias": "french", "title": "French"}, {"alias": "wine_bars", "title": "Wine Bars"}], "rating": 4.0, "coordinates": {"latitude": 37.7948581, "longitude": -122.4183072}, "transactions": ["pickup"], "price": "$$$", "location": {"address1": "1521 Hyde St", "address2": "", "address3": "", "city": "San Francisco", "zip_code": "94109", "country": "US", "state": "CA", "display_address": ["1521 Hyde St", "San Francisco, CA 94109"]}, "phone": "", "display_phone": "", "distance": 4098.7955712438525}, {"id": "JbY2ui85qe5JZ2eRuc6vnQ", "alias": "eno-wine-bar-san-francisco-san-francisco", "name": "ENO Wine Bar, San Francisco", "image_url": "https://s3-media1.fl.yelpcdn.com/bphoto/EJKeJ_KVJy6-fPq0kqN-hg/o.jpg", "is_closed": false, "url": "https://www.yelp.com/biz/eno-wine-bar-san-francisco-san-francisco?adjust_creative=Klanz-jboxl2XzqrjP6LLw&utm_campaign=yelp_api_v3&utm_medium=api_v3_business_search&utm_source=Klanz-jboxl2XzqrjP6LLw", "review_count": 444, "categories": [{"alias": "wine_bars", "title": "Wine Bars"}], "rating": 4.5, "coordinates": {"latitude": 37.78776, "longitude": -122.40876}, "transactions": ["delivery"], "price": "$$", "location": {"address1": "320 Geary St", "address2": null, "address3": "", "city": "San Francisco", "zip_code": "94102", "country": "US", "state": "CA", "display_address": ["320 Geary St", "San Francisco, CA 94102"]}, "phone": "+14159326589", "display_phone": "(415) 932-6589", "distance": 3827.0455822660406}, {"id": "m0ip9nECwVVjfjulwrKisQ", "alias": "15-romolo-san-francisco", "name": "15 Romolo", "image_url": "https://s3-media1.fl.yelpcdn.com/bphoto/aUvJW-733X-1CsFpb8VA_w/o.jpg", "is_closed": false, "url": "https://www.yelp.com/biz/15-romolo-san-francisco?adjust_creative=Klanz-jboxl2XzqrjP6LLw&utm_campaign=yelp_api_v3&utm_medium=api_v3_business_search&utm_source=Klanz-jboxl2XzqrjP6LLw", "review_count": 1076, "categories": [{"alias": "tapasmallplates", "title": "Tapas/Small Plates"}, {"alias": "cocktailbars", "title": "Cocktail Bars"}], "rating": 4.0, "coordinates": {"latitude": 37.798247282930475, "longitude": -122.40636704800524}, "transactions": ["delivery"], "price": "$$", "location": {"address1": "15 Romolo Pl", "address2": "", "address3": "", "city": "San Francisco", "zip_code": "94133", "country": "US", "state": "CA", "display_address": ["15 Romolo Pl", "San Francisco, CA 94133"]}, "phone": "+14153981359", "display_phone": "(415) 398-1359", "distance": 4922.919788692605}, {"id": "yJjTCZ_WWCeznEWRM-Majg", "alias": "cybelles-front-room-san-francisco", "name": "CyBelle's Front Room", "image_url": "https://s3-media2.fl.yelpcdn.com/bphoto/sABU6jgUprnS6-spoyub1g/o.jpg", "is_closed": false, "url": "https://www.yelp.com/biz/cybelles-front-room-san-francisco?adjust_creative=Klanz-jboxl2XzqrjP6LLw&utm_campaign=yelp_api_v3&utm_medium=api_v3_business_search&utm_source=Klanz-jboxl2XzqrjP6LLw", "review_count": 803, "categories": [{"alias": "pizza", "title": "Pizza"}, {"alias": "italian", "title": "Italian"}, {"alias": "salad", "title": "Salad"}], "rating": 4.0, "coordinates": {"latitude": 37.76238, "longitude": -122.46641}, "transactions": ["delivery", "pickup"], "price": "$$", "location": {"address1": "1385 9th Ave", "address2": "", "address3": "", "city": "San Francisco", "zip_code": "94122", "country": "US", "state": "CA", "display_address": ["1385 9th Ave", "San Francisco, CA 94122"]}, "phone": "+14156658088", "display_phone": "(415) 665-8088", "distance": 2640.8945573415176}, {"id": "iXoLJWjbcXCO43RT-H0uQQ", "alias": "jaranita-san-francisco-4", "name": "Jaranita", "image_url": "https://s3-media3.fl.yelpcdn.com/bphoto/jgM34JZztq7h1LU1zoUuUg/o.jpg", "is_closed": false, "url": "https://www.yelp.com/biz/jaranita-san-francisco-4?adjust_creative=Klanz-jboxl2XzqrjP6LLw&utm_campaign=yelp_api_v3&utm_medium=api_v3_business_search&utm_source=Klanz-jboxl2XzqrjP6LLw", "review_count": 173, "categories": [{"alias": "peruvian", "title": "Peruvian"}, {"alias": "latin", "title": "Latin American"}, {"alias": "cocktailbars", "title": "Cocktail Bars"}], "rating": 4.5, "coordinates": {"latitude": 37.80024, "longitude": -122.437539}, "transactions": ["delivery", "pickup", "restaurant_reservation"], "location": {"address1": "3340 Steiner St", "address2": null, "address3": "", "city": "San Francisco", "zip_code": "94123", "country": "US", "state": "CA", "display_address": ["3340 Steiner St", "San Francisco, CA 94123"]}, "phone": "+14156559585", "display_phone": "(415) 655-9585", "distance": 4375.67008536983}, {"id": "QjnmVuqVArA7d-syiUCiUw", "alias": "arinell-pizza-san-francisco", "name": "Arinell Pizza", "image_url": "https://s3-media1.fl.yelpcdn.com/bphoto/V8KOHsMSZKy6qA-72nusdA/o.jpg", "is_closed": false, "url": "https://www.yelp.com/biz/arinell-pizza-san-francisco?adjust_creative=Klanz-jboxl2XzqrjP6LLw&utm_campaign=yelp_api_v3&utm_medium=api_v3_business_search&utm_source=Klanz-jboxl2XzqrjP6LLw", "review_count": 1223, "categories": [{"alias": "pizza", "title": "Pizza"}], "rating": 4.0, "coordinates": {"latitude": 37.7646907195257, "longitude": -122.421712145927}, "transactions": ["delivery", "pickup"], "price": "$", "location": {"address1": "509 Valencia St", "address2": "", "address3": "", "city": "San Francisco", "zip_code": "94110", "country": "US", "state": "CA", "display_address": ["509 Valencia St", "San Francisco, CA 94110"]}, "phone": "+14152551303", "display_phone": "(415) 255-1303", "distance": 1362.1639642253808}, {"id": "deDtn5INFHv8FNYty03hLQ", "alias": "cafe-tiramisu-san-francisco", "name": "Cafe Tiramisu", "image_url": "https://s3-media2.fl.yelpcdn.com/bphoto/q2Yf61fL3LknbwlSCWDjjQ/o.jpg", "is_closed": false, "url": "https://www.yelp.com/biz/cafe-tiramisu-san-francisco?adjust_creative=Klanz-jboxl2XzqrjP6LLw&utm_campaign=yelp_api_v3&utm_medium=api_v3_business_search&utm_source=Klanz-jboxl2XzqrjP6LLw", "review_count": 730, "categories": [{"alias": "italian", "title": "Italian"}, {"alias": "seafood", "title": "Seafood"}], "rating": 3.5, "coordinates": {"latitude": 37.79121, "longitude": -122.40361}, "transactions": ["delivery", "pickup"], "price": "$$", "location": {"address1": "28 Belden Pl", "address2": "", "address3": "", "city": "San Francisco", "zip_code": "94104", "country": "US", "state": "CA", "display_address": ["28 Belden Pl", "San Francisco, CA 94104"]}, "phone": "+14154217044", "display_phone": "(415) 421-7044", "distance": 4437.703882791126}, {"id": "qfdWWJCMvoTKI8u7rshm_Q", "alias": "tempest-san-francisco", "name": "Tempest", "image_url": "https://s3-media2.fl.yelpcdn.com/bphoto/dfvlqtumoZJ-rSid9ixeIQ/o.jpg", "is_closed": false, "url": "https://www.yelp.com/biz/tempest-san-francisco?adjust_creative=Klanz-jboxl2XzqrjP6LLw&utm_campaign=yelp_api_v3&utm_medium=api_v3_business_search&utm_source=Klanz-jboxl2XzqrjP6LLw", "review_count": 746, "categories": [{"alias": "tradamerican", "title": "American (Traditional)"}, {"alias": "divebars", "title": "Dive Bars"}, {"alias": "sportsbars", "title": "Sports Bars"}], "rating": 4.0, "coordinates": {"latitude": 37.7812215727578, "longitude": -122.40627989109}, "transactions": ["delivery", "pickup"], "price": "$$", "location": {"address1": "431 Natoma St", "address2": "", "address3": "", "city": "San Francisco", "zip_code": "94103", "country": "US", "state": "CA", "display_address": ["431 Natoma St", "San Francisco, CA 94103"]}, "phone": "+14154951863", "display_phone": "(415) 495-1863", "distance": 3483.8408547123454}, {"id": "T9gojhwwpn8JHXxkHsKAxQ", "alias": "leatherneck-steakhouse-san-francisco-3", "name": "Leatherneck Steakhouse", "image_url": "https://s3-media4.fl.yelpcdn.com/bphoto/-jTuvHX18_iYCvLqUruSyw/o.jpg", "is_closed": false, "url": "https://www.yelp.com/biz/leatherneck-steakhouse-san-francisco-3?adjust_creative=Klanz-jboxl2XzqrjP6LLw&utm_campaign=yelp_api_v3&utm_medium=api_v3_business_search&utm_source=Klanz-jboxl2XzqrjP6LLw", "review_count": 322, "categories": [{"alias": "steak", "title": "Steakhouses"}], "rating": 4.0, "coordinates": {"latitude": 37.78884276167233, "longitude": -122.41047360213801}, "transactions": ["delivery"], "price": "$$$", "location": {"address1": "609 Sutter St", "address2": "", "address3": "The Marines Memorial Club and Hotel", "city": "San Francisco", "zip_code": "94102", "country": "US", "state": "CA", "display_address": ["609 Sutter St", "The Marines Memorial Club and Hotel", "San Francisco, CA 94102"]}, "phone": "+14156736672", "display_phone": "(415) 673-6672", "distance": 3855.618153621675}, {"id": "NcXfS-AbgTM9Hjfz2bmMRQ", "alias": "ti-piacera-san-francisco-6", "name": "Ti Piacera Ristorante", "image_url": "https://s3-media1.fl.yelpcdn.com/bphoto/01hiEHapNWmw1uP5OiAiow/o.jpg", "is_closed": false, "url": "https://www.yelp.com/biz/ti-piacera-san-francisco-6?adjust_creative=Klanz-jboxl2XzqrjP6LLw&utm_campaign=yelp_api_v3&utm_medium=api_v3_business_search&utm_source=Klanz-jboxl2XzqrjP6LLw", "review_count": 470, "categories": [{"alias": "italian", "title": "Italian"}, {"alias": "cocktailbars", "title": "Cocktail Bars"}, {"alias": "mediterranean", "title": "Mediterranean"}], "rating": 3.5, "coordinates": {"latitude": 37.7907291, "longitude": -122.4208785}, "transactions": ["delivery", "pickup"], "price": "$$", "location": {"address1": "1507 Polk St", "address2": "", "address3": "", "city": "San Francisco", "zip_code": "94109", "country": "US", "state": "CA", "display_address": ["1507 Polk St", "San Francisco, CA 94109"]}, "phone": "+14157719946", "display_phone": "(415) 771-9946", "distance": 3591.4487217143806}, {"id": "OLs6GNr-XE1niKsSkzy9uw", "alias": "skates-on-the-bay-berkeley", "name": "Skates On The Bay", "image_url": "https://s3-media1.fl.yelpcdn.com/bphoto/NOMMsMQVZDGIGS6FHQ9qWg/o.jpg", "is_closed": false, "url": "https://www.yelp.com/biz/skates-on-the-bay-berkeley?adjust_creative=Klanz-jboxl2XzqrjP6LLw&utm_campaign=yelp_api_v3&utm_medium=api_v3_business_search&utm_source=Klanz-jboxl2XzqrjP6LLw", "review_count": 2484, "categories": [{"alias": "seafood", "title": "Seafood"}, {"alias": "tradamerican", "title": "American (Traditional)"}, {"alias": "sushi", "title": "Sushi Bars"}], "rating": 3.5, "coordinates": {"latitude": 37.8636571404776, "longitude": -122.318021}, "transactions": ["delivery", "pickup"], "price": "$$$", "location": {"address1": "100 Seawall Dr", "address2": "", "address3": "", "city": "Berkeley", "zip_code": "94710", "country": "US", "state": "CA", "display_address": ["100 Seawall Dr", "Berkeley, CA 94710"]}, "phone": "+15105491900", "display_phone": "(510) 549-1900", "distance": 15452.685070085428}, {"id": "GjIO1jUDyaRwV0nS7WfQ7Q", "alias": "bellota-san-francisco", "name": "Bellota", "image_url": "https://s3-media2.fl.yelpcdn.com/bphoto/z07ENL90PgmfWiFxf6VHcg/o.jpg", "is_closed": false, "url": "https://www.yelp.com/biz/bellota-san-francisco?adjust_creative=Klanz-jboxl2XzqrjP6LLw&utm_campaign=yelp_api_v3&utm_medium=api_v3_business_search&utm_source=Klanz-jboxl2XzqrjP6LLw", "review_count": 696, "categories": [{"alias": "spanish", "title": "Spanish"}, {"alias": "seafood", "title": "Seafood"}, {"alias": "tapas", "title": "Tapas Bars"}], "rating": 4.0, "coordinates": {"latitude": 37.772, "longitude": -122.40526}, "transactions": ["delivery"], "price": "$$$", "location": {"address1": "888 Brannan St", "address2": null, "address3": null, "city": "San Francisco", "zip_code": "94103", "country": "US", "state": "CA", "display_address": ["888 Brannan St", "San Francisco, CA 94103"]}, "phone": "+14154306580", "display_phone": "(415) 430-6580", "distance": 3022.413005035873}, {"id": "qMqICQu43f5GcnD9aMBMAA", "alias": "gino-and-carlo-cocktail-lounge-san-francisco", "name": "Gino & Carlo Cocktail Lounge", "image_url": "https://s3-media1.fl.yelpcdn.com/bphoto/2KY7fPIxDnqGC5T0LfGf6g/o.jpg", "is_closed": false, "url": "https://www.yelp.com/biz/gino-and-carlo-cocktail-lounge-san-francisco?adjust_creative=Klanz-jboxl2XzqrjP6LLw&utm_campaign=yelp_api_v3&utm_medium=api_v3_business_search&utm_source=Klanz-jboxl2XzqrjP6LLw", "review_count": 161, "categories": [{"alias": "lounges", "title": "Lounges"}, {"alias": "sportsbars", "title": "Sports Bars"}], "rating": 4.0, "coordinates": {"latitude": 37.79983, "longitude": -122.40814}, "transactions": [], "price": "$$", "location": {"address1": "548 Green St", "address2": "", "address3": "", "city": "San Francisco", "zip_code": "94133", "country": "US", "state": "CA", "display_address": ["548 Green St", "San Francisco, CA 94133"]}, "phone": "+14154210896", "display_phone": "(415) 421-0896", "distance": 4994.829619373466}, {"id": "imuT3pLHVFscv_z74lGYDQ", "alias": "marina-deli-and-liquor-san-francisco", "name": "Marina Deli & Liquor", "image_url": "https://s3-media2.fl.yelpcdn.com/bphoto/VRHB0ZO6lAKDmb34XJeipQ/o.jpg", "is_closed": false, "url": "https://www.yelp.com/biz/marina-deli-and-liquor-san-francisco?adjust_creative=Klanz-jboxl2XzqrjP6LLw&utm_campaign=yelp_api_v3&utm_medium=api_v3_business_search&utm_source=Klanz-jboxl2XzqrjP6LLw", "review_count": 287, "categories": [{"alias": "delis", "title": "Delis"}, {"alias": "breakfast_brunch", "title": "Breakfast & Brunch"}, {"alias": "sandwiches", "title": "Sandwiches"}], "rating": 4.5, "coordinates": {"latitude": 37.8001671284437, "longitude": -122.441009581089}, "transactions": ["delivery", "pickup"], "price": "$", "location": {"address1": "2299 Chestnut St", "address2": null, "address3": "", "city": "San Francisco", "zip_code": "94123", "country": "US", "state": "CA", "display_address": ["2299 Chestnut St", "San Francisco, CA 94123"]}, "phone": "+14153467800", "display_phone": "(415) 346-7800", "distance": 4377.231110047934}, {"id": "N3pFchYNlKUD86nLFMjJAw", "alias": "the-old-clam-house-san-francisco", "name": "The Old Clam House", "image_url": "https://s3-media2.fl.yelpcdn.com/bphoto/pPvg9sYc7wp-RQ1iq1uMow/o.jpg", "is_closed": false, "url": "https://www.yelp.com/biz/the-old-clam-house-san-francisco?adjust_creative=Klanz-jboxl2XzqrjP6LLw&utm_campaign=yelp_api_v3&utm_medium=api_v3_business_search&utm_source=Klanz-jboxl2XzqrjP6LLw", "review_count": 842, "categories": [{"alias": "seafood", "title": "Seafood"}, {"alias": "tradamerican", "title": "American (Traditional)"}, {"alias": "cocktailbars", "title": "Cocktail Bars"}], "rating": 3.5, "coordinates": {"latitude": 37.743104492865, "longitude": -122.404920842484}, "transactions": ["delivery"], "price": "$$", "location": {"address1": "299 Bayshore Blvd", "address2": "", "address3": "", "city": "San Francisco", "zip_code": "94124", "country": "US", "state": "CA", "display_address": ["299 Bayshore Blvd", "San Francisco, CA 94124"]}, "phone": "+14158264880", "display_phone": "(415) 826-4880", "distance": 3405.5500193895928}, {"id": "4MJp_WZa6zFx4N6fL9RDMg", "alias": "red-window-san-francisco", "name": "Red Window", "image_url": "https://s3-media1.fl.yelpcdn.com/bphoto/z4InWBPR6JhlpZDCiskUpQ/o.jpg", "is_closed": false, "url": "https://www.yelp.com/biz/red-window-san-francisco?adjust_creative=Klanz-jboxl2XzqrjP6LLw&utm_campaign=yelp_api_v3&utm_medium=api_v3_business_search&utm_source=Klanz-jboxl2XzqrjP6LLw", "review_count": 84, "categories": [{"alias": "spanish", "title": "Spanish"}, {"alias": "cocktailbars", "title": "Cocktail Bars"}], "rating": 4.0, "coordinates": {"latitude": 37.799821, "longitude": -122.409242}, "transactions": [], "location": {"address1": "500 Columbus Ave", "address2": null, "address3": "", "city": "San Francisco", "zip_code": "94133", "country": "US", "state": "CA", "display_address": ["500 Columbus Ave", "San Francisco, CA 94133"]}, "phone": "+14157570600", "display_phone": "(415) 757-0600", "distance": 4947.118535306635}, {"id": "pgO1Q4cEh4u_MZT5hQ4y_w", "alias": "karaweik-burmese-cuisine-san-francisco", "name": "Karaweik Burmese Cuisine", "image_url": "https://s3-media1.fl.yelpcdn.com/bphoto/cY7YJXAq4Oml9TKLHZ3-iw/o.jpg", "is_closed": false, "url": "https://www.yelp.com/biz/karaweik-burmese-cuisine-san-francisco?adjust_creative=Klanz-jboxl2XzqrjP6LLw&utm_campaign=yelp_api_v3&utm_medium=api_v3_business_search&utm_source=Klanz-jboxl2XzqrjP6LLw", "review_count": 182, "categories": [{"alias": "burmese", "title": "Burmese"}, {"alias": "noodles", "title": "Noodles"}, {"alias": "salad", "title": "Salad"}], "rating": 4.5, "coordinates": {"latitude": 37.79991, "longitude": -122.43804}, "transactions": ["delivery", "pickup"], "price": "$$", "location": {"address1": "3317 Steiner St", "address2": null, "address3": "", "city": "San Francisco", "zip_code": "94123", "country": "US", "state": "CA", "display_address": ["3317 Steiner St", "San Francisco, CA 94123"]}, "phone": "+14159221892", "display_phone": "(415) 922-1892", "distance": 4343.241161400187}, {"id": "jdKWSulGisIZ6zaXrAprvQ", "alias": "pescatore-trattoria-san-francisco", "name": "Pescatore Trattoria", "image_url": "https://s3-media3.fl.yelpcdn.com/bphoto/U2tT9EBJcgr2AxVMS_qbGg/o.jpg", "is_closed": false, "url": "https://www.yelp.com/biz/pescatore-trattoria-san-francisco?adjust_creative=Klanz-jboxl2XzqrjP6LLw&utm_campaign=yelp_api_v3&utm_medium=api_v3_business_search&utm_source=Klanz-jboxl2XzqrjP6LLw", "review_count": 385, "categories": [{"alias": "italian", "title": "Italian"}, {"alias": "seafood", "title": "Seafood"}], "rating": 3.5, "coordinates": {"latitude": 37.806413, "longitude": -122.413949}, "transactions": ["delivery"], "price": "$$", "location": {"address1": "2455 Mason St", "address2": "", "address3": "", "city": "San Francisco", "zip_code": "94133", "country": "US", "state": "CA", "display_address": ["2455 Mason St", "San Francisco, CA 94133"]}, "phone": "+14155611111", "display_phone": "(415) 561-1111", "distance": 5433.377907806151}, {"id": "zDTVvKut9qPbGEmYXmp4SA", "alias": "ristobar-san-francisco-3", "name": "Ristobar", "image_url": "https://s3-media1.fl.yelpcdn.com/bphoto/StC5b6YcE50bwXwwYespCw/o.jpg", "is_closed": false, "url": "https://www.yelp.com/biz/ristobar-san-francisco-3?adjust_creative=Klanz-jboxl2XzqrjP6LLw&utm_campaign=yelp_api_v3&utm_medium=api_v3_business_search&utm_source=Klanz-jboxl2XzqrjP6LLw", "review_count": 74, "categories": [{"alias": "bars", "title": "Bars"}, {"alias": "italian", "title": "Italian"}, {"alias": "pizza", "title": "Pizza"}], "rating": 3.5, "coordinates": {"latitude": 37.80035, "longitude": -122.441487}, "transactions": ["restaurant_reservation"], "location": {"address1": "2300 Chestnut St", "address2": null, "address3": "", "city": "San Francisco", "zip_code": "94123", "country": "US", "state": "CA", "display_address": ["2300 Chestnut St", "San Francisco, CA 94123"]}, "phone": "+14159236464", "display_phone": "(415) 923-6464", "distance": 4406.683040921244}, {"id": "ODed3UyqDFIFs3gDcXhm7A", "alias": "helmand-palace-san-francisco", "name": "Helmand Palace", "image_url": "https://s3-media3.fl.yelpcdn.com/bphoto/xXWNYNI0T1Gueo50oTm5fg/o.jpg", "is_closed": false, "url": "https://www.yelp.com/biz/helmand-palace-san-francisco?adjust_creative=Klanz-jboxl2XzqrjP6LLw&utm_campaign=yelp_api_v3&utm_medium=api_v3_business_search&utm_source=Klanz-jboxl2XzqrjP6LLw", "review_count": 852, "categories": [{"alias": "afghani", "title": "Afghan"}, {"alias": "mediterranean", "title": "Mediterranean"}, {"alias": "halal", "title": "Halal"}], "rating": 4.5, "coordinates": {"latitude": 37.7980002, "longitude": -122.4235725}, "transactions": ["delivery", "pickup"], "price": "$$", "location": {"address1": "2424 Van Ness Ave", "address2": "", "address3": "", "city": "San Francisco", "zip_code": "94109", "country": "US", "state": "CA", "display_address": ["2424 Van Ness Ave", "San Francisco, CA 94109"]}, "phone": "+14153450072", "display_phone": "(415) 345-0072", "distance": 4277.773900949929}, {"id": "Ty2jf39gC_7gdXdmPyM2zQ", "alias": "cera-una-volta-alameda-4", "name": "C'era Una Volta", "image_url": "https://s3-media3.fl.yelpcdn.com/bphoto/aukHzpYIBraNiVMOKu0GsQ/o.jpg", "is_closed": false, "url": "https://www.yelp.com/biz/cera-una-volta-alameda-4?adjust_creative=Klanz-jboxl2XzqrjP6LLw&utm_campaign=yelp_api_v3&utm_medium=api_v3_business_search&utm_source=Klanz-jboxl2XzqrjP6LLw", "review_count": 400, "categories": [{"alias": "catering", "title": "Caterers"}], "rating": 3.5, "coordinates": {"latitude": 37.782806134587425, "longitude": -122.30117194580743}, "transactions": ["delivery", "pickup"], "location": {"address1": "800 W Tower Ave", "address2": "", "address3": "", "city": "Alameda", "zip_code": "94501", "country": "US", "state": "CA", "display_address": ["800 W Tower Ave", "Alameda, CA 94501"]}, "phone": "+15107694828", "display_phone": "(510) 769-4828", "distance": 12136.91872767397}, {"id": "Sw5UNs6xUvqLgahoFNKpWA", "alias": "lara-s-fine-dining-richmond", "name": "Lara\u2019s Fine Dining", "image_url": "https://s3-media1.fl.yelpcdn.com/bphoto/hT7IZsZ2WzWrwYs20NA-uw/o.jpg", "is_closed": false, "url": "https://www.yelp.com/biz/lara-s-fine-dining-richmond?adjust_creative=Klanz-jboxl2XzqrjP6LLw&utm_campaign=yelp_api_v3&utm_medium=api_v3_business_search&utm_source=Klanz-jboxl2XzqrjP6LLw", "review_count": 150, "categories": [{"alias": "bars", "title": "Bars"}, {"alias": "italian", "title": "Italian"}, {"alias": "seafood", "title": "Seafood"}], "rating": 4.0, "coordinates": {"latitude": 37.91497, "longitude": -122.351592}, "transactions": ["restaurant_reservation"], "price": "$$", "location": {"address1": "1900 Esplanade Dr", "address2": "", "address3": null, "city": "Richmond", "zip_code": "94804", "country": "US", "state": "CA", "display_address": ["1900 Esplanade Dr", "Richmond, CA 94804"]}, "phone": "+15102341860", "display_phone": "(510) 234-1860", "distance": 18682.268130244138}, {"id": "Gq9hYzt_0-q9TG06arOObQ", "alias": "the-garden-club-south-san-francisco-2", "name": "The Garden Club", "image_url": "https://s3-media4.fl.yelpcdn.com/bphoto/DDTvn6JhQcNOU1Hi_3aPDQ/o.jpg", "is_closed": false, "url": "https://www.yelp.com/biz/the-garden-club-south-san-francisco-2?adjust_creative=Klanz-jboxl2XzqrjP6LLw&utm_campaign=yelp_api_v3&utm_medium=api_v3_business_search&utm_source=Klanz-jboxl2XzqrjP6LLw", "review_count": 645, "categories": [{"alias": "tradamerican", "title": "American (Traditional)"}, {"alias": "bars", "title": "Bars"}, {"alias": "salad", "title": "Salad"}], "rating": 3.5, "coordinates": {"latitude": 37.661645, "longitude": -122.438309}, "transactions": ["delivery", "pickup", "restaurant_reservation"], "price": "$$", "location": {"address1": "1144 Mission Rd", "address2": "", "address3": "", "city": "South San Francisco", "zip_code": "94080", "country": "US", "state": "CA", "display_address": ["1144 Mission Rd", "South San Francisco, CA 94080"]}, "phone": "+16508734910", "display_phone": "(650) 873-4910", "distance": 11037.787524338331}, {"id": "L2vwqxuki-CiFU9neHxHhQ", "alias": "slice-house-haight-by-tony-gemignani-san-francisco", "name": "Slice House Haight by Tony Gemignani", "image_url": "https://s3-media2.fl.yelpcdn.com/bphoto/Ym9q1llVm5dt60Msvi6ARw/o.jpg", "is_closed": false, "url": "https://www.yelp.com/biz/slice-house-haight-by-tony-gemignani-san-francisco?adjust_creative=Klanz-jboxl2XzqrjP6LLw&utm_campaign=yelp_api_v3&utm_medium=api_v3_business_search&utm_source=Klanz-jboxl2XzqrjP6LLw", "review_count": 335, "categories": [{"alias": "pizza", "title": "Pizza"}], "rating": 4.0, "coordinates": {"latitude": 37.76963, "longitude": -122.44754}, "transactions": ["delivery", "pickup"], "price": "$$", "location": {"address1": "1535 Haight St", "address2": "", "address3": null, "city": "San Francisco", "zip_code": "94117", "country": "US", "state": "CA", "display_address": ["1535 Haight St", "San Francisco, CA 94117"]}, "phone": "+14155522520", "display_phone": "(415) 552-2520", "distance": 1389.3363288151697}, {"id": "jiSwbGIdmhuY3Z8DhrtrGA", "alias": "villa-d-este-san-francisco", "name": "Villa D'este", "image_url": "https://s3-media2.fl.yelpcdn.com/bphoto/0hpBKLZ7f0uimhYu31S77A/o.jpg", "is_closed": false, "url": "https://www.yelp.com/biz/villa-d-este-san-francisco?adjust_creative=Klanz-jboxl2XzqrjP6LLw&utm_campaign=yelp_api_v3&utm_medium=api_v3_business_search&utm_source=Klanz-jboxl2XzqrjP6LLw", "review_count": 161, "categories": [{"alias": "italian", "title": "Italian"}, {"alias": "desserts", "title": "Desserts"}, {"alias": "diners", "title": "Diners"}], "rating": 3.0, "coordinates": {"latitude": 37.731659, "longitude": -122.473576}, "transactions": ["delivery", "pickup"], "price": "$$", "location": {"address1": "2623 Ocean Ave", "address2": "", "address3": "", "city": "San Francisco", "zip_code": "94132", "country": "US", "state": "CA", "display_address": ["2623 Ocean Ave", "San Francisco, CA 94132"]}, "phone": "+14153340580", "display_phone": "(415) 334-0580", "distance": 4607.470312574692}], "total": 1800, "region": {"center": {"longitude": -122.43644714355469, "latitude": 37.76089938976322}}}