{"businesses": [{"id": "c3khi7kxBaA2ATUuMjtMZA", "alias": "atelier-crenn-san-francisco", "name": "Atelier Crenn", "image_url": "https://s3-media3.fl.yelpcdn.com/bphoto/BQ5gy9LSo_ODp9buTBfXLA/o.jpg", "is_closed": false, "url": "https://www.yelp.com/biz/atelier-crenn-san-francisco?adjust_creative=Klanz-jboxl2XzqrjP6LLw&utm_campaign=yelp_api_v3&utm_medium=api_v3_business_search&utm_source=Klanz-jboxl2XzqrjP6LLw", "review_count": 786, "categories": [{"alias": "french", "title": "French"}], "rating": 4.5, "coordinates": {"latitude": 37.79834798137523, "longitude": -122.4359405413271}, "transactions": [], "price": "$$$$", "location": {"address1": "3127 Fillmore St", "address2": null, "address3": "", "city": "San Francisco", "zip_code": "94123", "country": "US", "state": "CA", "display_address": ["3127 Fillmore St", "San Francisco, CA 94123"]}, "phone": "+14154400460", "display_phone": "(415) 440-0460", "distance": 4164.326794132869}, {"id": "rbOIWC-Wx5qIHgFebtAQqA", "alias": "che-fico-san-francisco-3", "name": "Che Fico", "image_url": "https://s3-media1.fl.yelpcdn.com/bphoto/rBjUkWd55foZ0ntDwzilYA/o.jpg", "is_closed": false, "url": "https://www.yelp.com/biz/che-fico-san-francisco-3?adjust_creative=Klanz-jboxl2XzqrjP6LLw&utm_campaign=yelp_api_v3&utm_medium=api_v3_business_search&utm_source=Klanz-jboxl2XzqrjP6LLw", "review_count": 554, "categories": [{"alias": "italian", "title": "Italian"}, {"alias": "newamerican", "title": "American (New)"}], "rating": 3.5, "coordinates": {"latitude": 37.7774319, "longitude": -122.4381079}, "transactions": ["delivery"], "price": "$$$", "location": {"address1": "838 Divisadero St", "address2": null, "address3": "", "city": "San Francisco", "zip_code": "94117", "country": "US", "state": "CA", "display_address": ["838 Divisadero St", "San Francisco, CA 94117"]}, "phone": "+14154166959", "display_phone": "(415) 416-6959", "distance": 1845.6782944819715}, {"id": "4-ra3RxOy1PpvnaK49dy8w", "alias": "eight-am-san-francisco", "name": "Eight AM", "image_url": "https://s3-media4.fl.yelpcdn.com/bphoto/8TFLuxxAOIkJRiVp5cQWBQ/o.jpg", "is_closed": false, "url": "https://www.yelp.com/biz/eight-am-san-francisco?adjust_creative=Klanz-jboxl2XzqrjP6LLw&utm_campaign=yelp_api_v3&utm_medium=api_v3_business_search&utm_source=Klanz-jboxl2XzqrjP6LLw", "review_count": 1480, "categories": [{"alias": "newamerican", "title": "American (New)"}, {"alias": "breakfast_brunch", "title": "Breakfast & Brunch"}], "rating": 4.5, "coordinates": {"latitude": 37.806251, "longitude": -122.419204}, "transactions": ["delivery"], "price": "$$", "location": {"address1": "1323 Columbus Ave", "address2": "", "address3": "", "city": "San Francisco", "zip_code": "94133", "country": "US", "state": "CA", "display_address": ["1323 Columbus Ave", "San Francisco, CA 94133"]}, "phone": "+14152924888", "display_phone": "(415) 292-4888", "distance": 5270.81415985265}, {"id": "c7BkLCKjHjIg7oS63LsI1Q", "alias": "swirl-on-castro-san-francisco", "name": "Swirl on Castro", "image_url": "https://s3-media1.fl.yelpcdn.com/bphoto/s2PJ4-oAbR1VfBlLe4FS5g/o.jpg", "is_closed": false, "url": "https://www.yelp.com/biz/swirl-on-castro-san-francisco?adjust_creative=Klanz-jboxl2XzqrjP6LLw&utm_campaign=yelp_api_v3&utm_medium=api_v3_business_search&utm_source=Klanz-jboxl2XzqrjP6LLw", "review_count": 128, "categories": [{"alias": "beer_and_wine", "title": "Beer, Wine & Spirits"}, {"alias": "wine_bars", "title": "Wine Bars"}], "rating": 4.5, "coordinates": {"latitude": 37.7597274780273, "longitude": -122.435256958008}, "transactions": ["delivery"], "price": "$$", "location": {"address1": "572 Castro St", "address2": "", "address3": "", "city": "San Francisco", "zip_code": "94114", "country": "US", "state": "CA", "display_address": ["572 Castro St", "San Francisco, CA 94114"]}, "phone": "+14158642262", "display_phone": "(415) 864-2262", "distance": 167.49704960131055}, {"id": "s6qUvb3LGcQtS38AG2i74Q", "alias": "turntable-at-lord-stanley-san-francisco", "name": "Turntable at Lord Stanley", "image_url": "https://s3-media3.fl.yelpcdn.com/bphoto/0IRpWffGfmL69AtbQ76M9g/o.jpg", "is_closed": false, "url": "https://www.yelp.com/biz/turntable-at-lord-stanley-san-francisco?adjust_creative=Klanz-jboxl2XzqrjP6LLw&utm_campaign=yelp_api_v3&utm_medium=api_v3_business_search&utm_source=Klanz-jboxl2XzqrjP6LLw", "review_count": 319, "categories": [{"alias": "modern_european", "title": "Modern European"}, {"alias": "newamerican", "title": "American (New)"}], "rating": 4.0, "coordinates": {"latitude": 37.79581262911238, "longitude": -122.42188560238773}, "transactions": ["delivery"], "price": "$$$$", "location": {"address1": "2065 Polk St", "address2": "", "address3": "", "city": "San Francisco", "zip_code": "94109", "country": "US", "state": "CA", "display_address": ["2065 Polk St", "San Francisco, CA 94109"]}, "phone": "+14155182624", "display_phone": "(415) 518-2624", "distance": 4087.6713026385664}, {"id": "0MZHlH2mD2F4GnC6g8JBQQ", "alias": "cafe-la-flore-san-francisco-3", "name": "Cafe La Flore", "image_url": "https://s3-media1.fl.yelpcdn.com/bphoto/loPe1MewSYq1MYwu1kxRsQ/o.jpg", "is_closed": false, "url": "https://www.yelp.com/biz/cafe-la-flore-san-francisco-3?adjust_creative=Klanz-jboxl2XzqrjP6LLw&utm_campaign=yelp_api_v3&utm_medium=api_v3_business_search&utm_source=Klanz-jboxl2XzqrjP6LLw", "review_count": 382, "categories": [{"alias": "sandwiches", "title": "Sandwiches"}, {"alias": "salad", "title": "Salad"}, {"alias": "breakfast_brunch", "title": "Breakfast & Brunch"}], "rating": 4.0, "coordinates": {"latitude": 37.7827709595657, "longitude": -122.470544639881}, "transactions": ["pickup", "delivery"], "price": "$", "location": {"address1": "1032 Clement St", "address2": "", "address3": "", "city": "San Francisco", "zip_code": "94118", "country": "US", "state": "CA", "display_address": ["1032 Clement St", "San Francisco, CA 94118"]}, "phone": "+14153862814", "display_phone": "(415) 386-2814", "distance": 3859.6082482617735}, {"id": "8aqzfjnuT5LhuveW3e6CoA", "alias": "octavia-san-francisco", "name": "Octavia", "image_url": "https://s3-media1.fl.yelpcdn.com/bphoto/VaF_rRj4MDgpd882Pw6ckw/o.jpg", "is_closed": false, "url": "https://www.yelp.com/biz/octavia-san-francisco?adjust_creative=Klanz-jboxl2XzqrjP6LLw&utm_campaign=yelp_api_v3&utm_medium=api_v3_business_search&utm_source=Klanz-jboxl2XzqrjP6LLw", "review_count": 612, "categories": [{"alias": "newamerican", "title": "American (New)"}], "rating": 4.0, "coordinates": {"latitude": 37.7879638671875, "longitude": -122.427192687988}, "transactions": ["delivery"], "price": "$$$", "location": {"address1": "1701 Octavia St", "address2": "", "address3": "", "city": "San Francisco", "zip_code": "94109", "country": "US", "state": "CA", "display_address": ["1701 Octavia St", "San Francisco, CA 94109"]}, "phone": "+14154087507", "display_phone": "(415) 408-7507", "distance": 3120.061468799179}, {"id": "ZzKED2qLpUxzw0yC-PlBuw", "alias": "napizza-san-francisco", "name": "Napizza", "image_url": "https://s3-media1.fl.yelpcdn.com/bphoto/15FoAfnkcDkTRLc6S_y25A/o.jpg", "is_closed": false, "url": "https://www.yelp.com/biz/napizza-san-francisco?adjust_creative=Klanz-jboxl2XzqrjP6LLw&utm_campaign=yelp_api_v3&utm_medium=api_v3_business_search&utm_source=Klanz-jboxl2XzqrjP6LLw", "review_count": 20, "categories": [{"alias": "pizza", "title": "Pizza"}, {"alias": "pastashops", "title": "Pasta Shops"}, {"alias": "salad", "title": "Salad"}], "rating": 5.0, "coordinates": {"latitude": 37.80003, "longitude": -122.44083}, "transactions": ["delivery"], "location": {"address1": "3258 Scott St", "address2": null, "address3": "", "city": "San Francisco", "zip_code": "94123", "country": "US", "state": "CA", "display_address": ["3258 Scott St", "San Francisco, CA 94123"]}, "phone": "+14155254006", "display_phone": "(415) 525-4006", "distance": 4368.629579222754}, {"id": "zkVm2lMNdKWfbE4Uo1tMeA", "alias": "abrazo-san-francisco-2", "name": "Abrazo", "image_url": "https://s3-media1.fl.yelpcdn.com/bphoto/g3TqyzHXSsKm0zhVCUErrw/o.jpg", "is_closed": false, "url": "https://www.yelp.com/biz/abrazo-san-francisco-2?adjust_creative=Klanz-jboxl2XzqrjP6LLw&utm_campaign=yelp_api_v3&utm_medium=api_v3_business_search&utm_source=Klanz-jboxl2XzqrjP6LLw", "review_count": 111, "categories": [{"alias": "spanish", "title": "Spanish"}, {"alias": "newamerican", "title": "American (New)"}, {"alias": "seafood", "title": "Seafood"}], "rating": 4.5, "coordinates": {"latitude": 37.7994, "longitude": -122.41888}, "transactions": ["delivery"], "price": "$$$", "location": {"address1": "2000 Hyde St", "address2": null, "address3": "", "city": "San Francisco", "zip_code": "94109", "country": "US", "state": "CA", "display_address": ["2000 Hyde St", "San Francisco, CA 94109"]}, "phone": "+14158729239", "display_phone": "(415) 872-9239", "distance": 4544.339524282116}, {"id": "IHez2umBn8oxTP16s6AV0g", "alias": "chezchez-san-francisco", "name": "Chezchez", "image_url": "https://s3-media1.fl.yelpcdn.com/bphoto/JMaVR5nUiDXz2XDbyZvc8Q/o.jpg", "is_closed": false, "url": "https://www.yelp.com/biz/chezchez-san-francisco?adjust_creative=Klanz-jboxl2XzqrjP6LLw&utm_campaign=yelp_api_v3&utm_medium=api_v3_business_search&utm_source=Klanz-jboxl2XzqrjP6LLw", "review_count": 22, "categories": [{"alias": "cocktailbars", "title": "Cocktail Bars"}, {"alias": "seafood", "title": "Seafood"}], "rating": 4.5, "coordinates": {"latitude": 37.76396205360724, "longitude": -122.42204721534272}, "transactions": [], "location": {"address1": "584 Valencia St", "address2": null, "address3": "", "city": "San Francisco", "zip_code": "94110", "country": "US", "state": "CA", "display_address": ["584 Valencia St", "San Francisco, CA 94110"]}, "phone": "+14156587878", "display_phone": "(415) 658-7878", "distance": 1310.846944963345}, {"id": "q2EbLD93gEO5uXXx7Pk3bw", "alias": "benu-san-francisco-4", "name": "Benu", "image_url": "https://s3-media2.fl.yelpcdn.com/bphoto/NuJWvKMyw-PA6AtQvEOJGw/o.jpg", "is_closed": false, "url": "https://www.yelp.com/biz/benu-san-francisco-4?adjust_creative=Klanz-jboxl2XzqrjP6LLw&utm_campaign=yelp_api_v3&utm_medium=api_v3_business_search&utm_source=Klanz-jboxl2XzqrjP6LLw", "review_count": 1107, "categories": [{"alias": "newamerican", "title": "American (New)"}, {"alias": "wine_bars", "title": "Wine Bars"}, {"alias": "seafood", "title": "Seafood"}], "rating": 4.5, "coordinates": {"latitude": 37.785402, "longitude": -122.399068}, "transactions": ["pickup", "delivery"], "price": "$$$$", "location": {"address1": "22 Hawthorne St", "address2": "", "address3": "", "city": "San Francisco", "zip_code": "94105", "country": "US", "state": "CA", "display_address": ["22 Hawthorne St", "San Francisco, CA 94105"]}, "phone": "+14156854860", "display_phone": "(415) 685-4860", "distance": 4268.123760656363}, {"id": "aeQRRyYh5jnUrh7iAWYEEw", "alias": "la-collina-italian-restaurant-millbrae", "name": "La Collina Italian Restaurant", "image_url": "https://s3-media1.fl.yelpcdn.com/bphoto/Yq-n9d11MHTQNdhYa1aclg/o.jpg", "is_closed": false, "url": "https://www.yelp.com/biz/la-collina-italian-restaurant-millbrae?adjust_creative=Klanz-jboxl2XzqrjP6LLw&utm_campaign=yelp_api_v3&utm_medium=api_v3_business_search&utm_source=Klanz-jboxl2XzqrjP6LLw", "review_count": 208, "categories": [{"alias": "italian", "title": "Italian"}], "rating": 3.5, "coordinates": {"latitude": 37.6016235351562, "longitude": -122.391670227051}, "transactions": ["pickup", "delivery"], "price": "$$", "location": {"address1": "355 El Camino Real", "address2": "", "address3": "", "city": "Millbrae", "zip_code": "94030", "country": "US", "state": "CA", "display_address": ["355 El Camino Real", "Millbrae, CA 94030"]}, "phone": "+16506529655", "display_phone": "(650) 652-9655", "distance": 18144.780354234754}, {"id": "qWpf0lVkmjBAOGmks8tE0w", "alias": "alamo-square-seafood-grill-san-francisco", "name": "Alamo Square Seafood Grill", "image_url": "https://s3-media3.fl.yelpcdn.com/bphoto/nmwhSshxMzSzymcYyuQWSg/o.jpg", "is_closed": false, "url": "https://www.yelp.com/biz/alamo-square-seafood-grill-san-francisco?adjust_creative=Klanz-jboxl2XzqrjP6LLw&utm_campaign=yelp_api_v3&utm_medium=api_v3_business_search&utm_source=Klanz-jboxl2XzqrjP6LLw", "review_count": 688, "categories": [{"alias": "seafood", "title": "Seafood"}], "rating": 4.0, "coordinates": {"latitude": 37.7769876597265, "longitude": -122.431572659491}, "transactions": ["pickup", "delivery"], "price": "$$", "location": {"address1": "803 Fillmore St", "address2": "", "address3": "", "city": "San Francisco", "zip_code": "94117", "country": "US", "state": "CA", "display_address": ["803 Fillmore St", "San Francisco, CA 94117"]}, "phone": "+14154402828", "display_phone": "(415) 440-2828", "distance": 1839.5254115656141}, {"id": "30vQAVDNpTTHiTDlRzJFWA", "alias": "lo-cocos-berkeley", "name": "Lo Coco's", "image_url": "https://s3-media1.fl.yelpcdn.com/bphoto/GR271UW8LL3ugmtaDoBUxA/o.jpg", "is_closed": false, "url": "https://www.yelp.com/biz/lo-cocos-berkeley?adjust_creative=Klanz-jboxl2XzqrjP6LLw&utm_campaign=yelp_api_v3&utm_medium=api_v3_business_search&utm_source=Klanz-jboxl2XzqrjP6LLw", "review_count": 441, "categories": [{"alias": "italian", "title": "Italian"}, {"alias": "pizza", "title": "Pizza"}], "rating": 4.0, "coordinates": {"latitude": 37.881756, "longitude": -122.269812}, "transactions": ["pickup", "delivery"], "price": "$$", "location": {"address1": "1400 Shattuck Ave", "address2": "", "address3": "", "city": "Berkeley", "zip_code": "94709", "country": "US", "state": "CA", "display_address": ["1400 Shattuck Ave", "Berkeley, CA 94709"]}, "phone": "+15108433745", "display_phone": "(510) 843-3745", "distance": 19870.1848652064}, {"id": "u0xH3J_XRPpOpr80L3fcCA", "alias": "\u00e0-c\u00f4t\u00e9-oakland-6", "name": "\u00c0 C\u00f4t\u00e9", "image_url": "https://s3-media1.fl.yelpcdn.com/bphoto/u8D57gH95sjytaCcqEy_gQ/o.jpg", "is_closed": false, "url": "https://www.yelp.com/biz/%C3%A0-c%C3%B4t%C3%A9-oakland-6?adjust_creative=Klanz-jboxl2XzqrjP6LLw&utm_campaign=yelp_api_v3&utm_medium=api_v3_business_search&utm_source=Klanz-jboxl2XzqrjP6LLw", "review_count": 1348, "categories": [{"alias": "french", "title": "French"}, {"alias": "spanish", "title": "Spanish"}, {"alias": "italian", "title": "Italian"}], "rating": 4.0, "coordinates": {"latitude": 37.842131, "longitude": -122.251216}, "transactions": [], "price": "$$$", "location": {"address1": "5478 College Ave", "address2": "", "address3": "", "city": "Oakland", "zip_code": "94618", "country": "US", "state": "CA", "display_address": ["5478 College Ave", "Oakland, CA 94618"]}, "phone": "+15106556469", "display_phone": "(510) 655-6469", "distance": 18612.865396439523}, {"id": "f-m7-hyFzkf0HSEeQ2s-9A", "alias": "fog-harbor-fish-house-san-francisco-2", "name": "Fog Harbor Fish House", "image_url": "https://s3-media2.fl.yelpcdn.com/bphoto/by8Hh63BLPv_HUqRUdsp_w/o.jpg", "is_closed": false, "url": "https://www.yelp.com/biz/fog-harbor-fish-house-san-francisco-2?adjust_creative=Klanz-jboxl2XzqrjP6LLw&utm_campaign=yelp_api_v3&utm_medium=api_v3_business_search&utm_source=Klanz-jboxl2XzqrjP6LLw", "review_count": 7218, "categories": [{"alias": "seafood", "title": "Seafood"}, {"alias": "wine_bars", "title": "Wine Bars"}, {"alias": "cocktailbars", "title": "Cocktail Bars"}], "rating": 4.5, "coordinates": {"latitude": 37.80898821475503, "longitude": -122.41029651587517}, "transactions": ["restaurant_reservation"], "price": "$$", "location": {"address1": "39 Pier", "address2": "Ste A - 202", "address3": "", "city": "San Francisco", "zip_code": "94133", "country": "US", "state": "CA", "display_address": ["39 Pier", "Ste A - 202", "San Francisco, CA 94133"]}, "phone": "+14159692010", "display_phone": "(415) 969-2010", "distance": 5820.143221179387}, {"id": "5vAr0fMMF1BBW-ZJgr3UYg", "alias": "villa-taverna-san-francisco", "name": "Villa Taverna", "image_url": "https://s3-media3.fl.yelpcdn.com/bphoto/7ZNk2ysazoRfUUcoVh6CHQ/o.jpg", "is_closed": false, "url": "https://www.yelp.com/biz/villa-taverna-san-francisco?adjust_creative=Klanz-jboxl2XzqrjP6LLw&utm_campaign=yelp_api_v3&utm_medium=api_v3_business_search&utm_source=Klanz-jboxl2XzqrjP6LLw", "review_count": 16, "categories": [{"alias": "italian", "title": "Italian"}], "rating": 4.5, "coordinates": {"latitude": 37.79602, "longitude": -122.40288}, "transactions": [], "price": "$$$$", "location": {"address1": "27 Hotaling Pl", "address2": "", "address3": "", "city": "San Francisco", "zip_code": "94111", "country": "US", "state": "CA", "display_address": ["27 Hotaling Pl", "San Francisco, CA 94111"]}, "phone": "+14159812333", "display_phone": "(415) 981-2333", "distance": 4890.818298025167}, {"id": "nWmeuZ8g4hhJOrADh7VFHA", "alias": "little-henrys-san-francisco-2", "name": "Little Henry's", "image_url": "https://s3-media3.fl.yelpcdn.com/bphoto/iZAGCAthJuvSH5pP1wOZlA/o.jpg", "is_closed": false, "url": "https://www.yelp.com/biz/little-henrys-san-francisco-2?adjust_creative=Klanz-jboxl2XzqrjP6LLw&utm_campaign=yelp_api_v3&utm_medium=api_v3_business_search&utm_source=Klanz-jboxl2XzqrjP6LLw", "review_count": 280, "categories": [{"alias": "italian", "title": "Italian"}, {"alias": "seafood", "title": "Seafood"}, {"alias": "breakfast_brunch", "title": "Breakfast & Brunch"}], "rating": 3.0, "coordinates": {"latitude": 37.77582, "longitude": -122.49752}, "transactions": ["pickup", "delivery"], "price": "$$", "location": {"address1": "3600 Balboa St", "address2": "", "address3": "", "city": "San Francisco", "zip_code": "94121", "country": "US", "state": "CA", "display_address": ["3600 Balboa St", "San Francisco, CA 94121"]}, "phone": "+14153878761", "display_phone": "(415) 387-8761", "distance": 5622.356486072062}, {"id": "ITFRPmzOeEp6dY3Dufh8vw", "alias": "mortons-the-steakhouse-san-francisco", "name": "Morton's The Steakhouse", "image_url": "https://s3-media3.fl.yelpcdn.com/bphoto/cn4EGN2iAcfQLh7ebc4ljg/o.jpg", "is_closed": false, "url": "https://www.yelp.com/biz/mortons-the-steakhouse-san-francisco?adjust_creative=Klanz-jboxl2XzqrjP6LLw&utm_campaign=yelp_api_v3&utm_medium=api_v3_business_search&utm_source=Klanz-jboxl2XzqrjP6LLw", "review_count": 1316, "categories": [{"alias": "steak", "title": "Steakhouses"}, {"alias": "bars", "title": "Bars"}, {"alias": "seafood", "title": "Seafood"}], "rating": 3.5, "coordinates": {"latitude": 37.788447702060964, "longitude": -122.4088281}, "transactions": [], "price": "$$$$", "location": {"address1": "400 Post St", "address2": "", "address3": "", "city": "San Francisco", "zip_code": "94102", "country": "US", "state": "CA", "display_address": ["400 Post St", "San Francisco, CA 94102"]}, "phone": "+14159865830", "display_phone": "(415) 986-5830", "distance": 3908.4515948814233}, {"id": "yHDm7yfGdg3XwGDcersd4Q", "alias": "home-maid-ravioli-company-south-san-francisco", "name": "Home Maid Ravioli Company", "image_url": "https://s3-media3.fl.yelpcdn.com/bphoto/SbJMq5P8igdmhOyMluFr0g/o.jpg", "is_closed": false, "url": "https://www.yelp.com/biz/home-maid-ravioli-company-south-san-francisco?adjust_creative=Klanz-jboxl2XzqrjP6LLw&utm_campaign=yelp_api_v3&utm_medium=api_v3_business_search&utm_source=Klanz-jboxl2XzqrjP6LLw", "review_count": 45, "categories": [{"alias": "pastashops", "title": "Pasta Shops"}], "rating": 4.0, "coordinates": {"latitude": 37.63645, "longitude": -122.40675}, "transactions": [], "price": "$$", "location": {"address1": "360 Shaw Rd", "address2": "Ste A", "address3": "", "city": "South San Francisco", "zip_code": "94080", "country": "US", "state": "CA", "display_address": ["360 Shaw Rd", "Ste A", "South San Francisco, CA 94080"]}, "phone": "+16505880600", "display_phone": "(650) 588-0600", "distance": 14095.497929189025}, {"id": "CyLhM3FIJ0fHObcUDV37rA", "alias": "riva-cucina-berkeley", "name": "Riva Cucina", "image_url": "https://s3-media3.fl.yelpcdn.com/bphoto/JS3ysSVu0pCOrg9lAiVzdA/o.jpg", "is_closed": false, "url": "https://www.yelp.com/biz/riva-cucina-berkeley?adjust_creative=Klanz-jboxl2XzqrjP6LLw&utm_campaign=yelp_api_v3&utm_medium=api_v3_business_search&utm_source=Klanz-jboxl2XzqrjP6LLw", "review_count": 498, "categories": [{"alias": "italian", "title": "Italian"}, {"alias": "wine_bars", "title": "Wine Bars"}, {"alias": "pastashops", "title": "Pasta Shops"}], "rating": 4.0, "coordinates": {"latitude": 37.8528499, "longitude": -122.29376}, "transactions": ["pickup", "delivery"], "price": "$$", "location": {"address1": "800 Heinz Ave", "address2": "", "address3": "", "city": "Berkeley", "zip_code": "94710", "country": "US", "state": "CA", "display_address": ["800 Heinz Ave", "Berkeley, CA 94710"]}, "phone": "+15108417482", "display_phone": "(510) 841-7482", "distance": 16180.713510878837}, {"id": "cJPJfRHoQl0W3U2QkRhrdg", "alias": "vinorosso-san-francisco", "name": "VinoRosso", "image_url": "https://s3-media2.fl.yelpcdn.com/bphoto/hWsH93ReksjDZVMZNGQGxQ/o.jpg", "is_closed": false, "url": "https://www.yelp.com/biz/vinorosso-san-francisco?adjust_creative=Klanz-jboxl2XzqrjP6LLw&utm_campaign=yelp_api_v3&utm_medium=api_v3_business_search&utm_source=Klanz-jboxl2XzqrjP6LLw", "review_count": 199, "categories": [{"alias": "italian", "title": "Italian"}, {"alias": "wine_bars", "title": "Wine Bars"}, {"alias": "gourmet", "title": "Specialty Food"}], "rating": 4.0, "coordinates": {"latitude": 37.73913, "longitude": -122.41538}, "transactions": ["delivery"], "price": "$$", "location": {"address1": "629 Cortland Ave", "address2": null, "address3": "", "city": "San Francisco", "zip_code": "94110", "country": "US", "state": "CA", "display_address": ["629 Cortland Ave", "San Francisco, CA 94110"]}, "phone": "+14156471268", "display_phone": "(415) 647-1268", "distance": 3049.612806341589}, {"id": "myeMXCowUnMGo99TTPeogw", "alias": "long-bridge-pizza-san-francisco-3", "name": "Long Bridge Pizza", "image_url": "https://s3-media2.fl.yelpcdn.com/bphoto/1LOkGBoG8jdAPtHPE9zzIw/o.jpg", "is_closed": false, "url": "https://www.yelp.com/biz/long-bridge-pizza-san-francisco-3?adjust_creative=Klanz-jboxl2XzqrjP6LLw&utm_campaign=yelp_api_v3&utm_medium=api_v3_business_search&utm_source=Klanz-jboxl2XzqrjP6LLw", "review_count": 586, "categories": [{"alias": "pizza", "title": "Pizza"}, {"alias": "salad", "title": "Salad"}, {"alias": "sandwiches", "title": "Sandwiches"}], "rating": 4.5, "coordinates": {"latitude": 37.7595199, "longitude": -122.3881765}, "transactions": ["delivery"], "price": "$$", "location": {"address1": "2347 3rd St", "address2": "", "address3": "", "city": "San Francisco", "zip_code": "94107", "country": "US", "state": "CA", "display_address": ["2347 3rd St", "San Francisco, CA 94107"]}, "phone": "+14158298999", "display_phone": "(415) 829-8999", "distance": 4246.168449531495}, {"id": "OEBWAAJ3FmcseeP1oNwzBQ", "alias": "capos-by-tony-gemignani-san-francisco-2", "name": "Capo's by Tony Gemignani", "image_url": "https://s3-media3.fl.yelpcdn.com/bphoto/lKum_AY88eP999DzrXj4mw/o.jpg", "is_closed": false, "url": "https://www.yelp.com/biz/capos-by-tony-gemignani-san-francisco-2?adjust_creative=Klanz-jboxl2XzqrjP6LLw&utm_campaign=yelp_api_v3&utm_medium=api_v3_business_search&utm_source=Klanz-jboxl2XzqrjP6LLw", "review_count": 884, "categories": [{"alias": "italian", "title": "Italian"}, {"alias": "pizza", "title": "Pizza"}, {"alias": "whiskeybars", "title": "Whiskey Bars"}], "rating": 4.0, "coordinates": {"latitude": 37.7985156, "longitude": -122.4084149}, "transactions": ["pickup", "delivery"], "price": "$$", "location": {"address1": "641 Vallejo St", "address2": "", "address3": "", "city": "San Francisco", "zip_code": "94133", "country": "US", "state": "CA", "display_address": ["641 Vallejo St", "San Francisco, CA 94133"]}, "phone": "+14159868998", "display_phone": "(415) 986-8998", "distance": 4854.341794928763}, {"id": "WWekv34vniav2trhbb2DaA", "alias": "mathilde-french-bistro-san-francisco", "name": "Mathilde French Bistro", "image_url": "https://s3-media1.fl.yelpcdn.com/bphoto/Jxmg6xZlKT2MhAl33CjbuA/o.jpg", "is_closed": false, "url": "https://www.yelp.com/biz/mathilde-french-bistro-san-francisco?adjust_creative=Klanz-jboxl2XzqrjP6LLw&utm_campaign=yelp_api_v3&utm_medium=api_v3_business_search&utm_source=Klanz-jboxl2XzqrjP6LLw", "review_count": 295, "categories": [{"alias": "french", "title": "French"}, {"alias": "desserts", "title": "Desserts"}, {"alias": "salad", "title": "Salad"}], "rating": 4.5, "coordinates": {"latitude": 37.7800134026795, "longitude": -122.402965373019}, "transactions": ["pickup"], "price": "$$$", "location": {"address1": "315 5th St", "address2": "", "address3": "", "city": "San Francisco", "zip_code": "94107", "country": "US", "state": "CA", "display_address": ["315 5th St", "San Francisco, CA 94107"]}, "phone": "+14155466128", "display_phone": "(415) 546-6128", "distance": 3630.1553237904436}, {"id": "ES3L73Pwlw64P3CxXNvd4Q", "alias": "commis-oakland-3", "name": "Commis", "image_url": "https://s3-media4.fl.yelpcdn.com/bphoto/briVGmzNih4FnzadT0Jimg/o.jpg", "is_closed": false, "url": "https://www.yelp.com/biz/commis-oakland-3?adjust_creative=Klanz-jboxl2XzqrjP6LLw&utm_campaign=yelp_api_v3&utm_medium=api_v3_business_search&utm_source=Klanz-jboxl2XzqrjP6LLw", "review_count": 1058, "categories": [{"alias": "newamerican", "title": "American (New)"}], "rating": 4.5, "coordinates": {"latitude": 37.8247190353393, "longitude": -122.254890761991}, "transactions": [], "price": "$$$$", "location": {"address1": "3859 Piedmont Ave", "address2": "", "address3": "", "city": "Oakland", "zip_code": "94611", "country": "US", "state": "CA", "display_address": ["3859 Piedmont Ave", "Oakland, CA 94611"]}, "phone": "+15106533902", "display_phone": "(510) 653-3902", "distance": 17460.434196426533}, {"id": "2RbfpwB4K41UXpLjxMtNIg", "alias": "cultivar-san-francisco-san-francisco-2", "name": "Cultivar San Francisco", "image_url": "https://s3-media1.fl.yelpcdn.com/bphoto/_gKL0yfAK-vK1XAt8tzUMw/o.jpg", "is_closed": false, "url": "https://www.yelp.com/biz/cultivar-san-francisco-san-francisco-2?adjust_creative=Klanz-jboxl2XzqrjP6LLw&utm_campaign=yelp_api_v3&utm_medium=api_v3_business_search&utm_source=Klanz-jboxl2XzqrjP6LLw", "review_count": 208, "categories": [{"alias": "newamerican", "title": "American (New)"}, {"alias": "winetastingroom", "title": "Wine Tasting Room"}, {"alias": "wine_bars", "title": "Wine Bars"}], "rating": 4.5, "coordinates": {"latitude": 37.79981, "longitude": -122.4424}, "transactions": ["pickup", "delivery"], "price": "$$", "location": {"address1": "2379 Chestnut St", "address2": null, "address3": "", "city": "San Francisco", "zip_code": "94123", "country": "US", "state": "CA", "display_address": ["2379 Chestnut St", "San Francisco, CA 94123"]}, "phone": "+14159624200", "display_phone": "(415) 962-4200", "distance": 4369.022519968164}, {"id": "iZ5VBmyFAZyJCt88KLwhJw", "alias": "la-mediterranee-san-francisco-8", "name": "La Mediterranee", "image_url": "https://s3-media1.fl.yelpcdn.com/bphoto/a5HzeAjp5yC-at26cKCw7A/o.jpg", "is_closed": false, "url": "https://www.yelp.com/biz/la-mediterranee-san-francisco-8?adjust_creative=Klanz-jboxl2XzqrjP6LLw&utm_campaign=yelp_api_v3&utm_medium=api_v3_business_search&utm_source=Klanz-jboxl2XzqrjP6LLw", "review_count": 1616, "categories": [{"alias": "mideastern", "title": "Middle Eastern"}, {"alias": "mediterranean", "title": "Mediterranean"}, {"alias": "armenian", "title": "Armenian"}], "rating": 4.0, "coordinates": {"latitude": 37.7900665, "longitude": -122.4338783}, "transactions": ["pickup", "delivery"], "price": "$$", "location": {"address1": "2210 Fillmore St", "address2": "", "address3": "", "city": "San Francisco", "zip_code": "94115", "country": "US", "state": "CA", "display_address": ["2210 Fillmore St", "San Francisco, CA 94115"]}, "phone": "+14159212956", "display_phone": "(415) 921-2956", "distance": 3259.1918781325226}, {"id": "OZmcsRlyzYLhPLLu1FTlgg", "alias": "firepie-san-francisco", "name": "Firepie", "image_url": "https://s3-media1.fl.yelpcdn.com/bphoto/WluOaTRGRtRH0FWjTNN6xg/o.jpg", "is_closed": false, "url": "https://www.yelp.com/biz/firepie-san-francisco?adjust_creative=Klanz-jboxl2XzqrjP6LLw&utm_campaign=yelp_api_v3&utm_medium=api_v3_business_search&utm_source=Klanz-jboxl2XzqrjP6LLw", "review_count": 325, "categories": [{"alias": "pizza", "title": "Pizza"}, {"alias": "fooddeliveryservices", "title": "Food Delivery Services"}], "rating": 4.0, "coordinates": {"latitude": 37.74829, "longitude": -122.41987}, "transactions": ["pickup", "delivery"], "price": "$$", "location": {"address1": "3498 Cesar Chavez St", "address2": "", "address3": "", "city": "San Francisco", "zip_code": "94110", "country": "US", "state": "CA", "display_address": ["3498 Cesar Chavez St", "San Francisco, CA 94110"]}, "phone": "+14152132300", "display_phone": "(415) 213-2300", "distance": 2003.9186280298093}, {"id": "XQLmEdXoMzOpffwoFaBtaQ", "alias": "kitchen-story-san-francisco", "name": "Kitchen Story", "image_url": "https://s3-media3.fl.yelpcdn.com/bphoto/XIhdtd0fB2P_v_qhh1hWbg/o.jpg", "is_closed": false, "url": "https://www.yelp.com/biz/kitchen-story-san-francisco?adjust_creative=Klanz-jboxl2XzqrjP6LLw&utm_campaign=yelp_api_v3&utm_medium=api_v3_business_search&utm_source=Klanz-jboxl2XzqrjP6LLw", "review_count": 3653, "categories": [{"alias": "breakfast_brunch", "title": "Breakfast & Brunch"}, {"alias": "asianfusion", "title": "Asian Fusion"}, {"alias": "newamerican", "title": "American (New)"}], "rating": 4.0, "coordinates": {"latitude": 37.7642352, "longitude": -122.4306936}, "transactions": ["pickup", "restaurant_reservation", "delivery"], "price": "$$", "location": {"address1": "3499 16th St", "address2": "", "address3": "", "city": "San Francisco", "zip_code": "94114", "country": "US", "state": "CA", "display_address": ["3499 16th St", "San Francisco, CA 94114"]}, "phone": "+14155254905", "display_phone": "(415) 525-4905", "distance": 624.4353688015374}, {"id": "0Sh-XNVgGDRwiN4K3UEQJA", "alias": "prospect-san-francisco", "name": "Prospect", "image_url": "https://s3-media1.fl.yelpcdn.com/bphoto/BKTuxcPLlN3ml6fHALfU2Q/o.jpg", "is_closed": false, "url": "https://www.yelp.com/biz/prospect-san-francisco?adjust_creative=Klanz-jboxl2XzqrjP6LLw&utm_campaign=yelp_api_v3&utm_medium=api_v3_business_search&utm_source=Klanz-jboxl2XzqrjP6LLw", "review_count": 1573, "categories": [{"alias": "newamerican", "title": "American (New)"}], "rating": 4.0, "coordinates": {"latitude": 37.7898081, "longitude": -122.39095881165655}, "transactions": ["delivery"], "price": "$$$", "location": {"address1": "300 Spear St", "address2": "", "address3": "", "city": "San Francisco", "zip_code": "94105", "country": "US", "state": "CA", "display_address": ["300 Spear St", "San Francisco, CA 94105"]}, "phone": "+14152477770", "display_phone": "(415) 247-7770", "distance": 5130.001772023995}, {"id": "TofRTCAfrXcvf7BYx0tqkQ", "alias": "radio-africa-kitchen-san-francisco", "name": "Radio Africa Kitchen", "image_url": "https://s3-media1.fl.yelpcdn.com/bphoto/oSYmatmnq8cx8vSwuikknQ/o.jpg", "is_closed": false, "url": "https://www.yelp.com/biz/radio-africa-kitchen-san-francisco?adjust_creative=Klanz-jboxl2XzqrjP6LLw&utm_campaign=yelp_api_v3&utm_medium=api_v3_business_search&utm_source=Klanz-jboxl2XzqrjP6LLw", "review_count": 347, "categories": [{"alias": "newamerican", "title": "American (New)"}, {"alias": "moroccan", "title": "Moroccan"}, {"alias": "ethiopian", "title": "Ethiopian"}], "rating": 4.5, "coordinates": {"latitude": 37.73475, "longitude": -122.39108}, "transactions": ["pickup", "delivery"], "price": "$$", "location": {"address1": "4800 3rd St", "address2": "", "address3": "", "city": "San Francisco", "zip_code": "94124", "country": "US", "state": "CA", "display_address": ["4800 3rd St", "San Francisco, CA 94124"]}, "phone": "+14158269660", "display_phone": "(415) 826-9660", "distance": 4939.512358208774}, {"id": "48i36N8eWgnpsvJzJ1QKwA", "alias": "fish-restaurant-sausalito-2", "name": "Fish Restaurant", "image_url": "https://s3-media3.fl.yelpcdn.com/bphoto/sbgNNFvwyOKfP2Zqg4XGTg/o.jpg", "is_closed": false, "url": "https://www.yelp.com/biz/fish-restaurant-sausalito-2?adjust_creative=Klanz-jboxl2XzqrjP6LLw&utm_campaign=yelp_api_v3&utm_medium=api_v3_business_search&utm_source=Klanz-jboxl2XzqrjP6LLw", "review_count": 2620, "categories": [{"alias": "seafood", "title": "Seafood"}], "rating": 4.0, "coordinates": {"latitude": 37.8682093231997, "longitude": -122.49782684190235}, "transactions": ["pickup", "delivery"], "price": "$$", "location": {"address1": "350 Harbor Dr", "address2": null, "address3": "", "city": "Sausalito", "zip_code": "94965", "country": "US", "state": "CA", "display_address": ["350 Harbor Dr", "Sausalito, CA 94965"]}, "phone": "+14153313474", "display_phone": "(415) 331-3474", "distance": 13093.957456371947}, {"id": "ejL_RHoWyyZBhoA9ImR9vg", "alias": "apizza-san-francisco-5", "name": "apizza", "image_url": "https://s3-media2.fl.yelpcdn.com/bphoto/_hpm32M5oDQWjS3PxS8JsQ/o.jpg", "is_closed": false, "url": "https://www.yelp.com/biz/apizza-san-francisco-5?adjust_creative=Klanz-jboxl2XzqrjP6LLw&utm_campaign=yelp_api_v3&utm_medium=api_v3_business_search&utm_source=Klanz-jboxl2XzqrjP6LLw", "review_count": 196, "categories": [{"alias": "pizza", "title": "Pizza"}, {"alias": "desserts", "title": "Desserts"}, {"alias": "icecream", "title": "Ice Cream & Frozen Yogurt"}], "rating": 4.5, "coordinates": {"latitude": 37.78846, "longitude": -122.434}, "transactions": ["pickup", "delivery"], "price": "$", "location": {"address1": "2043 Fillmore St", "address2": null, "address3": "", "city": "San Francisco", "zip_code": "94115", "country": "US", "state": "CA", "display_address": ["2043 Fillmore St", "San Francisco, CA 94115"]}, "phone": "+14157962037", "display_phone": "(415) 796-2037", "distance": 3075.599394613054}, {"id": "4uwaE0ZUetn96x7iqOo4hw", "alias": "amoura-restaurant-south-san-francisco", "name": "Amoura Restaurant", "image_url": "https://s3-media3.fl.yelpcdn.com/bphoto/xXqvDHb1f1P7AlvE-G_Blg/o.jpg", "is_closed": false, "url": "https://www.yelp.com/biz/amoura-restaurant-south-san-francisco?adjust_creative=Klanz-jboxl2XzqrjP6LLw&utm_campaign=yelp_api_v3&utm_medium=api_v3_business_search&utm_source=Klanz-jboxl2XzqrjP6LLw", "review_count": 390, "categories": [{"alias": "mediterranean", "title": "Mediterranean"}, {"alias": "comfortfood", "title": "Comfort Food"}], "rating": 4.5, "coordinates": {"latitude": 37.65955, "longitude": -122.40894}, "transactions": ["pickup", "delivery"], "price": "$$", "location": {"address1": "713 Linden Ave", "address2": null, "address3": "", "city": "South San Francisco", "zip_code": "94080", "country": "US", "state": "CA", "display_address": ["713 Linden Ave", "South San Francisco, CA 94080"]}, "phone": "+16507546891", "display_phone": "(650) 754-6891", "distance": 11524.996273890734}, {"id": "uBaXDGwJPUkOSLWxS2vZ9Q", "alias": "lazy-bear-san-francisco-5", "name": "Lazy Bear", "image_url": "https://s3-media3.fl.yelpcdn.com/bphoto/I3yhxGxciarZn4J8QJWBkw/o.jpg", "is_closed": false, "url": "https://www.yelp.com/biz/lazy-bear-san-francisco-5?adjust_creative=Klanz-jboxl2XzqrjP6LLw&utm_campaign=yelp_api_v3&utm_medium=api_v3_business_search&utm_source=Klanz-jboxl2XzqrjP6LLw", "review_count": 689, "categories": [{"alias": "newamerican", "title": "American (New)"}], "rating": 4.5, "coordinates": {"latitude": 37.76041, "longitude": -122.41969}, "transactions": [], "price": "$$$$", "location": {"address1": "3416 19th St", "address2": "", "address3": "", "city": "San Francisco", "zip_code": "94110", "country": "US", "state": "CA", "display_address": ["3416 19th St", "San Francisco, CA 94110"]}, "phone": "+14158749921", "display_phone": "(415) 874-9921", "distance": 1471.9330512507197}, {"id": "pJdwr6JoCVXTKbdJlm-rdg", "alias": "creekwood-berkeley", "name": "Creekwood", "image_url": "https://s3-media1.fl.yelpcdn.com/bphoto/JZyObiw11nngYy_HXGWPqA/o.jpg", "is_closed": false, "url": "https://www.yelp.com/biz/creekwood-berkeley?adjust_creative=Klanz-jboxl2XzqrjP6LLw&utm_campaign=yelp_api_v3&utm_medium=api_v3_business_search&utm_source=Klanz-jboxl2XzqrjP6LLw", "review_count": 350, "categories": [{"alias": "italian", "title": "Italian"}, {"alias": "breakfast_brunch", "title": "Breakfast & Brunch"}], "rating": 4.5, "coordinates": {"latitude": 37.8509, "longitude": -122.2782}, "transactions": ["pickup", "delivery"], "price": "$$", "location": {"address1": "3121 Sacramento St", "address2": null, "address3": "", "city": "Berkeley", "zip_code": "94702", "country": "US", "state": "CA", "display_address": ["3121 Sacramento St", "Berkeley, CA 94702"]}, "phone": "+15106478210", "display_phone": "(510) 647-8210", "distance": 17134.098060906595}, {"id": "3523gS3FWpFdGFR7vjvhnA", "alias": "caffe-sport-san-francisco", "name": "Caffe Sport", "image_url": "https://s3-media4.fl.yelpcdn.com/bphoto/2aaiCD2liS62y6X3iQ0hmA/o.jpg", "is_closed": false, "url": "https://www.yelp.com/biz/caffe-sport-san-francisco?adjust_creative=Klanz-jboxl2XzqrjP6LLw&utm_campaign=yelp_api_v3&utm_medium=api_v3_business_search&utm_source=Klanz-jboxl2XzqrjP6LLw", "review_count": 841, "categories": [{"alias": "italian", "title": "Italian"}, {"alias": "seafood", "title": "Seafood"}, {"alias": "pizza", "title": "Pizza"}], "rating": 4.0, "coordinates": {"latitude": 37.79977, "longitude": -122.40855}, "transactions": ["pickup", "restaurant_reservation", "delivery"], "price": "$$", "location": {"address1": "574 Green St", "address2": "", "address3": "", "city": "San Francisco", "zip_code": "94133", "country": "US", "state": "CA", "display_address": ["574 Green St", "San Francisco, CA 94133"]}, "phone": "+14159811251", "display_phone": "(415) 981-1251", "distance": 4953.222756789483}, {"id": "LjVlsV9tKGnv7e4Iyt9c5Q", "alias": "lark-san-francisco-2", "name": "Lark", "image_url": "https://s3-media4.fl.yelpcdn.com/bphoto/BiDUDWE3pDcZnRRvDk7ruA/o.jpg", "is_closed": false, "url": "https://www.yelp.com/biz/lark-san-francisco-2?adjust_creative=Klanz-jboxl2XzqrjP6LLw&utm_campaign=yelp_api_v3&utm_medium=api_v3_business_search&utm_source=Klanz-jboxl2XzqrjP6LLw", "review_count": 308, "categories": [{"alias": "newamerican", "title": "American (New)"}, {"alias": "mediterranean", "title": "Mediterranean"}, {"alias": "wine_bars", "title": "Wine Bars"}], "rating": 4.0, "coordinates": {"latitude": 37.761243, "longitude": -122.434248}, "transactions": ["delivery"], "price": "$$", "location": {"address1": "4068 18th St", "address2": "", "address3": "", "city": "San Francisco", "zip_code": "94114", "country": "US", "state": "CA", "display_address": ["4068 18th St", "San Francisco, CA 94114"]}, "phone": "+14154004623", "display_phone": "(415) 400-4623", "distance": 197.0605128915999}, {"id": "yuj03JWlXC9GSjucBBnwew", "alias": "beluga-san-francisco", "name": "Beluga", "image_url": "https://s3-media4.fl.yelpcdn.com/bphoto/HJ-d8ui8Wx3ocC7Yl_ZaZw/o.jpg", "is_closed": false, "url": "https://www.yelp.com/biz/beluga-san-francisco?adjust_creative=Klanz-jboxl2XzqrjP6LLw&utm_campaign=yelp_api_v3&utm_medium=api_v3_business_search&utm_source=Klanz-jboxl2XzqrjP6LLw", "review_count": 16, "categories": [{"alias": "russian", "title": "Russian"}, {"alias": "venues", "title": "Venues & Event Spaces"}, {"alias": "mediterranean", "title": "Mediterranean"}], "rating": 4.5, "coordinates": {"latitude": 37.78015, "longitude": -122.47659}, "transactions": ["delivery"], "price": "$$$$", "location": {"address1": "5323 Geary Blvd", "address2": "", "address3": "", "city": "San Francisco", "zip_code": "94121", "country": "US", "state": "CA", "display_address": ["5323 Geary Blvd", "San Francisco, CA 94121"]}, "phone": "+14153793903", "display_phone": "(415) 379-3903", "distance": 4131.202713474742}, {"id": "D9XAV5LglKogbZc5vOrLEg", "alias": "asiento-san-francisco", "name": "Asiento", "image_url": "https://s3-media2.fl.yelpcdn.com/bphoto/6CVEnTcUdNLHBwhG3eQC-Q/o.jpg", "is_closed": false, "url": "https://www.yelp.com/biz/asiento-san-francisco?adjust_creative=Klanz-jboxl2XzqrjP6LLw&utm_campaign=yelp_api_v3&utm_medium=api_v3_business_search&utm_source=Klanz-jboxl2XzqrjP6LLw", "review_count": 365, "categories": [{"alias": "tapas", "title": "Tapas Bars"}, {"alias": "cocktailbars", "title": "Cocktail Bars"}, {"alias": "burgers", "title": "Burgers"}], "rating": 4.0, "coordinates": {"latitude": 37.7577015, "longitude": -122.4094529}, "transactions": [], "price": "$$", "location": {"address1": "2730 21st St", "address2": "", "address3": "", "city": "San Francisco", "zip_code": "94110", "country": "US", "state": "CA", "display_address": ["2730 21st St", "San Francisco, CA 94110"]}, "phone": "+14158293375", "display_phone": "(415) 829-3375", "distance": 2399.5446126217726}, {"id": "_sl4NUAHcrqU-F9x25kBQw", "alias": "academy-bar-and-kitchen-san-francisco", "name": "Academy Bar & Kitchen", "image_url": "https://s3-media2.fl.yelpcdn.com/bphoto/CxkpjYwuFltDPeL52kolqA/o.jpg", "is_closed": false, "url": "https://www.yelp.com/biz/academy-bar-and-kitchen-san-francisco?adjust_creative=Klanz-jboxl2XzqrjP6LLw&utm_campaign=yelp_api_v3&utm_medium=api_v3_business_search&utm_source=Klanz-jboxl2XzqrjP6LLw", "review_count": 143, "categories": [{"alias": "pizza", "title": "Pizza"}, {"alias": "newamerican", "title": "American (New)"}, {"alias": "wine_bars", "title": "Wine Bars"}], "rating": 3.5, "coordinates": {"latitude": 37.786168449251, "longitude": -122.433223123944}, "transactions": ["pickup", "delivery"], "price": "$$", "location": {"address1": "1800 Fillmore St", "address2": "", "address3": "", "city": "San Francisco", "zip_code": "94115", "country": "US", "state": "CA", "display_address": ["1800 Fillmore St", "San Francisco, CA 94115"]}, "phone": "+14157751800", "display_phone": "(415) 775-1800", "distance": 2824.040773013768}, {"id": "M40Btpln7W2vTIEXlQeH5Q", "alias": "romanos-macaroni-grill-el-cerrito", "name": "Romano's Macaroni Grill", "image_url": "https://s3-media3.fl.yelpcdn.com/bphoto/mC6ipTa3oiJ6kdCSMFWk1A/o.jpg", "is_closed": false, "url": "https://www.yelp.com/biz/romanos-macaroni-grill-el-cerrito?adjust_creative=Klanz-jboxl2XzqrjP6LLw&utm_campaign=yelp_api_v3&utm_medium=api_v3_business_search&utm_source=Klanz-jboxl2XzqrjP6LLw", "review_count": 576, "categories": [{"alias": "italian", "title": "Italian"}], "rating": 3.0, "coordinates": {"latitude": 37.898659, "longitude": -122.301338}, "transactions": ["pickup", "delivery"], "price": "$$", "location": {"address1": "8000 El Cerrito Plz", "address2": "", "address3": "", "city": "El Cerrito", "zip_code": "94530", "country": "US", "state": "CA", "display_address": ["8000 El Cerrito Plz", "El Cerrito, CA 94530"]}, "phone": "+15105249336", "display_phone": "(510) 524-9336", "distance": 19376.502401227677}, {"id": "fAaxYP_sc03MV57trhBNPA", "alias": "gialina-pizzeria-san-francisco", "name": "Gialina Pizzeria", "image_url": "https://s3-media4.fl.yelpcdn.com/bphoto/W45CE4PIEp36dyVJEKLqLg/o.jpg", "is_closed": false, "url": "https://www.yelp.com/biz/gialina-pizzeria-san-francisco?adjust_creative=Klanz-jboxl2XzqrjP6LLw&utm_campaign=yelp_api_v3&utm_medium=api_v3_business_search&utm_source=Klanz-jboxl2XzqrjP6LLw", "review_count": 1122, "categories": [{"alias": "pizza", "title": "Pizza"}, {"alias": "italian", "title": "Italian"}, {"alias": "salad", "title": "Salad"}], "rating": 4.0, "coordinates": {"latitude": 37.73405, "longitude": -122.43424}, "transactions": ["delivery"], "price": "$$", "location": {"address1": "2842 Diamond St", "address2": "", "address3": "", "city": "San Francisco", "zip_code": "94131", "country": "US", "state": "CA", "display_address": ["2842 Diamond St", "San Francisco, CA 94131"]}, "phone": "+14152398500", "display_phone": "(415) 239-8500", "distance": 2995.525463475104}, {"id": "-m5Md4G5kYGta1d6-MHeng", "alias": "tomatina-alameda", "name": "Tomatina", "image_url": "https://s3-media2.fl.yelpcdn.com/bphoto/uHSf-IcdZMJDxedwgGnAaA/o.jpg", "is_closed": false, "url": "https://www.yelp.com/biz/tomatina-alameda?adjust_creative=Klanz-jboxl2XzqrjP6LLw&utm_campaign=yelp_api_v3&utm_medium=api_v3_business_search&utm_source=Klanz-jboxl2XzqrjP6LLw", "review_count": 785, "categories": [{"alias": "italian", "title": "Italian"}, {"alias": "pizza", "title": "Pizza"}], "rating": 3.0, "coordinates": {"latitude": 37.763489281672, "longitude": -122.2431543923}, "transactions": ["delivery"], "price": "$$", "location": {"address1": "1338 Park St", "address2": null, "address3": "", "city": "Alameda", "zip_code": "94501", "country": "US", "state": "CA", "display_address": ["1338 Park St", "Alameda, CA 94501"]}, "phone": "+15105211000", "display_phone": "(510) 521-1000", "distance": 16994.04550036248}, {"id": "_D1Ev_zTZs5ijHkleK6C2w", "alias": "hillstone-san-francisco-4", "name": "Hillstone", "image_url": "https://s3-media4.fl.yelpcdn.com/bphoto/BmBPhkeY2FewN38Rz9J_cw/o.jpg", "is_closed": false, "url": "https://www.yelp.com/biz/hillstone-san-francisco-4?adjust_creative=Klanz-jboxl2XzqrjP6LLw&utm_campaign=yelp_api_v3&utm_medium=api_v3_business_search&utm_source=Klanz-jboxl2XzqrjP6LLw", "review_count": 2326, "categories": [{"alias": "newamerican", "title": "American (New)"}, {"alias": "wine_bars", "title": "Wine Bars"}], "rating": 4.0, "coordinates": {"latitude": 37.805712595582, "longitude": -122.405280545354}, "transactions": ["delivery"], "price": "$$$", "location": {"address1": "1800 Montgomery St", "address2": "", "address3": "", "city": "San Francisco", "zip_code": "94111", "country": "US", "state": "CA", "display_address": ["1800 Montgomery St", "San Francisco, CA 94111"]}, "phone": "+14153929280", "display_phone": "(415) 392-9280", "distance": 5717.698790068706}, {"id": "iRbNvt98whBitdLO-FlOvg", "alias": "la-ginestra-mill-valley", "name": "La Ginestra", "image_url": "https://s3-media2.fl.yelpcdn.com/bphoto/XA7XmMnrrKteImwNycmtxg/o.jpg", "is_closed": false, "url": "https://www.yelp.com/biz/la-ginestra-mill-valley?adjust_creative=Klanz-jboxl2XzqrjP6LLw&utm_campaign=yelp_api_v3&utm_medium=api_v3_business_search&utm_source=Klanz-jboxl2XzqrjP6LLw", "review_count": 174, "categories": [{"alias": "italian", "title": "Italian"}], "rating": 4.0, "coordinates": {"latitude": 37.9057699, "longitude": -122.54862}, "transactions": ["delivery"], "price": "$$", "location": {"address1": "127 Throckmorton Ave", "address2": "", "address3": "", "city": "Mill Valley", "zip_code": "94941", "country": "US", "state": "CA", "display_address": ["127 Throckmorton Ave", "Mill Valley, CA 94941"]}, "phone": "+14153880224", "display_phone": "(415) 388-0224", "distance": 18882.27876306989}, {"id": "dhTrfvdlpFE33USafJ3cjQ", "alias": "bluestem-restaurant-and-market-san-francisco", "name": "Bluestem Restaurant &  Market", "image_url": "https://s3-media4.fl.yelpcdn.com/bphoto/YtFfNMzj-f1w05nbuAcMxg/o.jpg", "is_closed": false, "url": "https://www.yelp.com/biz/bluestem-restaurant-and-market-san-francisco?adjust_creative=Klanz-jboxl2XzqrjP6LLw&utm_campaign=yelp_api_v3&utm_medium=api_v3_business_search&utm_source=Klanz-jboxl2XzqrjP6LLw", "review_count": 1708, "categories": [{"alias": "wine_bars", "title": "Wine Bars"}, {"alias": "gourmet", "title": "Specialty Food"}], "rating": 4.0, "coordinates": {"latitude": 37.785985, "longitude": -122.404921}, "transactions": ["delivery"], "price": "$$$", "location": {"address1": "One Yerba Buena Ln", "address2": "", "address3": "", "city": "San Francisco", "zip_code": "94103", "country": "US", "state": "CA", "display_address": ["One Yerba Buena Ln", "San Francisco, CA 94103"]}, "phone": "+14155471111", "display_phone": "(415) 547-1111", "distance": 3931.7529515124697}, {"id": "PGGtbjr8m4V54tWMgqYxmQ", "alias": "marica-oakland-2", "name": "Marica", "image_url": "https://s3-media4.fl.yelpcdn.com/bphoto/3w65XPvraq-Q1ZQsrxvtkA/o.jpg", "is_closed": false, "url": "https://www.yelp.com/biz/marica-oakland-2?adjust_creative=Klanz-jboxl2XzqrjP6LLw&utm_campaign=yelp_api_v3&utm_medium=api_v3_business_search&utm_source=Klanz-jboxl2XzqrjP6LLw", "review_count": 2255, "categories": [{"alias": "seafood", "title": "Seafood"}, {"alias": "newamerican", "title": "American (New)"}], "rating": 4.5, "coordinates": {"latitude": 37.83798, "longitude": -122.2517}, "transactions": ["pickup", "delivery"], "price": "$$", "location": {"address1": "5301 College Ave", "address2": null, "address3": "", "city": "Oakland", "zip_code": "94618", "country": "US", "state": "CA", "display_address": ["5301 College Ave", "Oakland, CA 94618"]}, "phone": "+15109858388", "display_phone": "(510) 985-8388", "distance": 18375.817181914965}, {"id": "En8_SNPbvcEsjAmA_1AgYQ", "alias": "newkirks-san-francisco-3", "name": "Newkirk's", "image_url": "https://s3-media2.fl.yelpcdn.com/bphoto/GSj_N3NhOBquGWVa_nWmvg/o.jpg", "is_closed": false, "url": "https://www.yelp.com/biz/newkirks-san-francisco-3?adjust_creative=Klanz-jboxl2XzqrjP6LLw&utm_campaign=yelp_api_v3&utm_medium=api_v3_business_search&utm_source=Klanz-jboxl2XzqrjP6LLw", "review_count": 110, "categories": [{"alias": "sandwiches", "title": "Sandwiches"}], "rating": 5.0, "coordinates": {"latitude": 37.756, "longitude": -122.406912}, "transactions": ["pickup", "delivery"], "price": "$$", "location": {"address1": "1002 Potrero Ave", "address2": "", "address3": null, "city": "San Francisco", "zip_code": "94110", "country": "US", "state": "CA", "display_address": ["1002 Potrero Ave", "San Francisco, CA 94110"]}, "phone": "+14159627695", "display_phone": "(415) 962-7695", "distance": 2652.9881074887885}], "total": 1800, "region": {"center": {"longitude": -122.43644714355469, "latitude": 37.76089938976322}}}