{"businesses": [{"id": "WavvLdfdP6g8aZTtbBQHTw", "alias": "gary-danko-san-francisco", "name": "Gary Danko", "image_url": "https://s3-media3.fl.yelpcdn.com/bphoto/C3b6Cwh-gCtwnevRsN0GPw/o.jpg", "is_closed": false, "url": "https://www.yelp.com/biz/gary-danko-san-francisco?adjust_creative=Klanz-jboxl2XzqrjP6LLw&utm_campaign=yelp_api_v3&utm_medium=api_v3_business_search&utm_source=Klanz-jboxl2XzqrjP6LLw", "review_count": 5583, "categories": [{"alias": "newamerican", "title": "American (New)"}, {"alias": "french", "title": "French"}, {"alias": "wine_bars", "title": "Wine Bars"}], "rating": 4.5, "coordinates": {"latitude": 37.80587, "longitude": -122.42058}, "transactions": [], "price": "$$$$", "location": {"address1": "800 N Point St", "address2": "", "address3": "", "city": "San Francisco", "zip_code": "94109", "country": "US", "state": "CA", "display_address": ["800 N Point St", "San Francisco, CA 94109"]}, "phone": "+14157492060", "display_phone": "(415) 749-2060", "distance": 5191.341803207417}, {"id": "wPJjpOZ0mnsajJLBkWUnwA", "alias": "pizzeria-delfina-pacific-heights-san-francisco", "name": "Pizzeria Delfina - Pacific Heights", "image_url": "https://s3-media3.fl.yelpcdn.com/bphoto/MoOsOjRz2kdnPaWVMotIkg/o.jpg", "is_closed": false, "url": "https://www.yelp.com/biz/pizzeria-delfina-pacific-heights-san-francisco?adjust_creative=Klanz-jboxl2XzqrjP6LLw&utm_campaign=yelp_api_v3&utm_medium=api_v3_business_search&utm_source=Klanz-jboxl2XzqrjP6LLw", "review_count": 1501, "categories": [{"alias": "pizza", "title": "Pizza"}, {"alias": "italian", "title": "Italian"}], "rating": 4.0, "coordinates": {"latitude": 37.789104, "longitude": -122.434441}, "transactions": [], "price": "$$", "location": {"address1": "2406 California St", "address2": "", "address3": "", "city": "San Francisco", "zip_code": "94115", "country": "US", "state": "CA", "display_address": ["2406 California St", "San Francisco, CA 94115"]}, "phone": "+14154401189", "display_phone": "(415) 440-1189", "distance": 3141.158696783746}, {"id": "2hGIxgprREdBieylltWaRQ", "alias": "limoncello-san-francisco", "name": "Limoncello", "image_url": "https://s3-media1.fl.yelpcdn.com/bphoto/RJMZfygsa2NiYFM2wPzT-w/o.jpg", "is_closed": false, "url": "https://www.yelp.com/biz/limoncello-san-francisco?adjust_creative=Klanz-jboxl2XzqrjP6LLw&utm_campaign=yelp_api_v3&utm_medium=api_v3_business_search&utm_source=Klanz-jboxl2XzqrjP6LLw", "review_count": 1313, "categories": [{"alias": "sandwiches", "title": "Sandwiches"}, {"alias": "delis", "title": "Delis"}, {"alias": "beer_and_wine", "title": "Beer, Wine & Spirits"}], "rating": 5.0, "coordinates": {"latitude": 37.7873184067081, "longitude": -122.423591369312}, "transactions": ["delivery", "pickup"], "price": "$$", "location": {"address1": "1400 Sutter St", "address2": "", "address3": null, "city": "San Francisco", "zip_code": "94109", "country": "US", "state": "CA", "display_address": ["1400 Sutter St", "San Francisco, CA 94109"]}, "phone": "+14156386361", "display_phone": "(415) 638-6361", "distance": 3147.4667741360263}, {"id": "f4xJC682dIZ-rxfA4-JVFA", "alias": "baia-san-francisco-2", "name": "BAIA", "image_url": "https://s3-media1.fl.yelpcdn.com/bphoto/5msrgJ4J1fmieFqdih5lDA/o.jpg", "is_closed": false, "url": "https://www.yelp.com/biz/baia-san-francisco-2?adjust_creative=Klanz-jboxl2XzqrjP6LLw&utm_campaign=yelp_api_v3&utm_medium=api_v3_business_search&utm_source=Klanz-jboxl2XzqrjP6LLw", "review_count": 365, "categories": [{"alias": "italian", "title": "Italian"}, {"alias": "vegan", "title": "Vegan"}, {"alias": "cocktailbars", "title": "Cocktail Bars"}], "rating": 4.0, "coordinates": {"latitude": 37.77818, "longitude": -122.42177}, "transactions": ["delivery", "pickup"], "location": {"address1": "300 Grove St", "address2": null, "address3": null, "city": "San Francisco", "zip_code": "94102", "country": "US", "state": "CA", "display_address": ["300 Grove St", "San Francisco, CA 94102"]}, "phone": "+14158610625", "display_phone": "(415) 861-0625", "distance": 2311.6357761673066}, {"id": "IxDRIBkKtP-f24sr5zHAhQ", "alias": "pink-onion-san-francisco", "name": "Pink Onion", "image_url": "https://s3-media3.fl.yelpcdn.com/bphoto/8GtQUJi_GHlrng88Mv9TOQ/o.jpg", "is_closed": false, "url": "https://www.yelp.com/biz/pink-onion-san-francisco?adjust_creative=Klanz-jboxl2XzqrjP6LLw&utm_campaign=yelp_api_v3&utm_medium=api_v3_business_search&utm_source=Klanz-jboxl2XzqrjP6LLw", "review_count": 550, "categories": [{"alias": "pizza", "title": "Pizza"}, {"alias": "italian", "title": "Italian"}, {"alias": "gastropubs", "title": "Gastropubs"}], "rating": 4.5, "coordinates": {"latitude": 37.76871, "longitude": -122.41482}, "transactions": ["delivery", "pickup", "restaurant_reservation"], "price": "$$", "location": {"address1": "64 14th St", "address2": null, "address3": "", "city": "San Francisco", "zip_code": "94103", "country": "US", "state": "CA", "display_address": ["64 14th St", "San Francisco, CA 94103"]}, "phone": "+14155292635", "display_phone": "(415) 529-2635", "distance": 2089.2209574606563}, {"id": "oa6ZaLdQNzZHP7--gxBh2g", "alias": "california-fish-market-restaurant-san-francisco-3", "name": "California Fish Market Restaurant", "image_url": "https://s3-media2.fl.yelpcdn.com/bphoto/dT8Dx6y0ElNeU5Xe3funCQ/o.jpg", "is_closed": false, "url": "https://www.yelp.com/biz/california-fish-market-restaurant-san-francisco-3?adjust_creative=Klanz-jboxl2XzqrjP6LLw&utm_campaign=yelp_api_v3&utm_medium=api_v3_business_search&utm_source=Klanz-jboxl2XzqrjP6LLw", "review_count": 346, "categories": [{"alias": "seafood", "title": "Seafood"}, {"alias": "fishnchips", "title": "Fish & Chips"}, {"alias": "italian", "title": "Italian"}], "rating": 4.5, "coordinates": {"latitude": 37.7998, "longitude": -122.40832}, "transactions": ["delivery", "pickup", "restaurant_reservation"], "price": "$$", "location": {"address1": "550 Green St", "address2": "", "address3": null, "city": "San Francisco", "zip_code": "94133", "country": "US", "state": "CA", "display_address": ["550 Green St", "San Francisco, CA 94133"]}, "phone": "+14157570918", "display_phone": "(415) 757-0918", "distance": 4983.514370435519}, {"id": "SIlvau33Tsp5IuEEmGf46A", "alias": "amarena-san-francisco-3", "name": "Amarena", "image_url": "https://s3-media2.fl.yelpcdn.com/bphoto/e-cdz4CAicS7fSVOZLdtpA/o.jpg", "is_closed": false, "url": "https://www.yelp.com/biz/amarena-san-francisco-3?adjust_creative=Klanz-jboxl2XzqrjP6LLw&utm_campaign=yelp_api_v3&utm_medium=api_v3_business_search&utm_source=Klanz-jboxl2XzqrjP6LLw", "review_count": 624, "categories": [{"alias": "italian", "title": "Italian"}], "rating": 4.0, "coordinates": {"latitude": 37.7976816937671, "longitude": -122.420360780032}, "transactions": ["delivery", "pickup"], "price": "$$", "location": {"address1": "2162 Larkin St", "address2": "", "address3": "", "city": "San Francisco", "zip_code": "94109", "country": "US", "state": "CA", "display_address": ["2162 Larkin St", "San Francisco, CA 94109"]}, "phone": "+14154470441", "display_phone": "(415) 447-0441", "distance": 4356.605927004139}, {"id": "scOW_lrWRh0dPb5aFS8pmg", "alias": "altovino-san-francisco", "name": "AltoVino", "image_url": "https://s3-media4.fl.yelpcdn.com/bphoto/GcKj4QjMMuoVktrtRCc3xA/o.jpg", "is_closed": false, "url": "https://www.yelp.com/biz/altovino-san-francisco?adjust_creative=Klanz-jboxl2XzqrjP6LLw&utm_campaign=yelp_api_v3&utm_medium=api_v3_business_search&utm_source=Klanz-jboxl2XzqrjP6LLw", "review_count": 122, "categories": [{"alias": "italian", "title": "Italian"}], "rating": 4.5, "coordinates": {"latitude": 37.796181, "longitude": -122.41151}, "transactions": ["delivery"], "price": "$$$", "location": {"address1": "1358 Mason St", "address2": "", "address3": null, "city": "San Francisco", "zip_code": "94133", "country": "US", "state": "CA", "display_address": ["1358 Mason St", "San Francisco, CA 94133"]}, "phone": "+14155292435", "display_phone": "(415) 529-2435", "distance": 4498.132963852264}, {"id": "8skVQNkVBv90iiPtFeSpzw", "alias": "zero-zero-san-francisco", "name": "Zero Zero", "image_url": "https://s3-media2.fl.yelpcdn.com/bphoto/3NWFaTXsoZhEKZuzcNteXw/o.jpg", "is_closed": false, "url": "https://www.yelp.com/biz/zero-zero-san-francisco?adjust_creative=Klanz-jboxl2XzqrjP6LLw&utm_campaign=yelp_api_v3&utm_medium=api_v3_business_search&utm_source=Klanz-jboxl2XzqrjP6LLw", "review_count": 3330, "categories": [{"alias": "pizza", "title": "Pizza"}, {"alias": "italian", "title": "Italian"}, {"alias": "cocktailbars", "title": "Cocktail Bars"}], "rating": 4.0, "coordinates": {"latitude": 37.78163, "longitude": -122.40204}, "transactions": ["pickup"], "price": "$$", "location": {"address1": "826 Folsom St", "address2": "", "address3": "", "city": "San Francisco", "zip_code": "94107", "country": "US", "state": "CA", "display_address": ["826 Folsom St", "San Francisco, CA 94107"]}, "phone": "+14153488800", "display_phone": "(415) 348-8800", "distance": 3800.206476277323}, {"id": "8bySDwY9OU-DWaZebUR7vg", "alias": "roccos-caf\u00e9-san-francisco-3", "name": "Rocco's Caf\u00e9", "image_url": "https://s3-media4.fl.yelpcdn.com/bphoto/ZUGZqVh2HKrEBqFMecZhDg/o.jpg", "is_closed": false, "url": "https://www.yelp.com/biz/roccos-caf%C3%A9-san-francisco-3?adjust_creative=Klanz-jboxl2XzqrjP6LLw&utm_campaign=yelp_api_v3&utm_medium=api_v3_business_search&utm_source=Klanz-jboxl2XzqrjP6LLw", "review_count": 1033, "categories": [{"alias": "italian", "title": "Italian"}, {"alias": "tradamerican", "title": "American (Traditional)"}, {"alias": "breakfast_brunch", "title": "Breakfast & Brunch"}], "rating": 4.0, "coordinates": {"latitude": 37.7759552001953, "longitude": -122.40845489502}, "transactions": ["delivery", "pickup", "restaurant_reservation"], "price": "$$", "location": {"address1": "1131 Folsom St", "address2": "", "address3": "", "city": "San Francisco", "zip_code": "94103", "country": "US", "state": "CA", "display_address": ["1131 Folsom St", "San Francisco, CA 94103"]}, "phone": "+14155540522", "display_phone": "(415) 554-0522", "distance": 2976.8890608284028}, {"id": "MjeuqfVgxCL_XVJJoCLTFg", "alias": "fiore-caff\u00e8-san-francisco-2", "name": "Fiore Caff\u00e8", "image_url": "https://s3-media3.fl.yelpcdn.com/bphoto/cyM5vl3S7atVSCs2CEPNbw/o.jpg", "is_closed": false, "url": "https://www.yelp.com/biz/fiore-caff%C3%A8-san-francisco-2?adjust_creative=Klanz-jboxl2XzqrjP6LLw&utm_campaign=yelp_api_v3&utm_medium=api_v3_business_search&utm_source=Klanz-jboxl2XzqrjP6LLw", "review_count": 360, "categories": [{"alias": "italian", "title": "Italian"}, {"alias": "wine_bars", "title": "Wine Bars"}], "rating": 4.0, "coordinates": {"latitude": 37.7518653, "longitude": -122.4226806}, "transactions": ["delivery", "pickup"], "price": "$$", "location": {"address1": "3599 24th St", "address2": "", "address3": "", "city": "San Francisco", "zip_code": "94110", "country": "US", "state": "CA", "display_address": ["3599 24th St", "San Francisco, CA 94110"]}, "phone": "+14156424822", "display_phone": "(415) 642-4822", "distance": 1572.5651572306394}, {"id": "qs7FgJ-UXgpbAMass0Oojg", "alias": "flour-water-san-francisco", "name": "Flour + Water", "image_url": "https://s3-media3.fl.yelpcdn.com/bphoto/IsU1KVvP2Da9ESOYbFfh_g/o.jpg", "is_closed": false, "url": "https://www.yelp.com/biz/flour-water-san-francisco?adjust_creative=Klanz-jboxl2XzqrjP6LLw&utm_campaign=yelp_api_v3&utm_medium=api_v3_business_search&utm_source=Klanz-jboxl2XzqrjP6LLw", "review_count": 2394, "categories": [{"alias": "italian", "title": "Italian"}, {"alias": "pizza", "title": "Pizza"}], "rating": 3.5, "coordinates": {"latitude": 37.75892, "longitude": -122.41231}, "transactions": [], "price": "$$$", "location": {"address1": "2401 Harrison St", "address2": "", "address3": "", "city": "San Francisco", "zip_code": "94110", "country": "US", "state": "CA", "display_address": ["2401 Harrison St", "San Francisco, CA 94110"]}, "phone": "+14158267000", "display_phone": "(415) 826-7000", "distance": 2135.503627838207}, {"id": "DRUpIbwReVs53nm6bTHA3A", "alias": "agrodolce-osteria-berkeley", "name": "Agrodolce Osteria", "image_url": "https://s3-media2.fl.yelpcdn.com/bphoto/7btRpGekknPkOhDGiqTsig/o.jpg", "is_closed": false, "url": "https://www.yelp.com/biz/agrodolce-osteria-berkeley?adjust_creative=Klanz-jboxl2XzqrjP6LLw&utm_campaign=yelp_api_v3&utm_medium=api_v3_business_search&utm_source=Klanz-jboxl2XzqrjP6LLw", "review_count": 573, "categories": [{"alias": "italian", "title": "Italian"}], "rating": 3.5, "coordinates": {"latitude": 37.87595, "longitude": -122.26907}, "transactions": ["delivery", "pickup"], "price": "$$", "location": {"address1": "1730 Shattuck Ave", "address2": "", "address3": null, "city": "Berkeley", "zip_code": "94709", "country": "US", "state": "CA", "display_address": ["1730 Shattuck Ave", "Berkeley, CA 94709"]}, "phone": "+15108488748", "display_phone": "(510) 848-8748", "distance": 19487.743060760797}, {"id": "oqsu3pKpgRMGHj9QItsx0A", "alias": "zuni-caf\u00e9-san-francisco-3", "name": "Zuni Caf\u00e9", "image_url": "https://s3-media1.fl.yelpcdn.com/bphoto/pRvaKZbCIa5I0CWMJHNMOw/o.jpg", "is_closed": false, "url": "https://www.yelp.com/biz/zuni-caf%C3%A9-san-francisco-3?adjust_creative=Klanz-jboxl2XzqrjP6LLw&utm_campaign=yelp_api_v3&utm_medium=api_v3_business_search&utm_source=Klanz-jboxl2XzqrjP6LLw", "review_count": 2838, "categories": [{"alias": "italian", "title": "Italian"}, {"alias": "french", "title": "French"}], "rating": 3.5, "coordinates": {"latitude": 37.7734826, "longitude": -122.4216396}, "transactions": ["delivery"], "price": "$$$", "location": {"address1": "1658 Market St", "address2": "", "address3": "", "city": "San Francisco", "zip_code": "94102", "country": "US", "state": "CA", "display_address": ["1658 Market St", "San Francisco, CA 94102"]}, "phone": "+14155522522", "display_phone": "(415) 552-2522", "distance": 1921.6447621787343}, {"id": "GNzoAOXPxP0UzW7fb51dNg", "alias": "giorgios-pizzeria-san-francisco-5", "name": "Giorgio's Pizzeria", "image_url": "https://s3-media1.fl.yelpcdn.com/bphoto/vU47fe1g2ikvJnntxcaA5w/o.jpg", "is_closed": false, "url": "https://www.yelp.com/biz/giorgios-pizzeria-san-francisco-5?adjust_creative=Klanz-jboxl2XzqrjP6LLw&utm_campaign=yelp_api_v3&utm_medium=api_v3_business_search&utm_source=Klanz-jboxl2XzqrjP6LLw", "review_count": 1071, "categories": [{"alias": "pizza", "title": "Pizza"}, {"alias": "italian", "title": "Italian"}, {"alias": "sandwiches", "title": "Sandwiches"}], "rating": 4.0, "coordinates": {"latitude": 37.7829999120287, "longitude": -122.461083021665}, "transactions": ["delivery", "pickup"], "price": "$$", "location": {"address1": "151 Clement St", "address2": "", "address3": "", "city": "San Francisco", "zip_code": "94118", "country": "US", "state": "CA", "display_address": ["151 Clement St", "San Francisco, CA 94118"]}, "phone": "+14156681266", "display_phone": "(415) 668-1266", "distance": 3275.3472952500683}, {"id": "Ws6FGlrk0yxBT7GFpik57g", "alias": "ideale-san-francisco-2", "name": "Ideale", "image_url": "https://s3-media3.fl.yelpcdn.com/bphoto/7X6QUPQ-NBX6cDA2yr5SwQ/o.jpg", "is_closed": false, "url": "https://www.yelp.com/biz/ideale-san-francisco-2?adjust_creative=Klanz-jboxl2XzqrjP6LLw&utm_campaign=yelp_api_v3&utm_medium=api_v3_business_search&utm_source=Klanz-jboxl2XzqrjP6LLw", "review_count": 760, "categories": [{"alias": "italian", "title": "Italian"}, {"alias": "cocktailbars", "title": "Cocktail Bars"}, {"alias": "pizza", "title": "Pizza"}], "rating": 4.0, "coordinates": {"latitude": 37.7989937163397, "longitude": -122.40742017791}, "transactions": ["delivery", "pickup"], "price": "$$", "location": {"address1": "1309 Grant Ave", "address2": "", "address3": "", "city": "San Francisco", "zip_code": "94133", "country": "US", "state": "CA", "display_address": ["1309 Grant Ave", "San Francisco, CA 94133"]}, "phone": "+14153914129", "display_phone": "(415) 391-4129", "distance": 4944.749633700071}, {"id": "pf_1RlNcUfs9KkntxVQFmA", "alias": "manzoni-san-francisco-2", "name": "Manzoni", "image_url": "https://s3-media3.fl.yelpcdn.com/bphoto/tvQL4_7Cnqsx7ML4P8em8w/o.jpg", "is_closed": false, "url": "https://www.yelp.com/biz/manzoni-san-francisco-2?adjust_creative=Klanz-jboxl2XzqrjP6LLw&utm_campaign=yelp_api_v3&utm_medium=api_v3_business_search&utm_source=Klanz-jboxl2XzqrjP6LLw", "review_count": 246, "categories": [{"alias": "italian", "title": "Italian"}], "rating": 4.0, "coordinates": {"latitude": 37.7348084002733, "longitude": -122.433823272586}, "transactions": ["delivery", "pickup"], "price": "$$", "location": {"address1": "2788 Diamond St", "address2": "", "address3": "", "city": "San Francisco", "zip_code": "94131", "country": "US", "state": "CA", "display_address": ["2788 Diamond St", "San Francisco, CA 94131"]}, "phone": "+14153342251", "display_phone": "(415) 334-2251", "distance": 2915.609069896101}, {"id": "66khyY7kxNKiW6x7anZj9g", "alias": "il-pollaio-san-francisco", "name": "Il Pollaio", "image_url": "https://s3-media3.fl.yelpcdn.com/bphoto/4-dXuniVSpYwo0rv7KEH-w/o.jpg", "is_closed": false, "url": "https://www.yelp.com/biz/il-pollaio-san-francisco?adjust_creative=Klanz-jboxl2XzqrjP6LLw&utm_campaign=yelp_api_v3&utm_medium=api_v3_business_search&utm_source=Klanz-jboxl2XzqrjP6LLw", "review_count": 399, "categories": [{"alias": "italian", "title": "Italian"}, {"alias": "argentine", "title": "Argentine"}], "rating": 4.5, "coordinates": {"latitude": 37.800039, "longitude": -122.4098505}, "transactions": ["delivery"], "price": "$$", "location": {"address1": "555 Columbus Ave", "address2": "", "address3": "", "city": "San Francisco", "zip_code": "94133", "country": "US", "state": "CA", "display_address": ["555 Columbus Ave", "San Francisco, CA 94133"]}, "phone": "+14153627727", "display_phone": "(415) 362-7727", "distance": 4940.094418176341}, {"id": "smceLM-VDB5jkILB6OSSvg", "alias": "bambinos-ristorante-san-francisco", "name": "Bambino's Ristrorante", "image_url": "https://s3-media3.fl.yelpcdn.com/bphoto/7ttnzyuXmXoGO1Q8-RRZvA/o.jpg", "is_closed": false, "url": "https://www.yelp.com/biz/bambinos-ristorante-san-francisco?adjust_creative=Klanz-jboxl2XzqrjP6LLw&utm_campaign=yelp_api_v3&utm_medium=api_v3_business_search&utm_source=Klanz-jboxl2XzqrjP6LLw", "review_count": 586, "categories": [{"alias": "pizza", "title": "Pizza"}, {"alias": "breakfast_brunch", "title": "Breakfast & Brunch"}, {"alias": "italian", "title": "Italian"}], "rating": 4.0, "coordinates": {"latitude": 37.76512, "longitude": -122.45011}, "transactions": ["delivery", "pickup"], "price": "$$", "location": {"address1": "945 Cole St", "address2": "", "address3": "", "city": "San Fransico", "zip_code": "94117", "country": "US", "state": "CA", "display_address": ["945 Cole St", "San Fransico, CA 94117"]}, "phone": "+14157311343", "display_phone": "(415) 731-1343", "distance": 1285.6480875901623}, {"id": "ztL8KI0ed0snCiK88ZUfNw", "alias": "perbacco-san-francisco", "name": "Perbacco", "image_url": "https://s3-media1.fl.yelpcdn.com/bphoto/mFqhn5uJ9C_XC1XSCOdtEg/o.jpg", "is_closed": false, "url": "https://www.yelp.com/biz/perbacco-san-francisco?adjust_creative=Klanz-jboxl2XzqrjP6LLw&utm_campaign=yelp_api_v3&utm_medium=api_v3_business_search&utm_source=Klanz-jboxl2XzqrjP6LLw", "review_count": 2098, "categories": [{"alias": "italian", "title": "Italian"}, {"alias": "bars", "title": "Bars"}], "rating": 4.0, "coordinates": {"latitude": 37.7934543812786, "longitude": -122.399336635582}, "transactions": ["delivery", "pickup"], "price": "$$$", "location": {"address1": "230 California St", "address2": null, "address3": "", "city": "San Francisco", "zip_code": "94111", "country": "US", "state": "CA", "display_address": ["230 California St", "San Francisco, CA 94111"]}, "phone": "+14159550663", "display_phone": "(415) 955-0663", "distance": 4872.566157562135}, {"id": "bwQ-PAym-XDMax9nloPHfA", "alias": "luna-blu-tiburon", "name": "Luna Blu", "image_url": "https://s3-media2.fl.yelpcdn.com/bphoto/ZzykgI8-TyrG0-_FaHXCzw/o.jpg", "is_closed": false, "url": "https://www.yelp.com/biz/luna-blu-tiburon?adjust_creative=Klanz-jboxl2XzqrjP6LLw&utm_campaign=yelp_api_v3&utm_medium=api_v3_business_search&utm_source=Klanz-jboxl2XzqrjP6LLw", "review_count": 722, "categories": [{"alias": "italian", "title": "Italian"}, {"alias": "seafood", "title": "Seafood"}, {"alias": "bars", "title": "Bars"}], "rating": 4.5, "coordinates": {"latitude": 37.873041, "longitude": -122.45676125706044}, "transactions": ["delivery", "pickup"], "price": "$$$", "location": {"address1": "35 Main St", "address2": "", "address3": "", "city": "Tiburon", "zip_code": "94920", "country": "US", "state": "CA", "display_address": ["35 Main St", "Tiburon, CA 94920"]}, "phone": "+14157895844", "display_phone": "(415) 789-5844", "distance": 12596.592909707411}, {"id": "6h7YCp2KLfbu3tbRmNSb-g", "alias": "cioppinos-san-francisco", "name": "Cioppino's", "image_url": "https://s3-media4.fl.yelpcdn.com/bphoto/CP9ZdnbhhXPQ2_6bS2V3OA/o.jpg", "is_closed": false, "url": "https://www.yelp.com/biz/cioppinos-san-francisco?adjust_creative=Klanz-jboxl2XzqrjP6LLw&utm_campaign=yelp_api_v3&utm_medium=api_v3_business_search&utm_source=Klanz-jboxl2XzqrjP6LLw", "review_count": 1748, "categories": [{"alias": "italian", "title": "Italian"}, {"alias": "seafood", "title": "Seafood"}, {"alias": "bars", "title": "Bars"}], "rating": 3.5, "coordinates": {"latitude": 37.8079387690789, "longitude": -122.41927103988}, "transactions": ["delivery", "pickup"], "price": "$$", "location": {"address1": "400 Jefferson St", "address2": "", "address3": "", "city": "San Francisco", "zip_code": "94109", "country": "US", "state": "CA", "display_address": ["400 Jefferson St", "San Francisco, CA 94109"]}, "phone": "+14157759311", "display_phone": "(415) 775-9311", "distance": 5443.97562040117}, {"id": "CS0pUlk25RV2-vhKFFbxqA", "alias": "the-progress-san-francisco-2", "name": "The Progress", "image_url": "https://s3-media3.fl.yelpcdn.com/bphoto/a1zVlVwlBudPaABuq9d71g/o.jpg", "is_closed": false, "url": "https://www.yelp.com/biz/the-progress-san-francisco-2?adjust_creative=Klanz-jboxl2XzqrjP6LLw&utm_campaign=yelp_api_v3&utm_medium=api_v3_business_search&utm_source=Klanz-jboxl2XzqrjP6LLw", "review_count": 925, "categories": [{"alias": "newamerican", "title": "American (New)"}, {"alias": "bars", "title": "Bars"}], "rating": 4.0, "coordinates": {"latitude": 37.7836608886719, "longitude": -122.433074951172}, "transactions": [], "price": "$$$$", "location": {"address1": "1525 Fillmore St", "address2": "", "address3": "", "city": "San Francisco", "zip_code": "94115", "country": "US", "state": "CA", "display_address": ["1525 Fillmore St", "San Francisco, CA 94115"]}, "phone": "+14156731294", "display_phone": "(415) 673-1294", "distance": 2548.9070794457953}, {"id": "v1aUahwzM8CTeLA0O7J8ww", "alias": "ristorante-milano-san-francisco", "name": "Ristorante Milano", "image_url": "https://s3-media1.fl.yelpcdn.com/bphoto/StSQoHaFI3TDI_LMBq0m0w/o.jpg", "is_closed": false, "url": "https://www.yelp.com/biz/ristorante-milano-san-francisco?adjust_creative=Klanz-jboxl2XzqrjP6LLw&utm_campaign=yelp_api_v3&utm_medium=api_v3_business_search&utm_source=Klanz-jboxl2XzqrjP6LLw", "review_count": 726, "categories": [{"alias": "italian", "title": "Italian"}], "rating": 4.0, "coordinates": {"latitude": 37.795532, "longitude": -122.419059}, "transactions": ["delivery"], "price": "$$$", "location": {"address1": "1448 Pacific Ave", "address2": "", "address3": "", "city": "San Francisco", "zip_code": "94109", "country": "US", "state": "CA", "display_address": ["1448 Pacific Ave", "San Francisco, CA 94109"]}, "phone": "+14156732961", "display_phone": "(415) 673-2961", "distance": 4144.535400067321}, {"id": "p-9C-J5P3mEIrSE8TMsc5A", "alias": "via-piccola-trattoria-tiburon", "name": "Via Piccola Trattoria", "image_url": "https://s3-media1.fl.yelpcdn.com/bphoto/fzR6QMRaaDri9Ylq6BXMaw/o.jpg", "is_closed": false, "url": "https://www.yelp.com/biz/via-piccola-trattoria-tiburon?adjust_creative=Klanz-jboxl2XzqrjP6LLw&utm_campaign=yelp_api_v3&utm_medium=api_v3_business_search&utm_source=Klanz-jboxl2XzqrjP6LLw", "review_count": 68, "categories": [{"alias": "italian", "title": "Italian"}], "rating": 4.5, "coordinates": {"latitude": 37.89934, "longitude": -122.50014}, "transactions": [], "price": "$$", "location": {"address1": "1 Blackfield Dr", "address2": "Ste 11", "address3": null, "city": "Tiburon", "zip_code": "94920", "country": "US", "state": "CA", "display_address": ["1 Blackfield Dr", "Ste 11", "Tiburon, CA 94920"]}, "phone": "+14153889100", "display_phone": "(415) 388-9100", "distance": 16376.420587752396}, {"id": "1KbZaqEdZkn6LHlA55M64g", "alias": "the-richmond-san-francisco", "name": "The Richmond", "image_url": "https://s3-media4.fl.yelpcdn.com/bphoto/74GDbSIKWlWv6LrJS8kX7w/o.jpg", "is_closed": false, "url": "https://www.yelp.com/biz/the-richmond-san-francisco?adjust_creative=Klanz-jboxl2XzqrjP6LLw&utm_campaign=yelp_api_v3&utm_medium=api_v3_business_search&utm_source=Klanz-jboxl2XzqrjP6LLw", "review_count": 732, "categories": [{"alias": "newamerican", "title": "American (New)"}], "rating": 4.5, "coordinates": {"latitude": 37.77702, "longitude": -122.46534}, "transactions": ["delivery"], "price": "$$$", "location": {"address1": "615 Balboa St", "address2": "", "address3": "", "city": "San Francisco", "zip_code": "94118", "country": "US", "state": "CA", "display_address": ["615 Balboa St", "San Francisco, CA 94118"]}, "phone": "+14153798988", "display_phone": "(415) 379-8988", "distance": 3114.0148136196945}, {"id": "__I9HmtBMV4dDkEgT22V4g", "alias": "little-star-pizza-divisadero-san-francisco-2", "name": "Little Star Pizza - Divisadero ", "image_url": "https://s3-media2.fl.yelpcdn.com/bphoto/pSPNqMtQa4kRjjuJ9z8muw/o.jpg", "is_closed": false, "url": "https://www.yelp.com/biz/little-star-pizza-divisadero-san-francisco-2?adjust_creative=Klanz-jboxl2XzqrjP6LLw&utm_campaign=yelp_api_v3&utm_medium=api_v3_business_search&utm_source=Klanz-jboxl2XzqrjP6LLw", "review_count": 2964, "categories": [{"alias": "pizza", "title": "Pizza"}, {"alias": "italian", "title": "Italian"}, {"alias": "bars", "title": "Bars"}], "rating": 4.5, "coordinates": {"latitude": 37.77753, "longitude": -122.43798}, "transactions": ["delivery"], "price": "$$", "location": {"address1": "846 Divisadero St", "address2": "", "address3": "", "city": "San Francisco", "zip_code": "94117", "country": "US", "state": "CA", "display_address": ["846 Divisadero St", "San Francisco, CA 94117"]}, "phone": "+14154411118", "display_phone": "(415) 441-1118", "distance": 1855.1637883138924}, {"id": "x2djtavZIsv84ZKnz_vRMA", "alias": "beretta-san-francisco-2", "name": "Beretta", "image_url": "https://s3-media4.fl.yelpcdn.com/bphoto/ZbD1EvYCH0haRdmZ3E_7Ow/o.jpg", "is_closed": false, "url": "https://www.yelp.com/biz/beretta-san-francisco-2?adjust_creative=Klanz-jboxl2XzqrjP6LLw&utm_campaign=yelp_api_v3&utm_medium=api_v3_business_search&utm_source=Klanz-jboxl2XzqrjP6LLw", "review_count": 212, "categories": [{"alias": "italian", "title": "Italian"}, {"alias": "pizza", "title": "Pizza"}, {"alias": "breakfast_brunch", "title": "Breakfast & Brunch"}], "rating": 4.0, "coordinates": {"latitude": 37.775749, "longitude": -122.43825}, "transactions": ["restaurant_reservation"], "price": "$$", "location": {"address1": "661 Divisadero St", "address2": "", "address3": null, "city": "San Francisco", "zip_code": "94117", "country": "US", "state": "CA", "display_address": ["661 Divisadero St", "San Francisco, CA 94117"]}, "phone": "+14156545211", "display_phone": "(415) 654-5211", "distance": 1658.1789778902603}, {"id": "WxxE5kE8omgQhJE8sWIvmA", "alias": "tadich-grill-san-francisco", "name": "Tadich Grill", "image_url": "https://s3-media2.fl.yelpcdn.com/bphoto/0WCxsz1br9y1kwZF0EGqHA/o.jpg", "is_closed": false, "url": "https://www.yelp.com/biz/tadich-grill-san-francisco?adjust_creative=Klanz-jboxl2XzqrjP6LLw&utm_campaign=yelp_api_v3&utm_medium=api_v3_business_search&utm_source=Klanz-jboxl2XzqrjP6LLw", "review_count": 2517, "categories": [{"alias": "seafood", "title": "Seafood"}, {"alias": "venues", "title": "Venues & Event Spaces"}, {"alias": "wine_bars", "title": "Wine Bars"}], "rating": 4.0, "coordinates": {"latitude": 37.793431560349, "longitude": -122.399468217791}, "transactions": ["delivery"], "price": "$$$", "location": {"address1": "240 California St", "address2": "", "address3": "", "city": "San Francisco", "zip_code": "94111", "country": "US", "state": "CA", "display_address": ["240 California St", "San Francisco, CA 94111"]}, "phone": "+14153911849", "display_phone": "(415) 391-1849", "distance": 4862.94513865943}, {"id": "_2d9lqRviRVisHi7EeQaiw", "alias": "penny-roma-san-francisco", "name": "Penny Roma", "image_url": "https://s3-media3.fl.yelpcdn.com/bphoto/-YnKTCPuCDtek1Rw82afiQ/o.jpg", "is_closed": false, "url": "https://www.yelp.com/biz/penny-roma-san-francisco?adjust_creative=Klanz-jboxl2XzqrjP6LLw&utm_campaign=yelp_api_v3&utm_medium=api_v3_business_search&utm_source=Klanz-jboxl2XzqrjP6LLw", "review_count": 52, "categories": [{"alias": "italian", "title": "Italian"}, {"alias": "venues", "title": "Venues & Event Spaces"}], "rating": 4.0, "coordinates": {"latitude": 37.75936777278879, "longitude": -122.41109653157417}, "transactions": [], "location": {"address1": "3000 20th St", "address2": "", "address3": null, "city": "San Francisco", "zip_code": "94110", "country": "US", "state": "CA", "display_address": ["3000 20th St", "San Francisco, CA 94110"]}, "phone": "+14158267004", "display_phone": "(415) 826-7004", "distance": 2235.033142114422}, {"id": "gqVl3RprESEqkIPeJH0yOg", "alias": "zazie-san-francisco", "name": "Zazie", "image_url": "https://s3-media2.fl.yelpcdn.com/bphoto/4bIdpvswyZbWz1343vlCaA/o.jpg", "is_closed": false, "url": "https://www.yelp.com/biz/zazie-san-francisco?adjust_creative=Klanz-jboxl2XzqrjP6LLw&utm_campaign=yelp_api_v3&utm_medium=api_v3_business_search&utm_source=Klanz-jboxl2XzqrjP6LLw", "review_count": 4744, "categories": [{"alias": "breakfast_brunch", "title": "Breakfast & Brunch"}, {"alias": "french", "title": "French"}, {"alias": "wine_bars", "title": "Wine Bars"}], "rating": 4.0, "coordinates": {"latitude": 37.765244, "longitude": -122.4501138}, "transactions": ["delivery", "restaurant_reservation"], "price": "$$", "location": {"address1": "941 Cole St", "address2": "", "address3": "", "city": "San Francisco", "zip_code": "94117", "country": "US", "state": "CA", "display_address": ["941 Cole St", "San Francisco, CA 94117"]}, "phone": "+14155645332", "display_phone": "(415) 564-5332", "distance": 1294.8624343961546}, {"id": "mfD5wlWS6tY92FJHDcBwJA", "alias": "bouche-san-francisco", "name": "Bouche", "image_url": "https://s3-media4.fl.yelpcdn.com/bphoto/_9vcFd7tvgKRrE3Y0xebwQ/o.jpg", "is_closed": false, "url": "https://www.yelp.com/biz/bouche-san-francisco?adjust_creative=Klanz-jboxl2XzqrjP6LLw&utm_campaign=yelp_api_v3&utm_medium=api_v3_business_search&utm_source=Klanz-jboxl2XzqrjP6LLw", "review_count": 817, "categories": [{"alias": "french", "title": "French"}], "rating": 4.5, "coordinates": {"latitude": 37.790254, "longitude": -122.407361268997}, "transactions": ["delivery", "pickup"], "price": "$$$", "location": {"address1": "603 Bush St", "address2": "", "address3": "", "city": "San Francisco", "zip_code": "94108", "country": "US", "state": "CA", "display_address": ["603 Bush St", "San Francisco, CA 94108"]}, "phone": "+14159560396", "display_phone": "(415) 956-0396", "distance": 4145.9869960215665}, {"id": "fFd7Lpd1fmkfyO_v4e_Oyg", "alias": "italy-on-gilman-berkeley-2", "name": "Italy On Gilman", "image_url": "https://s3-media2.fl.yelpcdn.com/bphoto/vdyCKZafMmE1cOXKXPcISA/o.jpg", "is_closed": false, "url": "https://www.yelp.com/biz/italy-on-gilman-berkeley-2?adjust_creative=Klanz-jboxl2XzqrjP6LLw&utm_campaign=yelp_api_v3&utm_medium=api_v3_business_search&utm_source=Klanz-jboxl2XzqrjP6LLw", "review_count": 203, "categories": [{"alias": "italian", "title": "Italian"}], "rating": 4.0, "coordinates": {"latitude": 37.880035, "longitude": -122.29712}, "transactions": ["delivery", "pickup"], "price": "$$", "location": {"address1": "1300 10th St", "address2": "", "address3": null, "city": "Berkeley", "zip_code": "94710", "country": "US", "state": "CA", "display_address": ["1300 10th St", "Berkeley, CA 94710"]}, "phone": "+15109906189", "display_phone": "(510) 990-6189", "distance": 18033.2968323383}, {"id": "qJjG0n8T75Lmndr5vqBXwA", "alias": "santino-s-vino-san-francisco", "name": "Santino\u2019s Vino", "image_url": "https://s3-media1.fl.yelpcdn.com/bphoto/Wouuk39XZsTHn3QGPXieSQ/o.jpg", "is_closed": false, "url": "https://www.yelp.com/biz/santino-s-vino-san-francisco?adjust_creative=Klanz-jboxl2XzqrjP6LLw&utm_campaign=yelp_api_v3&utm_medium=api_v3_business_search&utm_source=Klanz-jboxl2XzqrjP6LLw", "review_count": 80, "categories": [{"alias": "wine_bars", "title": "Wine Bars"}, {"alias": "pizza", "title": "Pizza"}, {"alias": "sandwiches", "title": "Sandwiches"}], "rating": 4.0, "coordinates": {"latitude": 37.78913, "longitude": -122.43414}, "transactions": [], "price": "$$", "location": {"address1": "2101 Fillmore St", "address2": "", "address3": null, "city": "San Francisco", "zip_code": "94115", "country": "US", "state": "CA", "display_address": ["2101 Fillmore St", "San Francisco, CA 94115"]}, "phone": "+14159224700", "display_phone": "(415) 922-4700", "distance": 3133.8455954736355}, {"id": "QhXJqmPoR6jyCf44ck7Sxg", "alias": "the-rotunda-san-francisco-2", "name": "The Rotunda", "image_url": "https://s3-media2.fl.yelpcdn.com/bphoto/msGl98oduuwx6sUVXbNIpA/o.jpg", "is_closed": false, "url": "https://www.yelp.com/biz/the-rotunda-san-francisco-2?adjust_creative=Klanz-jboxl2XzqrjP6LLw&utm_campaign=yelp_api_v3&utm_medium=api_v3_business_search&utm_source=Klanz-jboxl2XzqrjP6LLw", "review_count": 1742, "categories": [{"alias": "newamerican", "title": "American (New)"}, {"alias": "tea", "title": "Tea Rooms"}], "rating": 4.0, "coordinates": {"latitude": 37.7874117371449, "longitude": -122.40635645157}, "transactions": ["delivery"], "price": "$$$", "location": {"address1": "150 Stockton St", "address2": null, "address3": null, "city": "San Francisco", "zip_code": "94108", "country": "US", "state": "CA", "display_address": ["150 Stockton St", "San Francisco, CA 94108"]}, "phone": "+14152492720", "display_phone": "(415) 249-2720", "distance": 3960.491425180428}, {"id": "ZiTRspDPY9T_kh4tQDwDMQ", "alias": "pacific-cafe-san-francisco", "name": "Pacific Cafe", "image_url": "https://s3-media2.fl.yelpcdn.com/bphoto/1cXnFvCcvZ3SOPqeXxjmLQ/o.jpg", "is_closed": false, "url": "https://www.yelp.com/biz/pacific-cafe-san-francisco?adjust_creative=Klanz-jboxl2XzqrjP6LLw&utm_campaign=yelp_api_v3&utm_medium=api_v3_business_search&utm_source=Klanz-jboxl2XzqrjP6LLw", "review_count": 772, "categories": [{"alias": "seafood", "title": "Seafood"}], "rating": 4.0, "coordinates": {"latitude": 37.77994, "longitude": -122.49457}, "transactions": ["delivery"], "price": "$$", "location": {"address1": "7000 Geary Blvd", "address2": "", "address3": "", "city": "San Francisco", "zip_code": "94121", "country": "US", "state": "CA", "display_address": ["7000 Geary Blvd", "San Francisco, CA 94121"]}, "phone": "+14153877091", "display_phone": "(415) 387-7091", "distance": 5527.200004505452}, {"id": "9i5LZqFVbTRq215ypJYzYQ", "alias": "the-sausage-factory-san-francisco", "name": "The Sausage Factory", "image_url": "https://s3-media2.fl.yelpcdn.com/bphoto/DmkTIVEzq7Wf0RSTD4HQXg/o.jpg", "is_closed": false, "url": "https://www.yelp.com/biz/the-sausage-factory-san-francisco?adjust_creative=Klanz-jboxl2XzqrjP6LLw&utm_campaign=yelp_api_v3&utm_medium=api_v3_business_search&utm_source=Klanz-jboxl2XzqrjP6LLw", "review_count": 606, "categories": [{"alias": "italian", "title": "Italian"}, {"alias": "pizza", "title": "Pizza"}, {"alias": "salad", "title": "Salad"}], "rating": 3.5, "coordinates": {"latitude": 37.76052, "longitude": -122.43478}, "transactions": ["delivery", "pickup"], "price": "$$", "location": {"address1": "517 Castro St", "address2": "", "address3": "", "city": "San Francisco", "zip_code": "94114", "country": "US", "state": "CA", "display_address": ["517 Castro St", "San Francisco, CA 94114"]}, "phone": "+14156261250", "display_phone": "(415) 626-1250", "distance": 154.4086201971079}, {"id": "M4hrvI7_NwJ9igOgQBsCiw", "alias": "gardenias-san-francisco-2", "name": "Gardenias", "image_url": "https://s3-media4.fl.yelpcdn.com/bphoto/ha5pIrCGp6pqH2YlUebc4Q/o.jpg", "is_closed": false, "url": "https://www.yelp.com/biz/gardenias-san-francisco-2?adjust_creative=Klanz-jboxl2XzqrjP6LLw&utm_campaign=yelp_api_v3&utm_medium=api_v3_business_search&utm_source=Klanz-jboxl2XzqrjP6LLw", "review_count": 145, "categories": [{"alias": "newamerican", "title": "American (New)"}, {"alias": "seafood", "title": "Seafood"}], "rating": 4.0, "coordinates": {"latitude": 37.78595, "longitude": -122.43261}, "transactions": ["delivery"], "price": "$$$", "location": {"address1": "1963 Sutter St", "address2": "", "address3": "", "city": "San Francisco", "zip_code": "94115", "country": "US", "state": "CA", "display_address": ["1963 Sutter St", "San Francisco, CA 94115"]}, "phone": "+14156217122", "display_phone": "(415) 621-7122", "distance": 2809.5336946361012}, {"id": "e3WDNQMYpLdMEmM2UV13rA", "alias": "a16-san-francisco-4", "name": "A16", "image_url": "https://s3-media3.fl.yelpcdn.com/bphoto/jpc4FYxnZEJzI55Hg0pFNg/o.jpg", "is_closed": false, "url": "https://www.yelp.com/biz/a16-san-francisco-4?adjust_creative=Klanz-jboxl2XzqrjP6LLw&utm_campaign=yelp_api_v3&utm_medium=api_v3_business_search&utm_source=Klanz-jboxl2XzqrjP6LLw", "review_count": 2074, "categories": [{"alias": "italian", "title": "Italian"}, {"alias": "pizza", "title": "Pizza"}], "rating": 3.5, "coordinates": {"latitude": 37.7997932434082, "longitude": -122.442054748535}, "transactions": ["delivery", "pickup"], "price": "$$$", "location": {"address1": "2355 Chestnut St", "address2": "", "address3": "", "city": "San Francisco", "zip_code": "94123", "country": "US", "state": "CA", "display_address": ["2355 Chestnut St", "San Francisco, CA 94123"]}, "phone": "+14157712216", "display_phone": "(415) 771-2216", "distance": 4352.782988041339}, {"id": "Tttm1r5Dw1sRMCfc3EQWPw", "alias": "boulevard-san-francisco", "name": "Boulevard", "image_url": "https://s3-media4.fl.yelpcdn.com/bphoto/X6SAnEJ6nIpF4p3Nb_6s9A/o.jpg", "is_closed": false, "url": "https://www.yelp.com/biz/boulevard-san-francisco?adjust_creative=Klanz-jboxl2XzqrjP6LLw&utm_campaign=yelp_api_v3&utm_medium=api_v3_business_search&utm_source=Klanz-jboxl2XzqrjP6LLw", "review_count": 2682, "categories": [{"alias": "newamerican", "title": "American (New)"}], "rating": 4.0, "coordinates": {"latitude": 37.79322, "longitude": -122.39298}, "transactions": ["delivery"], "price": "$$$", "location": {"address1": "1 Mission St", "address2": "", "address3": "", "city": "San Francisco", "zip_code": "94105", "country": "US", "state": "CA", "display_address": ["1 Mission St", "San Francisco, CA 94105"]}, "phone": "+14155436084", "display_phone": "(415) 543-6084", "distance": 5245.033147608948}, {"id": "Syaydy3OIMsziI1spwAanA", "alias": "valencia-pizza-and-pasta-san-francisco", "name": "Valencia Pizza & Pasta", "image_url": "https://s3-media1.fl.yelpcdn.com/bphoto/x2Wr2Vkkw1JceqHPMynaFw/o.jpg", "is_closed": false, "url": "https://www.yelp.com/biz/valencia-pizza-and-pasta-san-francisco?adjust_creative=Klanz-jboxl2XzqrjP6LLw&utm_campaign=yelp_api_v3&utm_medium=api_v3_business_search&utm_source=Klanz-jboxl2XzqrjP6LLw", "review_count": 439, "categories": [{"alias": "pizza", "title": "Pizza"}, {"alias": "italian", "title": "Italian"}, {"alias": "breakfast_brunch", "title": "Breakfast & Brunch"}], "rating": 4.0, "coordinates": {"latitude": 37.7600196719307, "longitude": -122.42127605331325}, "transactions": ["delivery", "pickup"], "price": "$$", "location": {"address1": "801 Valencia St", "address2": "", "address3": "", "city": "San Francisco", "zip_code": "94110", "country": "US", "state": "CA", "display_address": ["801 Valencia St", "San Francisco, CA 94110"]}, "phone": "+14156421882", "display_phone": "(415) 642-1882", "distance": 1337.2449544701578}, {"id": "c0WpyZFR3EoEBKcoY2LZ3Q", "alias": "marlowe-san-francisco-2", "name": "Marlowe", "image_url": "https://s3-media1.fl.yelpcdn.com/bphoto/4CskEpDaE2yCeF7VI5UYOg/o.jpg", "is_closed": false, "url": "https://www.yelp.com/biz/marlowe-san-francisco-2?adjust_creative=Klanz-jboxl2XzqrjP6LLw&utm_campaign=yelp_api_v3&utm_medium=api_v3_business_search&utm_source=Klanz-jboxl2XzqrjP6LLw", "review_count": 2709, "categories": [{"alias": "newamerican", "title": "American (New)"}, {"alias": "brasseries", "title": "Brasseries"}], "rating": 4.0, "coordinates": {"latitude": 37.77828, "longitude": -122.39686}, "transactions": ["delivery"], "price": "$$", "location": {"address1": "500 Brannan St", "address2": "", "address3": "", "city": "San Francisco", "zip_code": "94107", "country": "US", "state": "CA", "display_address": ["500 Brannan St", "San Francisco, CA 94107"]}, "phone": "+14157771413", "display_phone": "(415) 777-1413", "distance": 3979.671766479319}, {"id": "PTFxtXS47ZVRCdZIrEWvGw", "alias": "golden-boy-pizza-san-francisco", "name": "Golden Boy Pizza", "image_url": "https://s3-media1.fl.yelpcdn.com/bphoto/SfosPh2iWkVTMC4LLVIL8g/o.jpg", "is_closed": false, "url": "https://www.yelp.com/biz/golden-boy-pizza-san-francisco?adjust_creative=Klanz-jboxl2XzqrjP6LLw&utm_campaign=yelp_api_v3&utm_medium=api_v3_business_search&utm_source=Klanz-jboxl2XzqrjP6LLw", "review_count": 3872, "categories": [{"alias": "pizza", "title": "Pizza"}, {"alias": "italian", "title": "Italian"}], "rating": 4.5, "coordinates": {"latitude": 37.7997956, "longitude": -122.4080729}, "transactions": ["delivery"], "price": "$", "location": {"address1": "542 Green St", "address2": "", "address3": "", "city": "San Francisco", "zip_code": "94133", "country": "US", "state": "CA", "display_address": ["542 Green St", "San Francisco, CA 94133"]}, "phone": "+14159829738", "display_phone": "(415) 982-9738", "distance": 4992.437696561071}, {"id": "ASRswba4TekZnxzar15qqg", "alias": "bertoluccis-south-san-francisco", "name": "Bertolucci's", "image_url": "https://s3-media2.fl.yelpcdn.com/bphoto/skFx84QgASYl1hHrihTWjQ/o.jpg", "is_closed": false, "url": "https://www.yelp.com/biz/bertoluccis-south-san-francisco?adjust_creative=Klanz-jboxl2XzqrjP6LLw&utm_campaign=yelp_api_v3&utm_medium=api_v3_business_search&utm_source=Klanz-jboxl2XzqrjP6LLw", "review_count": 926, "categories": [{"alias": "italian", "title": "Italian"}, {"alias": "bars", "title": "Bars"}], "rating": 4.0, "coordinates": {"latitude": 37.656501, "longitude": -122.407958}, "transactions": ["delivery"], "price": "$$", "location": {"address1": "421 Cypress Ave", "address2": "", "address3": "", "city": "South San Francisco", "zip_code": "94080", "country": "US", "state": "CA", "display_address": ["421 Cypress Ave", "South San Francisco, CA 94080"]}, "phone": "+16505881625", "display_phone": "(650) 588-1625", "distance": 11873.649635609258}, {"id": "5-IPkurqjVZIqLxrbBjExw", "alias": "itria-san-francisco", "name": "Itria", "image_url": "https://s3-media1.fl.yelpcdn.com/bphoto/4fBInjEf77_0EWgvkZbJLw/o.jpg", "is_closed": false, "url": "https://www.yelp.com/biz/itria-san-francisco?adjust_creative=Klanz-jboxl2XzqrjP6LLw&utm_campaign=yelp_api_v3&utm_medium=api_v3_business_search&utm_source=Klanz-jboxl2XzqrjP6LLw", "review_count": 79, "categories": [{"alias": "italian", "title": "Italian"}], "rating": 4.5, "coordinates": {"latitude": 37.7524, "longitude": -122.41779}, "transactions": [], "location": {"address1": "3266 24th St", "address2": null, "address3": "", "city": "San Francisco", "zip_code": "94110", "country": "US", "state": "CA", "display_address": ["3266 24th St", "San Francisco, CA 94110"]}, "phone": "+14158749821", "display_phone": "(415) 874-9821", "distance": 1891.392610376444}, {"id": "ZKVAo-v0LgVFhKQOXytsQQ", "alias": "vesuvio-cafe-san-francisco", "name": "Vesuvio Cafe", "image_url": "https://s3-media4.fl.yelpcdn.com/bphoto/jquGILiLaAPb4yxXLV0btQ/o.jpg", "is_closed": false, "url": "https://www.yelp.com/biz/vesuvio-cafe-san-francisco?adjust_creative=Klanz-jboxl2XzqrjP6LLw&utm_campaign=yelp_api_v3&utm_medium=api_v3_business_search&utm_source=Klanz-jboxl2XzqrjP6LLw", "review_count": 880, "categories": [{"alias": "lounges", "title": "Lounges"}], "rating": 4.0, "coordinates": {"latitude": 37.797474861145, "longitude": -122.406140863895}, "transactions": [], "price": "$$", "location": {"address1": "255 Columbus Ave", "address2": "", "address3": "", "city": "San Francisco", "zip_code": "94133", "country": "US", "state": "CA", "display_address": ["255 Columbus Ave", "San Francisco, CA 94133"]}, "phone": "+14153623370", "display_phone": "(415) 362-3370", "distance": 4844.748645416944}, {"id": "uaHOLdKTHx_GmsIlYN1pQg", "alias": "belotti-bottega-oakland", "name": "Belotti Bottega", "image_url": "https://s3-media4.fl.yelpcdn.com/bphoto/FqOYNoEvkUC6BAEe3X88vA/o.jpg", "is_closed": false, "url": "https://www.yelp.com/biz/belotti-bottega-oakland?adjust_creative=Klanz-jboxl2XzqrjP6LLw&utm_campaign=yelp_api_v3&utm_medium=api_v3_business_search&utm_source=Klanz-jboxl2XzqrjP6LLw", "review_count": 180, "categories": [{"alias": "italian", "title": "Italian"}, {"alias": "pastashops", "title": "Pasta Shops"}, {"alias": "catering", "title": "Caterers"}], "rating": 4.5, "coordinates": {"latitude": 37.8258771, "longitude": -122.2533349}, "transactions": ["delivery"], "price": "$$", "location": {"address1": "4001B Piedmont Ave", "address2": "", "address3": null, "city": "Oakland", "zip_code": "94611", "country": "US", "state": "CA", "display_address": ["4001B Piedmont Ave", "Oakland, CA 94611"]}, "phone": "+15103507619", "display_phone": "(510) 350-7619", "distance": 17640.165369441445}, {"id": "PsY5DMHxa5iNX_nX0T-qPA", "alias": "kokkari-estiatorio-san-francisco", "name": "Kokkari Estiatorio", "image_url": "https://s3-media1.fl.yelpcdn.com/bphoto/qYjEM7ZmOtGFDY1uwFY4ZQ/o.jpg", "is_closed": false, "url": "https://www.yelp.com/biz/kokkari-estiatorio-san-francisco?adjust_creative=Klanz-jboxl2XzqrjP6LLw&utm_campaign=yelp_api_v3&utm_medium=api_v3_business_search&utm_source=Klanz-jboxl2XzqrjP6LLw", "review_count": 4735, "categories": [{"alias": "greek", "title": "Greek"}, {"alias": "mediterranean", "title": "Mediterranean"}], "rating": 4.5, "coordinates": {"latitude": 37.796996, "longitude": -122.399661}, "transactions": ["delivery", "pickup"], "price": "$$$", "location": {"address1": "200 Jackson St", "address2": "", "address3": "", "city": "San Francisco", "zip_code": "94111", "country": "US", "state": "CA", "display_address": ["200 Jackson St", "San Francisco, CA 94111"]}, "phone": "+14159810983", "display_phone": "(415) 981-0983", "distance": 5153.879756630951}, {"id": "hNqgV2pf1Q17ikZkBqJYCA", "alias": "aurora-ristorante-sausalito-3", "name": "Aurora Ristorante", "image_url": "https://s3-media2.fl.yelpcdn.com/bphoto/gjoL9bAGp0EbSx8zSyGnaw/o.jpg", "is_closed": false, "url": "https://www.yelp.com/biz/aurora-ristorante-sausalito-3?adjust_creative=Klanz-jboxl2XzqrjP6LLw&utm_campaign=yelp_api_v3&utm_medium=api_v3_business_search&utm_source=Klanz-jboxl2XzqrjP6LLw", "review_count": 311, "categories": [{"alias": "italian", "title": "Italian"}, {"alias": "pizza", "title": "Pizza"}, {"alias": "wine_bars", "title": "Wine Bars"}], "rating": 4.0, "coordinates": {"latitude": 37.848081, "longitude": -122.480997}, "transactions": ["delivery", "pickup"], "price": "$$", "location": {"address1": "300 Valley St", "address2": "Ste 207", "address3": "", "city": "Sausalito", "zip_code": "94965", "country": "US", "state": "CA", "display_address": ["300 Valley St", "Ste 207", "Sausalito, CA 94965"]}, "phone": "+14153398930", "display_phone": "(415) 339-8930", "distance": 10454.448126357354}, {"id": "nRxk-JSF_rq1RKqrTfcgRg", "alias": "la-marsa-san-francisco", "name": "La Marsa", "image_url": "https://s3-media3.fl.yelpcdn.com/bphoto/Z_CY6M6sUtRGPiGswN5R7w/o.jpg", "is_closed": false, "url": "https://www.yelp.com/biz/la-marsa-san-francisco?adjust_creative=Klanz-jboxl2XzqrjP6LLw&utm_campaign=yelp_api_v3&utm_medium=api_v3_business_search&utm_source=Klanz-jboxl2XzqrjP6LLw", "review_count": 236, "categories": [{"alias": "wine_bars", "title": "Wine Bars"}, {"alias": "mediterranean", "title": "Mediterranean"}], "rating": 4.5, "coordinates": {"latitude": 37.7871734, "longitude": -122.4107772}, "transactions": ["delivery", "pickup"], "price": "$$", "location": {"address1": "454 Geary St", "address2": "", "address3": null, "city": "San Francisco", "zip_code": "94102", "country": "US", "state": "CA", "display_address": ["454 Geary St", "San Francisco, CA 94102"]}, "phone": "", "display_phone": "", "distance": 3700.4131701596534}], "total": 1800, "region": {"center": {"longitude": -122.43644714355469, "latitude": 37.76089938976322}}}