{"businesses": [{"id": "j_YtZXamd5GHfL-BhfkiLQ", "alias": "live-sushi-bar-san-francisco", "name": "Live Sushi Bar", "image_url": "https://s3-media4.fl.yelpcdn.com/bphoto/F6e799o3tHjXshYkqdm5Dg/o.jpg", "is_closed": false, "url": "https://www.yelp.com/biz/live-sushi-bar-san-francisco?adjust_creative=Klanz-jboxl2XzqrjP6LLw&utm_campaign=yelp_api_v3&utm_medium=api_v3_business_search&utm_source=Klanz-jboxl2XzqrjP6LLw", "review_count": 1284, "categories": [{"alias": "sushi", "title": "Sushi Bars"}, {"alias": "japanese", "title": "Japanese"}, {"alias": "bars", "title": "Bars"}], "rating": 4.0, "coordinates": {"latitude": 37.764681, "longitude": -122.4036308}, "transactions": ["delivery", "pickup"], "price": "$$", "location": {"address1": "2001 17th St", "address2": "", "address3": "", "city": "San Francisco", "zip_code": "94103", "country": "US", "state": "CA", "display_address": ["2001 17th St", "San Francisco, CA 94103"]}, "phone": "+14158618610", "display_phone": "(415) 861-8610", "distance": 2915.218739647693}, {"id": "afBjDUDJ29UEz96uZD27mA", "alias": "mccormick-and-kuletos-seafood-and-steaks-san-francisco-2", "name": "McCormick & Kuleto's Seafood & Steaks", "image_url": "https://s3-media4.fl.yelpcdn.com/bphoto/-dX3hnQjbFOw_xKtRuj0uA/o.jpg", "is_closed": false, "url": "https://www.yelp.com/biz/mccormick-and-kuletos-seafood-and-steaks-san-francisco-2?adjust_creative=Klanz-jboxl2XzqrjP6LLw&utm_campaign=yelp_api_v3&utm_medium=api_v3_business_search&utm_source=Klanz-jboxl2XzqrjP6LLw", "review_count": 1334, "categories": [{"alias": "seafood", "title": "Seafood"}, {"alias": "steak", "title": "Steakhouses"}], "rating": 3.0, "coordinates": {"latitude": 37.805851, "longitude": -122.422757}, "transactions": ["delivery", "pickup"], "price": "$$$", "location": {"address1": "900 N Point St", "address2": "", "address3": "", "city": "San Francisco", "zip_code": "94109", "country": "US", "state": "CA", "display_address": ["900 N Point St", "San Francisco, CA 94109"]}, "phone": "+14159291730", "display_phone": "(415) 929-1730", "distance": 5141.1391554333295}, {"id": "E0ceJh3NitoNjlZxmvCVLQ", "alias": "sanguchon-eatery-san-francisco", "name": "Sanguchon Eatery", "image_url": "https://s3-media2.fl.yelpcdn.com/bphoto/4uNV7dk3WU33wjIucQ031Q/o.jpg", "is_closed": false, "url": "https://www.yelp.com/biz/sanguchon-eatery-san-francisco?adjust_creative=Klanz-jboxl2XzqrjP6LLw&utm_campaign=yelp_api_v3&utm_medium=api_v3_business_search&utm_source=Klanz-jboxl2XzqrjP6LLw", "review_count": 65, "categories": [{"alias": "peruvian", "title": "Peruvian"}, {"alias": "sandwiches", "title": "Sandwiches"}], "rating": 4.5, "coordinates": {"latitude": 37.75408, "longitude": -122.42101}, "transactions": ["delivery", "pickup"], "price": "$$", "location": {"address1": "1182 Valencia St", "address2": null, "address3": "", "city": "San Francisco", "zip_code": "94110", "country": "US", "state": "CA", "display_address": ["1182 Valencia St", "San Francisco, CA 94110"]}, "phone": "+14157664317", "display_phone": "(415) 766-4317", "distance": 1554.5183865345302}, {"id": "ZsthhbbcSWpLnPDPMeAJrA", "alias": "applebees-grill-bar-alameda", "name": "Applebee's Grill + Bar", "image_url": "https://s3-media4.fl.yelpcdn.com/bphoto/AkzyA_fBrlxz5_1oWdZMmg/o.jpg", "is_closed": false, "url": "https://www.yelp.com/biz/applebees-grill-bar-alameda?adjust_creative=Klanz-jboxl2XzqrjP6LLw&utm_campaign=yelp_api_v3&utm_medium=api_v3_business_search&utm_source=Klanz-jboxl2XzqrjP6LLw", "review_count": 606, "categories": [{"alias": "tradamerican", "title": "American (Traditional)"}, {"alias": "sportsbars", "title": "Sports Bars"}, {"alias": "burgers", "title": "Burgers"}], "rating": 2.0, "coordinates": {"latitude": 37.757983, "longitude": -122.251862}, "transactions": ["delivery", "pickup"], "price": "$$", "location": {"address1": "2263 South Shore Ctr", "address2": "", "address3": "", "city": "Alameda", "zip_code": "94501", "country": "US", "state": "CA", "display_address": ["2263 South Shore Ctr", "Alameda, CA 94501"]}, "phone": "+15105227071", "display_phone": "(510) 522-7071", "distance": 16229.997979444128}, {"id": "rE4ZPbMuRMiPbgsJmFIVlw", "alias": "belly-san-francisco", "name": "Belly", "image_url": "https://s3-media4.fl.yelpcdn.com/bphoto/3skzRsKBH3itgXfyDgsLFA/o.jpg", "is_closed": false, "url": "https://www.yelp.com/biz/belly-san-francisco?adjust_creative=Klanz-jboxl2XzqrjP6LLw&utm_campaign=yelp_api_v3&utm_medium=api_v3_business_search&utm_source=Klanz-jboxl2XzqrjP6LLw", "review_count": 434, "categories": [{"alias": "burgers", "title": "Burgers"}, {"alias": "sandwiches", "title": "Sandwiches"}], "rating": 4.0, "coordinates": {"latitude": 37.78056, "longitude": -122.48121}, "transactions": ["delivery"], "price": "$", "location": {"address1": "5740 Geary Blvd", "address2": null, "address3": "", "city": "San Francisco", "zip_code": "94121", "country": "US", "state": "CA", "display_address": ["5740 Geary Blvd", "San Francisco, CA 94121"]}, "phone": "+14159336232", "display_phone": "(415) 933-6232", "distance": 4497.432131986165}, {"id": "mbyIZAJh9nsiz2CHCmOOWw", "alias": "buckeye-roadhouse-mill-valley-2", "name": "Buckeye Roadhouse", "image_url": "https://s3-media3.fl.yelpcdn.com/bphoto/kj8o6X_z-sY2-4pyU5AwYg/o.jpg", "is_closed": false, "url": "https://www.yelp.com/biz/buckeye-roadhouse-mill-valley-2?adjust_creative=Klanz-jboxl2XzqrjP6LLw&utm_campaign=yelp_api_v3&utm_medium=api_v3_business_search&utm_source=Klanz-jboxl2XzqrjP6LLw", "review_count": 1491, "categories": [{"alias": "steak", "title": "Steakhouses"}, {"alias": "tradamerican", "title": "American (Traditional)"}, {"alias": "desserts", "title": "Desserts"}], "rating": 4.0, "coordinates": {"latitude": 37.878429, "longitude": -122.51637}, "transactions": ["delivery"], "price": "$$$", "location": {"address1": "15 Shoreline Hwy", "address2": "", "address3": "", "city": "Mill Valley", "zip_code": "94941", "country": "US", "state": "CA", "display_address": ["15 Shoreline Hwy", "Mill Valley, CA 94941"]}, "phone": "+14153312600", "display_phone": "(415) 331-2600", "distance": 14834.898155458552}, {"id": "z7cKVX0Ks3GHrS9YN0F9Dw", "alias": "presidio-pizza-san-francisco-2", "name": "Presidio Pizza", "image_url": "https://s3-media3.fl.yelpcdn.com/bphoto/35HjIx06WxignFzjxXdWBg/o.jpg", "is_closed": false, "url": "https://www.yelp.com/biz/presidio-pizza-san-francisco-2?adjust_creative=Klanz-jboxl2XzqrjP6LLw&utm_campaign=yelp_api_v3&utm_medium=api_v3_business_search&utm_source=Klanz-jboxl2XzqrjP6LLw", "review_count": 370, "categories": [{"alias": "pizza", "title": "Pizza"}, {"alias": "italian", "title": "Italian"}, {"alias": "sandwiches", "title": "Sandwiches"}], "rating": 3.5, "coordinates": {"latitude": 37.7870080829339, "longitude": -122.440030427001}, "transactions": ["delivery", "pickup"], "price": "$", "location": {"address1": "1862 Divisadero St", "address2": "", "address3": "", "city": "San Francisco", "zip_code": "94115", "country": "US", "state": "CA", "display_address": ["1862 Divisadero St", "San Francisco, CA 94115"]}, "phone": "+14154096672", "display_phone": "(415) 409-6672", "distance": 2920.183966884844}, {"id": "hRx9n9PJ7FLmoi9GwoFg3g", "alias": "toronado-san-francisco", "name": "Toronado", "image_url": "https://s3-media2.fl.yelpcdn.com/bphoto/KUa4K7ylbhm3VLxrjSdkww/o.jpg", "is_closed": false, "url": "https://www.yelp.com/biz/toronado-san-francisco?adjust_creative=Klanz-jboxl2XzqrjP6LLw&utm_campaign=yelp_api_v3&utm_medium=api_v3_business_search&utm_source=Klanz-jboxl2XzqrjP6LLw", "review_count": 1791, "categories": [{"alias": "divebars", "title": "Dive Bars"}, {"alias": "pubs", "title": "Pubs"}], "rating": 4.0, "coordinates": {"latitude": 37.77183, "longitude": -122.43114}, "transactions": ["delivery"], "price": "$", "location": {"address1": "547 Haight St", "address2": "", "address3": "", "city": "San Francisco", "zip_code": "94117", "country": "US", "state": "CA", "display_address": ["547 Haight St", "San Francisco, CA 94117"]}, "phone": "+14158632276", "display_phone": "(415) 863-2276", "distance": 1302.219926412341}, {"id": "13HilRfX-kXGxMS0BxNlpg", "alias": "the-pizza-shop-san-francisco", "name": "The Pizza Shop", "image_url": "https://s3-media2.fl.yelpcdn.com/bphoto/2eN8GuSfQvaj7QKBNY0EAg/o.jpg", "is_closed": false, "url": "https://www.yelp.com/biz/the-pizza-shop-san-francisco?adjust_creative=Klanz-jboxl2XzqrjP6LLw&utm_campaign=yelp_api_v3&utm_medium=api_v3_business_search&utm_source=Klanz-jboxl2XzqrjP6LLw", "review_count": 431, "categories": [{"alias": "pizza", "title": "Pizza"}], "rating": 4.5, "coordinates": {"latitude": 37.7525918579061, "longitude": -122.41455420986}, "transactions": ["delivery", "pickup"], "price": "$", "location": {"address1": "3104 24th St", "address2": "", "address3": "", "city": "San Francisco", "zip_code": "94110", "country": "US", "state": "CA", "display_address": ["3104 24th St", "San Francisco, CA 94110"]}, "phone": "+14158241840", "display_phone": "(415) 824-1840", "distance": 2134.865970912529}, {"id": "-PaG_ASDQtIWg2hpZeV1-A", "alias": "casa-barotti-berkeley", "name": "Casa Barotti", "image_url": "https://s3-media4.fl.yelpcdn.com/bphoto/kv7HsA75afKeNApBgttOrQ/o.jpg", "is_closed": false, "url": "https://www.yelp.com/biz/casa-barotti-berkeley?adjust_creative=Klanz-jboxl2XzqrjP6LLw&utm_campaign=yelp_api_v3&utm_medium=api_v3_business_search&utm_source=Klanz-jboxl2XzqrjP6LLw", "review_count": 61, "categories": [{"alias": "italian", "title": "Italian"}, {"alias": "pizza", "title": "Pizza"}, {"alias": "sandwiches", "title": "Sandwiches"}], "rating": 4.5, "coordinates": {"latitude": 37.8510297, "longitude": -122.2526819}, "transactions": ["delivery", "pickup"], "price": "$", "location": {"address1": "3204 College Ave", "address2": "", "address3": null, "city": "Berkeley", "zip_code": "94705", "country": "US", "state": "CA", "display_address": ["3204 College Ave", "Berkeley, CA 94705"]}, "phone": "+15109221451", "display_phone": "(510) 922-1451", "distance": 19002.267354151216}, {"id": "ZfDcbuLBx8-CVtTUjFCQPA", "alias": "perrys-embarcadero-san-francisco-2", "name": "Perry's - Embarcadero", "image_url": "https://s3-media2.fl.yelpcdn.com/bphoto/GhS9OzsVf8GkNGZtbuNVAA/o.jpg", "is_closed": false, "url": "https://www.yelp.com/biz/perrys-embarcadero-san-francisco-2?adjust_creative=Klanz-jboxl2XzqrjP6LLw&utm_campaign=yelp_api_v3&utm_medium=api_v3_business_search&utm_source=Klanz-jboxl2XzqrjP6LLw", "review_count": 835, "categories": [{"alias": "tradamerican", "title": "American (Traditional)"}, {"alias": "bars", "title": "Bars"}, {"alias": "breakfast_brunch", "title": "Breakfast & Brunch"}], "rating": 3.5, "coordinates": {"latitude": 37.793019, "longitude": -122.39204}, "transactions": ["delivery"], "price": "$$", "location": {"address1": "155 Steuart St", "address2": "", "address3": "", "city": "San Francisco", "zip_code": "94105", "country": "US", "state": "CA", "display_address": ["155 Steuart St", "San Francisco, CA 94105"]}, "phone": "+14154956500", "display_phone": "(415) 495-6500", "distance": 5290.398208942748}, {"id": "6SRIzhdtV-DEgenP_MXx8A", "alias": "chucks-takeaway-san-francisco-2", "name": "Chuck's Takeaway", "image_url": "https://s3-media4.fl.yelpcdn.com/bphoto/ZTiB965VVQbPePd4nBM4LA/o.jpg", "is_closed": false, "url": "https://www.yelp.com/biz/chucks-takeaway-san-francisco-2?adjust_creative=Klanz-jboxl2XzqrjP6LLw&utm_campaign=yelp_api_v3&utm_medium=api_v3_business_search&utm_source=Klanz-jboxl2XzqrjP6LLw", "review_count": 14, "categories": [{"alias": "vietnamese", "title": "Vietnamese"}, {"alias": "sandwiches", "title": "Sandwiches"}, {"alias": "coffee", "title": "Coffee & Tea"}], "rating": 4.0, "coordinates": {"latitude": 37.76204408228022, "longitude": -122.41790523211037}, "transactions": [], "location": {"address1": "3332 18th St", "address2": "", "address3": null, "city": "San Francisco", "zip_code": "94110", "country": "US", "state": "CA", "display_address": ["3332 18th St", "San Francisco, CA 94110"]}, "phone": "+14154575225", "display_phone": "(415) 457-5225", "distance": 1634.9249389613394}, {"id": "A1_eF109cADI_7w61UMukg", "alias": "lucia-s-berkeley-berkeley", "name": "Lucia\u2019s Berkeley", "image_url": "https://s3-media1.fl.yelpcdn.com/bphoto/u4nNDnNYEB1YfgTXt5_-9g/o.jpg", "is_closed": false, "url": "https://www.yelp.com/biz/lucia-s-berkeley-berkeley?adjust_creative=Klanz-jboxl2XzqrjP6LLw&utm_campaign=yelp_api_v3&utm_medium=api_v3_business_search&utm_source=Klanz-jboxl2XzqrjP6LLw", "review_count": 400, "categories": [{"alias": "pizza", "title": "Pizza"}, {"alias": "desserts", "title": "Desserts"}, {"alias": "salad", "title": "Salad"}], "rating": 4.0, "coordinates": {"latitude": 37.87164, "longitude": -122.26867}, "transactions": ["delivery", "pickup"], "price": "$$", "location": {"address1": "2016 Shattuck Ave", "address2": "", "address3": null, "city": "Berkeley", "zip_code": "94704", "country": "US", "state": "CA", "display_address": ["2016 Shattuck Ave", "Berkeley, CA 94704"]}, "phone": "+15102259467", "display_phone": "(510) 225-9467", "distance": 19196.683947997622}, {"id": "F0xcavylIZklIICBrLXMWw", "alias": "subway-san-francisco-157", "name": "Subway", "image_url": "https://s3-media4.fl.yelpcdn.com/bphoto/qFmG5K3hvJzJIwiy-3tBiA/o.jpg", "is_closed": false, "url": "https://www.yelp.com/biz/subway-san-francisco-157?adjust_creative=Klanz-jboxl2XzqrjP6LLw&utm_campaign=yelp_api_v3&utm_medium=api_v3_business_search&utm_source=Klanz-jboxl2XzqrjP6LLw", "review_count": 61, "categories": [{"alias": "sandwiches", "title": "Sandwiches"}], "rating": 2.0, "coordinates": {"latitude": 37.7766624, "longitude": -122.3948466}, "transactions": ["delivery", "pickup"], "price": "$", "location": {"address1": "700 4th St", "address2": "Ste 111", "address3": "", "city": "San Francisco", "zip_code": "94107", "country": "US", "state": "CA", "display_address": ["700 4th St", "Ste 111", "San Francisco, CA 94107"]}, "phone": "+14154956341", "display_phone": "(415) 495-6341", "distance": 4054.999130747716}, {"id": "z9CN58fSrA46ggyb6OnCnQ", "alias": "thanh-long-san-francisco", "name": "Thanh Long", "image_url": "https://s3-media3.fl.yelpcdn.com/bphoto/GmQdyVpGOPf8ZwRhXz3xnA/o.jpg", "is_closed": false, "url": "https://www.yelp.com/biz/thanh-long-san-francisco?adjust_creative=Klanz-jboxl2XzqrjP6LLw&utm_campaign=yelp_api_v3&utm_medium=api_v3_business_search&utm_source=Klanz-jboxl2XzqrjP6LLw", "review_count": 2853, "categories": [{"alias": "seafood", "title": "Seafood"}, {"alias": "vietnamese", "title": "Vietnamese"}], "rating": 4.0, "coordinates": {"latitude": 37.76017, "longitude": -122.50609}, "transactions": ["delivery", "restaurant_reservation"], "price": "$$$", "location": {"address1": "4101 Judah St", "address2": "", "address3": "", "city": "San Francisco", "zip_code": "94122", "country": "US", "state": "CA", "display_address": ["4101 Judah St", "San Francisco, CA 94122"]}, "phone": "+14156651146", "display_phone": "(415) 665-1146", "distance": 6122.71458423659}, {"id": "OeTD5HlXMjrmztfu02niQQ", "alias": "bursa-san-francisco", "name": "Bursa", "image_url": "https://s3-media4.fl.yelpcdn.com/bphoto/6BBUqbbBN6Y10gdapTvmSg/o.jpg", "is_closed": false, "url": "https://www.yelp.com/biz/bursa-san-francisco?adjust_creative=Klanz-jboxl2XzqrjP6LLw&utm_campaign=yelp_api_v3&utm_medium=api_v3_business_search&utm_source=Klanz-jboxl2XzqrjP6LLw", "review_count": 852, "categories": [{"alias": "mideastern", "title": "Middle Eastern"}, {"alias": "turkish", "title": "Turkish"}, {"alias": "mediterranean", "title": "Mediterranean"}], "rating": 4.0, "coordinates": {"latitude": 37.74036, "longitude": -122.46674}, "transactions": ["delivery", "pickup"], "price": "$$", "location": {"address1": "60 West Portal Ave", "address2": "", "address3": "", "city": "San Francisco", "zip_code": "94127", "country": "US", "state": "CA", "display_address": ["60 West Portal Ave", "San Francisco, CA 94127"]}, "phone": "+14155644006", "display_phone": "(415) 564-4006", "distance": 3513.3661784309934}, {"id": "KRpCCCBwaJBGrkBCVUhW7g", "alias": "cafe-bastille-san-francisco-2", "name": "Cafe Bastille", "image_url": "https://s3-media2.fl.yelpcdn.com/bphoto/HMwpXGSWQdUp8eFD1hnZ8A/o.jpg", "is_closed": false, "url": "https://www.yelp.com/biz/cafe-bastille-san-francisco-2?adjust_creative=Klanz-jboxl2XzqrjP6LLw&utm_campaign=yelp_api_v3&utm_medium=api_v3_business_search&utm_source=Klanz-jboxl2XzqrjP6LLw", "review_count": 744, "categories": [{"alias": "french", "title": "French"}, {"alias": "wine_bars", "title": "Wine Bars"}, {"alias": "cocktailbars", "title": "Cocktail Bars"}], "rating": 3.5, "coordinates": {"latitude": 37.79131, "longitude": -122.40363}, "transactions": ["delivery", "pickup"], "price": "$$", "location": {"address1": "44 Belden Pl", "address2": "", "address3": "", "city": "San Francisco", "zip_code": "94104", "country": "US", "state": "CA", "display_address": ["44 Belden Pl", "San Francisco, CA 94104"]}, "phone": "+14159865673", "display_phone": "(415) 986-5673", "distance": 4444.592095691621}, {"id": "rDlZHmGNnbBQWf-Ujfc2KA", "alias": "durty-nellys-san-francisco", "name": "Durty Nelly's", "image_url": "https://s3-media2.fl.yelpcdn.com/bphoto/Br0NKa0oh_cT53_yaqXYNg/o.jpg", "is_closed": false, "url": "https://www.yelp.com/biz/durty-nellys-san-francisco?adjust_creative=Klanz-jboxl2XzqrjP6LLw&utm_campaign=yelp_api_v3&utm_medium=api_v3_business_search&utm_source=Klanz-jboxl2XzqrjP6LLw", "review_count": 368, "categories": [{"alias": "irish", "title": "Irish"}, {"alias": "irish_pubs", "title": "Irish Pub"}], "rating": 4.0, "coordinates": {"latitude": 37.76354, "longitude": -122.48303}, "transactions": ["delivery"], "price": "$", "location": {"address1": "2328 Irving St", "address2": "", "address3": "", "city": "San Francisco", "zip_code": "94122", "country": "US", "state": "CA", "display_address": ["2328 Irving St", "San Francisco, CA 94122"]}, "phone": "+14156642555", "display_phone": "(415) 664-2555", "distance": 4107.090524983153}, {"id": "i5MlesN2FAeZjR9ECjISPA", "alias": "wine-kitchen-san-francisco", "name": "Wine Kitchen", "image_url": "https://s3-media1.fl.yelpcdn.com/bphoto/W1EnFEDdARijWEgtyOPynQ/o.jpg", "is_closed": false, "url": "https://www.yelp.com/biz/wine-kitchen-san-francisco?adjust_creative=Klanz-jboxl2XzqrjP6LLw&utm_campaign=yelp_api_v3&utm_medium=api_v3_business_search&utm_source=Klanz-jboxl2XzqrjP6LLw", "review_count": 190, "categories": [{"alias": "wine_bars", "title": "Wine Bars"}, {"alias": "newamerican", "title": "American (New)"}, {"alias": "beerbar", "title": "Beer Bar"}], "rating": 4.0, "coordinates": {"latitude": 37.7743492126465, "longitude": -122.437995910645}, "transactions": [], "price": "$$", "location": {"address1": "507 Divisadero St", "address2": "", "address3": "", "city": "San Francisco", "zip_code": "94117", "country": "US", "state": "CA", "display_address": ["507 Divisadero St", "San Francisco, CA 94117"]}, "phone": "+14155253485", "display_phone": "(415) 525-3485", "distance": 1503.37008396855}, {"id": "moXnQ7cbzgyeKA-Fdqhkuw", "alias": "the-barrel-room-san-francisco-3", "name": "The Barrel Room", "image_url": "https://s3-media2.fl.yelpcdn.com/bphoto/eOZLOAApmBafUDYJEhflXA/o.jpg", "is_closed": false, "url": "https://www.yelp.com/biz/the-barrel-room-san-francisco-3?adjust_creative=Klanz-jboxl2XzqrjP6LLw&utm_campaign=yelp_api_v3&utm_medium=api_v3_business_search&utm_source=Klanz-jboxl2XzqrjP6LLw", "review_count": 323, "categories": [{"alias": "wine_bars", "title": "Wine Bars"}, {"alias": "newamerican", "title": "American (New)"}, {"alias": "cocktailbars", "title": "Cocktail Bars"}], "rating": 4.0, "coordinates": {"latitude": 37.794261932373, "longitude": -122.401649475098}, "transactions": ["delivery"], "price": "$$", "location": {"address1": "415 Sansome St", "address2": "", "address3": "", "city": "San Francisco", "zip_code": "94111", "country": "US", "state": "CA", "display_address": ["415 Sansome St", "San Francisco, CA 94111"]}, "phone": "+14159566900", "display_phone": "(415) 956-6900", "distance": 4809.822465172444}, {"id": "KfrgWyMWH1HBGvoUkDYoRQ", "alias": "franciscan-crab-restaurant-san-francisco-2", "name": "Franciscan Crab Restaurant", "image_url": "https://s3-media2.fl.yelpcdn.com/bphoto/9_ifGaWLcrYuBAFQyeOo2w/o.jpg", "is_closed": false, "url": "https://www.yelp.com/biz/franciscan-crab-restaurant-san-francisco-2?adjust_creative=Klanz-jboxl2XzqrjP6LLw&utm_campaign=yelp_api_v3&utm_medium=api_v3_business_search&utm_source=Klanz-jboxl2XzqrjP6LLw", "review_count": 1876, "categories": [{"alias": "seafood", "title": "Seafood"}, {"alias": "tradamerican", "title": "American (Traditional)"}], "rating": 3.5, "coordinates": {"latitude": 37.8092604518138, "longitude": -122.414643587598}, "transactions": [], "price": "$$", "location": {"address1": "Pier 43 1/2 Fisherman's Wharf", "address2": "", "address3": "Fisherman's Wharf", "city": "San Francisco", "zip_code": "94133", "country": "US", "state": "CA", "display_address": ["Pier 43 1/2 Fisherman's Wharf", "Fisherman's Wharf", "San Francisco, CA 94133"]}, "phone": "+14153627733", "display_phone": "(415) 362-7733", "distance": 5708.662220565073}, {"id": "1CkTVogrU7pmy4pkEFIubw", "alias": "trick-dog-san-francisco", "name": "Trick Dog", "image_url": "https://s3-media4.fl.yelpcdn.com/bphoto/FNyWC6ZaPvw5A3X1tV6v-A/o.jpg", "is_closed": false, "url": "https://www.yelp.com/biz/trick-dog-san-francisco?adjust_creative=Klanz-jboxl2XzqrjP6LLw&utm_campaign=yelp_api_v3&utm_medium=api_v3_business_search&utm_source=Klanz-jboxl2XzqrjP6LLw", "review_count": 829, "categories": [{"alias": "cocktailbars", "title": "Cocktail Bars"}, {"alias": "tradamerican", "title": "American (Traditional)"}], "rating": 4.0, "coordinates": {"latitude": 37.759237240545, "longitude": -122.41119358402618}, "transactions": ["delivery"], "price": "$$", "location": {"address1": "3010 20th St", "address2": "", "address3": "", "city": "San Francisco", "zip_code": "94110", "country": "US", "state": "CA", "display_address": ["3010 20th St", "San Francisco, CA 94110"]}, "phone": "+14154712999", "display_phone": "(415) 471-2999", "distance": 2227.6854845359435}, {"id": "WCk_ecR-PQuGIqd5I2hAZw", "alias": "7-mile-house-brisbane", "name": "7 Mile House", "image_url": "https://s3-media2.fl.yelpcdn.com/bphoto/4ToXLP656FKS2iDZRA9vIA/o.jpg", "is_closed": false, "url": "https://www.yelp.com/biz/7-mile-house-brisbane?adjust_creative=Klanz-jboxl2XzqrjP6LLw&utm_campaign=yelp_api_v3&utm_medium=api_v3_business_search&utm_source=Klanz-jboxl2XzqrjP6LLw", "review_count": 1430, "categories": [{"alias": "sportsbars", "title": "Sports Bars"}, {"alias": "tradamerican", "title": "American (Traditional)"}, {"alias": "filipino", "title": "Filipino"}], "rating": 4.0, "coordinates": {"latitude": 37.704305, "longitude": -122.407456}, "transactions": ["delivery", "pickup", "restaurant_reservation"], "price": "$$", "location": {"address1": "2800 Bayshore Blvd", "address2": "", "address3": "", "city": "Brisbane", "zip_code": "94005", "country": "US", "state": "CA", "display_address": ["2800 Bayshore Blvd", "Brisbane, CA 94005"]}, "phone": "+14154672343", "display_phone": "(415) 467-2343", "distance": 6787.929877497306}, {"id": "NEIMRha9VG9oMTTZL_-_8g", "alias": "la-forchetta-catering-san-francisco", "name": "La Forchetta Catering", "image_url": "https://s3-media1.fl.yelpcdn.com/bphoto/TAuGNUCQ00CVPfCzsFipXg/o.jpg", "is_closed": false, "url": "https://www.yelp.com/biz/la-forchetta-catering-san-francisco?adjust_creative=Klanz-jboxl2XzqrjP6LLw&utm_campaign=yelp_api_v3&utm_medium=api_v3_business_search&utm_source=Klanz-jboxl2XzqrjP6LLw", "review_count": 2, "categories": [{"alias": "catering", "title": "Caterers"}], "rating": 5.0, "coordinates": {"latitude": 37.79571, "longitude": -122.40314}, "transactions": [], "location": {"address1": "700 Montgomery", "address2": null, "address3": "", "city": "San Francisco", "zip_code": "94111", "country": "US", "state": "CA", "display_address": ["700 Montgomery", "San Francisco, CA 94111"]}, "phone": "+14159905466", "display_phone": "(415) 990-5466", "distance": 4860.358850353697}, {"id": "fIOva7HaL9WhFUUQwxn9TQ", "alias": "patxis-pizza-san-francisco-5", "name": "Patxi's Pizza", "image_url": "https://s3-media3.fl.yelpcdn.com/bphoto/XABBGCU0KSOS54IkHDfAlg/o.jpg", "is_closed": false, "url": "https://www.yelp.com/biz/patxis-pizza-san-francisco-5?adjust_creative=Klanz-jboxl2XzqrjP6LLw&utm_campaign=yelp_api_v3&utm_medium=api_v3_business_search&utm_source=Klanz-jboxl2XzqrjP6LLw", "review_count": 812, "categories": [{"alias": "pizza", "title": "Pizza"}, {"alias": "italian", "title": "Italian"}, {"alias": "salad", "title": "Salad"}], "rating": 3.5, "coordinates": {"latitude": 37.76426, "longitude": -122.46677}, "transactions": ["delivery", "pickup"], "price": "$$", "location": {"address1": "822 Irving St", "address2": "", "address3": "", "city": "San Francisco", "zip_code": "94122", "country": "US", "state": "CA", "display_address": ["822 Irving St", "San Francisco, CA 94122"]}, "phone": "+14156835937", "display_phone": "(415) 683-5937", "distance": 2693.4549477068726}, {"id": "rOp_TipNONYQlRCunZLJHw", "alias": "spin-san-francisco-san-francisco-2", "name": "SPIN - San Francisco", "image_url": "https://s3-media3.fl.yelpcdn.com/bphoto/T8ABuI4X7Uqvwqt3CUAr_w/o.jpg", "is_closed": false, "url": "https://www.yelp.com/biz/spin-san-francisco-san-francisco-2?adjust_creative=Klanz-jboxl2XzqrjP6LLw&utm_campaign=yelp_api_v3&utm_medium=api_v3_business_search&utm_source=Klanz-jboxl2XzqrjP6LLw", "review_count": 297, "categories": [{"alias": "sports_clubs", "title": "Sports Clubs"}, {"alias": "tradamerican", "title": "American (Traditional)"}, {"alias": "cocktailbars", "title": "Cocktail Bars"}], "rating": 4.0, "coordinates": {"latitude": 37.7841835021973, "longitude": -122.398963928223}, "transactions": ["delivery"], "price": "$$", "location": {"address1": "690 Folsom St", "address2": null, "address3": "", "city": "San Francisco", "zip_code": "94107", "country": "US", "state": "CA", "display_address": ["690 Folsom St", "San Francisco, CA 94107"]}, "phone": "+14156365995", "display_phone": "(415) 636-5995", "distance": 4189.871920351061}, {"id": "gVikx9Ad2aAVv0BXnJJPKw", "alias": "goat-hill-pizza-san-francisco", "name": "Goat Hill Pizza", "image_url": "https://s3-media4.fl.yelpcdn.com/bphoto/MJLQ_MKG2JlUa-DU317-SA/o.jpg", "is_closed": false, "url": "https://www.yelp.com/biz/goat-hill-pizza-san-francisco?adjust_creative=Klanz-jboxl2XzqrjP6LLw&utm_campaign=yelp_api_v3&utm_medium=api_v3_business_search&utm_source=Klanz-jboxl2XzqrjP6LLw", "review_count": 1277, "categories": [{"alias": "pizza", "title": "Pizza"}], "rating": 3.5, "coordinates": {"latitude": 37.762471, "longitude": -122.397658}, "transactions": ["delivery", "pickup"], "price": "$$", "location": {"address1": "300 Connecticut St", "address2": "", "address3": "", "city": "San Francisco", "zip_code": "94107", "country": "US", "state": "CA", "display_address": ["300 Connecticut St", "San Francisco, CA 94107"]}, "phone": "+14156411440", "display_phone": "(415) 641-1440", "distance": 3414.30023663041}, {"id": "owj5tzY8w8zXSXza_LS8NQ", "alias": "h\u00f4tel-biron-san-francisco-2", "name": "H\u00f4tel Biron", "image_url": "https://s3-media1.fl.yelpcdn.com/bphoto/BePxSQHfQASf3vQuXPT03Q/o.jpg", "is_closed": false, "url": "https://www.yelp.com/biz/h%C3%B4tel-biron-san-francisco-2?adjust_creative=Klanz-jboxl2XzqrjP6LLw&utm_campaign=yelp_api_v3&utm_medium=api_v3_business_search&utm_source=Klanz-jboxl2XzqrjP6LLw", "review_count": 586, "categories": [{"alias": "wine_bars", "title": "Wine Bars"}, {"alias": "galleries", "title": "Art Galleries"}], "rating": 4.0, "coordinates": {"latitude": 37.77356, "longitude": -122.42205}, "transactions": [], "price": "$$", "location": {"address1": "45 Rose St", "address2": "", "address3": "", "city": "San Francisco", "zip_code": "94102", "country": "US", "state": "CA", "display_address": ["45 Rose St", "San Francisco, CA 94102"]}, "phone": "+14157805366", "display_phone": "(415) 780-5366", "distance": 1892.9871746262377}, {"id": "-4wz0dOG3RdBNYE02l9KjA", "alias": "ppq-dungeness-island-san-francisco-san-francisco", "name": "PPQ Dungeness Island - San Francisco", "image_url": "https://s3-media2.fl.yelpcdn.com/bphoto/pR-rR8l625tP2GoftwKlug/o.jpg", "is_closed": false, "url": "https://www.yelp.com/biz/ppq-dungeness-island-san-francisco-san-francisco?adjust_creative=Klanz-jboxl2XzqrjP6LLw&utm_campaign=yelp_api_v3&utm_medium=api_v3_business_search&utm_source=Klanz-jboxl2XzqrjP6LLw", "review_count": 3139, "categories": [{"alias": "seafood", "title": "Seafood"}, {"alias": "vietnamese", "title": "Vietnamese"}, {"alias": "asianfusion", "title": "Asian Fusion"}], "rating": 4.0, "coordinates": {"latitude": 37.78233, "longitude": -122.484454}, "transactions": ["delivery", "pickup", "restaurant_reservation"], "price": "$$", "location": {"address1": "2332 Clement St", "address2": "", "address3": "", "city": "San Francisco", "zip_code": "94121", "country": "US", "state": "CA", "display_address": ["2332 Clement St", "San Francisco, CA 94121"]}, "phone": "+14153868266", "display_phone": "(415) 386-8266", "distance": 4845.948709986807}, {"id": "WKJzi4g1OGp1nW_6ZJD_rQ", "alias": "za-pizza-san-francisco", "name": "Za Pizza", "image_url": "https://s3-media3.fl.yelpcdn.com/bphoto/olCiohzqhS0V9V6sISp-2A/o.jpg", "is_closed": false, "url": "https://www.yelp.com/biz/za-pizza-san-francisco?adjust_creative=Klanz-jboxl2XzqrjP6LLw&utm_campaign=yelp_api_v3&utm_medium=api_v3_business_search&utm_source=Klanz-jboxl2XzqrjP6LLw", "review_count": 1172, "categories": [{"alias": "pizza", "title": "Pizza"}], "rating": 4.0, "coordinates": {"latitude": 37.7985905231944, "longitude": -122.419042804893}, "transactions": ["delivery"], "price": "$", "location": {"address1": "1919 Hyde St", "address2": "", "address3": "", "city": "San Francisco", "zip_code": "94109", "country": "US", "state": "CA", "display_address": ["1919 Hyde St", "San Francisco, CA 94109"]}, "phone": "+14157713100", "display_phone": "(415) 771-3100", "distance": 4461.456698797022}, {"id": "VjXSJdgy7wnlbMqwRWEgqQ", "alias": "golden-crab-house-san-francisco", "name": "Golden Crab House", "image_url": "https://s3-media2.fl.yelpcdn.com/bphoto/bltDgNEtNuADn54hDXV1uA/o.jpg", "is_closed": false, "url": "https://www.yelp.com/biz/golden-crab-house-san-francisco?adjust_creative=Klanz-jboxl2XzqrjP6LLw&utm_campaign=yelp_api_v3&utm_medium=api_v3_business_search&utm_source=Klanz-jboxl2XzqrjP6LLw", "review_count": 292, "categories": [{"alias": "seafood", "title": "Seafood"}, {"alias": "vietnamese", "title": "Vietnamese"}, {"alias": "asianfusion", "title": "Asian Fusion"}], "rating": 4.5, "coordinates": {"latitude": 37.76368, "longitude": -122.47777}, "transactions": ["delivery", "pickup"], "price": "$$$", "location": {"address1": "1830 Irving St", "address2": "", "address3": null, "city": "San Francisco", "zip_code": "94122", "country": "US", "state": "CA", "display_address": ["1830 Irving St", "San Francisco, CA 94122"]}, "phone": "+14157026685", "display_phone": "(415) 702-6685", "distance": 3648.3712766969606}, {"id": "HCTOtXfbGDTcYsnE_gl35Q", "alias": "brickhouse-bar-and-grill-san-francisco-2", "name": "Brickhouse Bar & Grill", "image_url": "https://s3-media3.fl.yelpcdn.com/bphoto/0KiNBoYqTLkfT5HNIFaSEw/o.jpg", "is_closed": false, "url": "https://www.yelp.com/biz/brickhouse-bar-and-grill-san-francisco-2?adjust_creative=Klanz-jboxl2XzqrjP6LLw&utm_campaign=yelp_api_v3&utm_medium=api_v3_business_search&utm_source=Klanz-jboxl2XzqrjP6LLw", "review_count": 1193, "categories": [{"alias": "tradamerican", "title": "American (Traditional)"}, {"alias": "breakfast_brunch", "title": "Breakfast & Brunch"}, {"alias": "bars", "title": "Bars"}], "rating": 3.5, "coordinates": {"latitude": 37.77965, "longitude": -122.39523}, "transactions": ["delivery", "pickup"], "price": "$$", "location": {"address1": "426 Brannan St", "address2": "", "address3": "", "city": "San Francisco", "zip_code": "94107", "country": "US", "state": "CA", "display_address": ["426 Brannan St", "San Francisco, CA 94107"]}, "phone": "+14153690222", "display_phone": "(415) 369-0222", "distance": 4178.4793975817165}, {"id": "JU3t0Bae1G4p4NVM0sS0Xg", "alias": "bravo-pizza-san-francisco", "name": "Bravo Pizza", "image_url": "https://s3-media3.fl.yelpcdn.com/bphoto/V4HgwgPDmbu_rswdIE8jeQ/o.jpg", "is_closed": false, "url": "https://www.yelp.com/biz/bravo-pizza-san-francisco?adjust_creative=Klanz-jboxl2XzqrjP6LLw&utm_campaign=yelp_api_v3&utm_medium=api_v3_business_search&utm_source=Klanz-jboxl2XzqrjP6LLw", "review_count": 567, "categories": [{"alias": "pizza", "title": "Pizza"}, {"alias": "italian", "title": "Italian"}], "rating": 4.0, "coordinates": {"latitude": 37.716528, "longitude": -122.440801}, "transactions": ["delivery", "pickup"], "price": "$$", "location": {"address1": "5145 Mission St", "address2": "", "address3": "", "city": "San Francisco", "zip_code": "94112", "country": "US", "state": "CA", "display_address": ["5145 Mission St", "San Francisco, CA 94112"]}, "phone": "+14155858500", "display_phone": "(415) 585-8500", "distance": 4948.699687695352}, {"id": "BiZAzf2SAFCE0gJrX-PGFw", "alias": "gather-berkeley", "name": "Gather", "image_url": "https://s3-media4.fl.yelpcdn.com/bphoto/rb22DgOl5oKasPQwqRS6TQ/o.jpg", "is_closed": false, "url": "https://www.yelp.com/biz/gather-berkeley?adjust_creative=Klanz-jboxl2XzqrjP6LLw&utm_campaign=yelp_api_v3&utm_medium=api_v3_business_search&utm_source=Klanz-jboxl2XzqrjP6LLw", "review_count": 2300, "categories": [{"alias": "newamerican", "title": "American (New)"}, {"alias": "bars", "title": "Bars"}, {"alias": "pizza", "title": "Pizza"}], "rating": 4.0, "coordinates": {"latitude": 37.8694781027984, "longitude": -122.266114248013}, "transactions": ["delivery", "pickup", "restaurant_reservation"], "price": "$$", "location": {"address1": "2200 Oxford St", "address2": "", "address3": "", "city": "Berkeley", "zip_code": "94704", "country": "US", "state": "CA", "display_address": ["2200 Oxford St", "Berkeley, CA 94704"]}, "phone": "+15108090400", "display_phone": "(510) 809-0400", "distance": 19226.147687520814}, {"id": "CTE5lnXUYp4xidmh35knNg", "alias": "bar-crudo-san-francisco", "name": "Bar Crudo", "image_url": "https://s3-media2.fl.yelpcdn.com/bphoto/pOj4e4ep3v3oz5vPrz3cOA/o.jpg", "is_closed": false, "url": "https://www.yelp.com/biz/bar-crudo-san-francisco?adjust_creative=Klanz-jboxl2XzqrjP6LLw&utm_campaign=yelp_api_v3&utm_medium=api_v3_business_search&utm_source=Klanz-jboxl2XzqrjP6LLw", "review_count": 1863, "categories": [{"alias": "seafood", "title": "Seafood"}], "rating": 4.0, "coordinates": {"latitude": 37.7756673618778, "longitude": -122.438271045685}, "transactions": ["delivery"], "price": "$$$", "location": {"address1": "655 Divisadero St", "address2": "", "address3": "", "city": "San Francisco", "zip_code": "94117", "country": "US", "state": "CA", "display_address": ["655 Divisadero St", "San Francisco, CA 94117"]}, "phone": "+14154090679", "display_phone": "(415) 409-0679", "distance": 1649.9290902692737}, {"id": "m5NhE7pXBS7PWlHN3FzXwA", "alias": "curio-san-francisco", "name": "Curio", "image_url": "https://s3-media1.fl.yelpcdn.com/bphoto/vWxJhk7BoYmqpLkMSVjR0w/o.jpg", "is_closed": false, "url": "https://www.yelp.com/biz/curio-san-francisco?adjust_creative=Klanz-jboxl2XzqrjP6LLw&utm_campaign=yelp_api_v3&utm_medium=api_v3_business_search&utm_source=Klanz-jboxl2XzqrjP6LLw", "review_count": 192, "categories": [{"alias": "bars", "title": "Bars"}, {"alias": "newamerican", "title": "American (New)"}], "rating": 4.0, "coordinates": {"latitude": 37.7605476, "longitude": -122.4212698}, "transactions": ["delivery"], "price": "$$", "location": {"address1": "775 Valencia St", "address2": null, "address3": "", "city": "San Francisco", "zip_code": "94110", "country": "US", "state": "CA", "display_address": ["775 Valencia St", "San Francisco, CA 94110"]}, "phone": "+14155517306", "display_phone": "(415) 551-7306", "distance": 1344.5130894649287}, {"id": "I2QjNedfsZe3rKssrSyoIg", "alias": "napoli-pizza-san-francisco", "name": "Napoli Pizza", "image_url": "https://s3-media1.fl.yelpcdn.com/bphoto/a3NQH1RE5SR2EtbGemU0Ag/o.jpg", "is_closed": false, "url": "https://www.yelp.com/biz/napoli-pizza-san-francisco?adjust_creative=Klanz-jboxl2XzqrjP6LLw&utm_campaign=yelp_api_v3&utm_medium=api_v3_business_search&utm_source=Klanz-jboxl2XzqrjP6LLw", "review_count": 270, "categories": [{"alias": "pizza", "title": "Pizza"}], "rating": 3.5, "coordinates": {"latitude": 37.7865142822266, "longitude": -122.420082092285}, "transactions": ["delivery", "pickup"], "price": "$", "location": {"address1": "1045 Polk St", "address2": "", "address3": "", "city": "San Francisco", "zip_code": "94109", "country": "US", "state": "CA", "display_address": ["1045 Polk St", "San Francisco, CA 94109"]}, "phone": "+14158852222", "display_phone": "(415) 885-2222", "distance": 3196.513188082685}, {"id": "IF6C4SvyWWx1li9S2xt_CQ", "alias": "piccolo-pizza-san-francisco-15", "name": "Piccolo Pizza", "image_url": "https://s3-media2.fl.yelpcdn.com/bphoto/XCTTZ7WsKE4jQ_OZR37OjA/o.jpg", "is_closed": false, "url": "https://www.yelp.com/biz/piccolo-pizza-san-francisco-15?adjust_creative=Klanz-jboxl2XzqrjP6LLw&utm_campaign=yelp_api_v3&utm_medium=api_v3_business_search&utm_source=Klanz-jboxl2XzqrjP6LLw", "review_count": 349, "categories": [{"alias": "pizza", "title": "Pizza"}, {"alias": "chicken_wings", "title": "Chicken Wings"}, {"alias": "sandwiches", "title": "Sandwiches"}], "rating": 3.5, "coordinates": {"latitude": 37.7850558, "longitude": -122.4177129}, "transactions": ["delivery", "pickup"], "price": "$", "location": {"address1": "799 O'Farrell St", "address2": null, "address3": "", "city": "San Francisco", "zip_code": "94109", "country": "US", "state": "CA", "display_address": ["799 O'Farrell St", "San Francisco, CA 94109"]}, "phone": "+14154093300", "display_phone": "(415) 409-3300", "distance": 3140.9821376861933}, {"id": "aSeldMKv9G6_8-gV0bjwvw", "alias": "the-cheesecake-factory-san-francisco-san-francisco-7", "name": "The Cheesecake Factory - San Francisco", "image_url": "https://s3-media1.fl.yelpcdn.com/bphoto/HFtMHNLU7Vf0c8ZGasUThA/o.jpg", "is_closed": false, "url": "https://www.yelp.com/biz/the-cheesecake-factory-san-francisco-san-francisco-7?adjust_creative=Klanz-jboxl2XzqrjP6LLw&utm_campaign=yelp_api_v3&utm_medium=api_v3_business_search&utm_source=Klanz-jboxl2XzqrjP6LLw", "review_count": 3440, "categories": [{"alias": "newamerican", "title": "American (New)"}, {"alias": "desserts", "title": "Desserts"}], "rating": 3.0, "coordinates": {"latitude": 37.787253, "longitude": -122.40744302193836}, "transactions": ["restaurant_reservation"], "price": "$$", "location": {"address1": "251 Geary St", "address2": "Fl 8", "address3": "Union Square", "city": "San Francisco", "zip_code": "94102", "country": "US", "state": "CA", "display_address": ["251 Geary St", "Fl 8", "Union Square", "San Francisco, CA 94102"]}, "phone": "+14153914444", "display_phone": "(415) 391-4444", "distance": 3884.0342015054607}, {"id": "uSPZcHa95Hx9nWOsJk35Pg", "alias": "que-syrah-san-francisco", "name": "Que Syrah", "image_url": "https://s3-media1.fl.yelpcdn.com/bphoto/m2PXHq20CFvqibfyFqgFQA/o.jpg", "is_closed": false, "url": "https://www.yelp.com/biz/que-syrah-san-francisco?adjust_creative=Klanz-jboxl2XzqrjP6LLw&utm_campaign=yelp_api_v3&utm_medium=api_v3_business_search&utm_source=Klanz-jboxl2XzqrjP6LLw", "review_count": 118, "categories": [{"alias": "wine_bars", "title": "Wine Bars"}], "rating": 4.5, "coordinates": {"latitude": 37.73864, "longitude": -122.46858}, "transactions": [], "price": "$$", "location": {"address1": "230 W Portal Ave", "address2": null, "address3": "", "city": "San Francisco", "zip_code": "94127", "country": "US", "state": "CA", "display_address": ["230 W Portal Ave", "San Francisco, CA 94127"]}, "phone": "+14157317000", "display_phone": "(415) 731-7000", "distance": 3756.5758044450104}, {"id": "AMhmArFJ0IAeknI1mDE6ew", "alias": "bacon-bacon-cafe-san-francisco-san-francisco", "name": "Bacon Bacon Cafe - San Francisco", "image_url": "https://s3-media3.fl.yelpcdn.com/bphoto/eqw2YGxiIhZvvpD1XuSMpQ/o.jpg", "is_closed": false, "url": "https://www.yelp.com/biz/bacon-bacon-cafe-san-francisco-san-francisco?adjust_creative=Klanz-jboxl2XzqrjP6LLw&utm_campaign=yelp_api_v3&utm_medium=api_v3_business_search&utm_source=Klanz-jboxl2XzqrjP6LLw", "review_count": 471, "categories": [{"alias": "breakfast_brunch", "title": "Breakfast & Brunch"}, {"alias": "desserts", "title": "Desserts"}, {"alias": "salad", "title": "Salad"}], "rating": 4.0, "coordinates": {"latitude": 37.76724504605259, "longitude": -122.44667232883555}, "transactions": ["delivery", "pickup"], "price": "$", "location": {"address1": "205 A Frederick St", "address2": "", "address3": "", "city": "San Francisco", "zip_code": "94117", "country": "US", "state": "CA", "display_address": ["205 A Frederick St", "San Francisco, CA 94117"]}, "phone": "+14152184347", "display_phone": "(415) 218-4347", "distance": 1142.7064491738074}, {"id": "IHx8B1Ce_73uD3BmlsXmXA", "alias": "tofino-wines-san-francisco", "name": "Tofino Wines", "image_url": "https://s3-media3.fl.yelpcdn.com/bphoto/JQ6NPIBH8CM9tBdifkUmpA/o.jpg", "is_closed": false, "url": "https://www.yelp.com/biz/tofino-wines-san-francisco?adjust_creative=Klanz-jboxl2XzqrjP6LLw&utm_campaign=yelp_api_v3&utm_medium=api_v3_business_search&utm_source=Klanz-jboxl2XzqrjP6LLw", "review_count": 92, "categories": [{"alias": "wine_bars", "title": "Wine Bars"}, {"alias": "tapasmallplates", "title": "Tapas/Small Plates"}], "rating": 4.0, "coordinates": {"latitude": 37.78279, "longitude": -122.4478}, "transactions": ["delivery"], "price": "$$", "location": {"address1": "2696 Geary Blvd", "address2": "", "address3": "", "city": "San Francisco", "zip_code": "94118", "country": "US", "state": "CA", "display_address": ["2696 Geary Blvd", "San Francisco, CA 94118"]}, "phone": "+14158725782", "display_phone": "(415) 872-5782", "distance": 2612.7207485965682}, {"id": "PLx_VnZyFmxTS1zNTaDJxA", "alias": "alexanders-steakhouse-san-francisco-7", "name": "Alexander's Steakhouse", "image_url": "https://s3-media1.fl.yelpcdn.com/bphoto/-v5k5fSiVlHv8kFseRqR2w/o.jpg", "is_closed": false, "url": "https://www.yelp.com/biz/alexanders-steakhouse-san-francisco-7?adjust_creative=Klanz-jboxl2XzqrjP6LLw&utm_campaign=yelp_api_v3&utm_medium=api_v3_business_search&utm_source=Klanz-jboxl2XzqrjP6LLw", "review_count": 1805, "categories": [{"alias": "steak", "title": "Steakhouses"}, {"alias": "seafood", "title": "Seafood"}, {"alias": "newamerican", "title": "American (New)"}], "rating": 4.0, "coordinates": {"latitude": 37.77931, "longitude": -122.39569}, "transactions": ["delivery", "pickup"], "price": "$$$$", "location": {"address1": "448 Brannan St", "address2": "", "address3": "", "city": "San Francisco", "zip_code": "94107", "country": "US", "state": "CA", "display_address": ["448 Brannan St", "San Francisco, CA 94107"]}, "phone": "+14154951111", "display_phone": "(415) 495-1111", "distance": 4125.751751185153}, {"id": "4Gc68_jXGbxD9Riy1oTlYQ", "alias": "sumac-san-francisco-4", "name": "Sumac", "image_url": "https://s3-media2.fl.yelpcdn.com/bphoto/K7RnsoZ0WvXZIex8-ZzSYA/o.jpg", "is_closed": false, "url": "https://www.yelp.com/biz/sumac-san-francisco-4?adjust_creative=Klanz-jboxl2XzqrjP6LLw&utm_campaign=yelp_api_v3&utm_medium=api_v3_business_search&utm_source=Klanz-jboxl2XzqrjP6LLw", "review_count": 198, "categories": [{"alias": "mediterranean", "title": "Mediterranean"}, {"alias": "turkish", "title": "Turkish"}, {"alias": "wraps", "title": "Wraps"}], "rating": 5.0, "coordinates": {"latitude": 37.799601, "longitude": -122.417303}, "transactions": ["delivery", "pickup"], "price": "$$", "location": {"address1": "1096 Union St", "address2": null, "address3": "", "city": "San Francisco", "zip_code": "94133", "country": "US", "state": "CA", "display_address": ["1096 Union St", "San Francisco, CA 94133"]}, "phone": "+14153076141", "display_phone": "(415) 307-6141", "distance": 4617.228934217233}, {"id": "cem1stH61i39W57xQqvERQ", "alias": "mastros-steakhouse-san-francisco-2", "name": "Mastro's Steakhouse", "image_url": "https://s3-media4.fl.yelpcdn.com/bphoto/NwgiHq8sEv2ReqhXyFh53Q/o.jpg", "is_closed": false, "url": "https://www.yelp.com/biz/mastros-steakhouse-san-francisco-2?adjust_creative=Klanz-jboxl2XzqrjP6LLw&utm_campaign=yelp_api_v3&utm_medium=api_v3_business_search&utm_source=Klanz-jboxl2XzqrjP6LLw", "review_count": 468, "categories": [{"alias": "steak", "title": "Steakhouses"}], "rating": 4.0, "coordinates": {"latitude": 37.7870782, "longitude": -122.4096563}, "transactions": ["delivery", "pickup"], "price": "$$$$", "location": {"address1": "399 Geary St", "address2": "", "address3": null, "city": "San Francisco", "zip_code": "94102", "country": "US", "state": "CA", "display_address": ["399 Geary St", "San Francisco, CA 94102"]}, "phone": "+14153639539", "display_phone": "(415) 363-9539", "distance": 3744.093977660428}, {"id": "lGWurxVPRJ2RmLl_NMRWUg", "alias": "bungalow-44-mill-valley", "name": "Bungalow 44", "image_url": "https://s3-media2.fl.yelpcdn.com/bphoto/oSY5WMA0pprxp7OlqlFcEg/o.jpg", "is_closed": false, "url": "https://www.yelp.com/biz/bungalow-44-mill-valley?adjust_creative=Klanz-jboxl2XzqrjP6LLw&utm_campaign=yelp_api_v3&utm_medium=api_v3_business_search&utm_source=Klanz-jboxl2XzqrjP6LLw", "review_count": 644, "categories": [{"alias": "newamerican", "title": "American (New)"}, {"alias": "wine_bars", "title": "Wine Bars"}], "rating": 4.0, "coordinates": {"latitude": 37.9061574542296, "longitude": -122.546017005072}, "transactions": ["delivery"], "price": "$$$", "location": {"address1": "44 E Blithedale Ave", "address2": null, "address3": "", "city": "Mill Valley", "zip_code": "94941", "country": "US", "state": "CA", "display_address": ["44 E Blithedale Ave", "Mill Valley, CA 94941"]}, "phone": "+14153812500", "display_phone": "(415) 381-2500", "distance": 18801.030524481645}, {"id": "Foe9wljaZvjUeXllpRrg0Q", "alias": "pollara-pizzeria-berkeley-2", "name": "Pollara Pizzeria", "image_url": "https://s3-media4.fl.yelpcdn.com/bphoto/GsC5T7StrnjxVY06y7m_2w/o.jpg", "is_closed": false, "url": "https://www.yelp.com/biz/pollara-pizzeria-berkeley-2?adjust_creative=Klanz-jboxl2XzqrjP6LLw&utm_campaign=yelp_api_v3&utm_medium=api_v3_business_search&utm_source=Klanz-jboxl2XzqrjP6LLw", "review_count": 152, "categories": [{"alias": "pizza", "title": "Pizza"}], "rating": 4.5, "coordinates": {"latitude": 37.87028, "longitude": -122.30101}, "transactions": ["delivery"], "price": "$$", "location": {"address1": "1788 4th St", "address2": "", "address3": null, "city": "Berkeley", "zip_code": "94710", "country": "US", "state": "CA", "display_address": ["1788 4th St", "Berkeley, CA 94710"]}, "phone": "+15105294548", "display_phone": "(510) 529-4548", "distance": 16965.13105597037}, {"id": "i24yqAHl0pfJSEbgRt8bxQ", "alias": "the-lede-oakland-4", "name": "The Lede", "image_url": "https://s3-media3.fl.yelpcdn.com/bphoto/1PEaHa0SqwHQQDjPLcn3Jw/o.jpg", "is_closed": false, "url": "https://www.yelp.com/biz/the-lede-oakland-4?adjust_creative=Klanz-jboxl2XzqrjP6LLw&utm_campaign=yelp_api_v3&utm_medium=api_v3_business_search&utm_source=Klanz-jboxl2XzqrjP6LLw", "review_count": 40, "categories": [{"alias": "wine_bars", "title": "Wine Bars"}, {"alias": "cocktailbars", "title": "Cocktail Bars"}, {"alias": "tapasmallplates", "title": "Tapas/Small Plates"}], "rating": 4.5, "coordinates": {"latitude": 37.82875, "longitude": -122.256456}, "transactions": [], "location": {"address1": "308 41st St", "address2": "", "address3": "", "city": "Oakland", "zip_code": "94609", "country": "US", "state": "CA", "display_address": ["308 41st St", "Oakland, CA 94609"]}, "phone": "+15013383760", "display_phone": "(501) 338-3760", "distance": 17523.015754292624}, {"id": "GjEldsBA605bPDYiGLd4UQ", "alias": "parlour-oakland", "name": "Parlour", "image_url": "https://s3-media2.fl.yelpcdn.com/bphoto/jvlvuLN_R9H9GL_J5E_MXw/o.jpg", "is_closed": false, "url": "https://www.yelp.com/biz/parlour-oakland?adjust_creative=Klanz-jboxl2XzqrjP6LLw&utm_campaign=yelp_api_v3&utm_medium=api_v3_business_search&utm_source=Klanz-jboxl2XzqrjP6LLw", "review_count": 242, "categories": [{"alias": "newamerican", "title": "American (New)"}, {"alias": "italian", "title": "Italian"}, {"alias": "pizza", "title": "Pizza"}], "rating": 3.5, "coordinates": {"latitude": 37.8067932, "longitude": -122.266922}, "transactions": ["delivery"], "price": "$$", "location": {"address1": "357 19th St", "address2": null, "address3": "", "city": "Oakland", "zip_code": "94612", "country": "US", "state": "CA", "display_address": ["357 19th St", "Oakland, CA 94612"]}, "phone": "+15104511357", "display_phone": "(510) 451-1357", "distance": 15736.536637044084}, {"id": "mp8e9fB2dWVJILNLyzoKwg", "alias": "orbit-room-san-francisco", "name": "Orbit Room", "image_url": "https://s3-media2.fl.yelpcdn.com/bphoto/-Bys3GYmZDjZs4I3Ttq_qQ/o.jpg", "is_closed": false, "url": "https://www.yelp.com/biz/orbit-room-san-francisco?adjust_creative=Klanz-jboxl2XzqrjP6LLw&utm_campaign=yelp_api_v3&utm_medium=api_v3_business_search&utm_source=Klanz-jboxl2XzqrjP6LLw", "review_count": 461, "categories": [{"alias": "cocktailbars", "title": "Cocktail Bars"}, {"alias": "pizza", "title": "Pizza"}, {"alias": "venues", "title": "Venues & Event Spaces"}], "rating": 3.5, "coordinates": {"latitude": 37.7707003898946, "longitude": -122.425268754333}, "transactions": ["delivery", "pickup"], "price": "$$", "location": {"address1": "1900 Market St", "address2": "", "address3": "", "city": "San Francisco", "zip_code": "94102", "country": "US", "state": "CA", "display_address": ["1900 Market St", "San Francisco, CA 94102"]}, "phone": "+14159326655", "display_phone": "(415) 932-6655", "distance": 1467.3826890704436}], "total": 1800, "region": {"center": {"longitude": -122.43644714355469, "latitude": 37.76089938976322}}}